option,prize,surface,offer name,rooms ,standard,localization_info,localization_name,latitude,longitude,floor_number,rental_cost,form_of_property,extras,garage,availability,year_of_construction,type_of_building,elevator,media,security,building_material,market
1,420 000 zł,"55,85 m²",Tylko U Nas! Dwupokojowe- Zabobrze III- nowe budow,2,Zapytaj,Współrzędne dokładne,"Zabobrze, Jelenia Góra, Jelenia Góra",50.903103,15.734431,1/3,375 zł,pełna własność,Zapytaj,Zapytaj,brak informacji,brak informacji,brak informacji,nie,brak informacji,brak informacji,brak informacji,wtórny
1,585 000 zł,"49,54 m²",Zamieszkaj w pięknym wnętrzu stylowo urządzonym,2,Zapytaj,Współrzędne dokładne,"Wrocław, Poświętne, ul. Adama Jerzego Czartoryskiego",51.154067,17.047191,5/5,400 zł,pełna własność,balkon,Zapytaj,brak informacji,2021,blok,tak,internet,domofon / wideofon,brak informacji,wtórny
1,479 000 zł,"52,92 m²",Mieszkanie 2 pok. | Rozkładowe | Stare Miasto |,2,Zapytaj,Współrzędne dokładne,"Wrocław, Szczepin, ul. Legnicka",51.118623,16.998395,2/10,650 zł,Zapytaj,balkon,Zapytaj,2022-02-01,1995,blok,tak,internet,domofon / wideofon,inne,wtórny
1,624 000 zł,69 m²,4 pokoje| balkon |zadbana kamienica |po remoncie,4,Zapytaj,Współrzędne dokładne,"Wrocław, Księże Małe, ul. Chorzowska",51.075123,17.082869,1/2,700 zł,pełna własność,balkon,Zapytaj,brak informacji,1935,kamienica,nie,internet,domofon / wideofon,cegła,wtórny
1,1 188 000 zł,"47,52 m²","Wykończony apartament nad Odrą,2pok., Młyn Maria",2,Zapytaj,Współrzędne dokładne,"Wrocław, Stare Miasto, ul. Staromłyńska",51.115305,17.040423,5/5,700 zł,pełna własność,Zapytaj,Zapytaj,2023-04-21,2021,apartamentowiec,nie,brak informacji,brak informacji,brak informacji,wtórny
1,539 000 zł,50 m²,Gaj |50m2 | Rozkład | Nowe Bud. | Balkon!,2,do zamieszkania,Współrzędne dokładne,"Wrocław, Gaj, ul. Jerzego Kukuczki",51.071829,17.035833,parter/4,400 zł,pełna własność,balkon,Zapytaj,brak informacji,2008,blok,tak,"telewizja kablowa, internet, telefon",domofon / wideofon,inne,wtórny
1,819 900 zł,60 m²,Sam Rynek! Gotowe do wprowadzenia | 2 pokoje,2,Zapytaj,Współrzędne dokładne,"Wrocław, Stare Miasto, ul. Ofiar Oświęcimskich",51.10824,17.033105,1/3,620 zł,pełna własność,Zapytaj,Zapytaj,brak informacji,1957,kamienica,nie,"internet, telefon",domofon / wideofon,cegła,wtórny
1,1 244 500 zł,"49,78 m²","Luksusowy apartament nad Odrą 2pok., Młyn Maria",2,do zamieszkania,Współrzędne dokładne,"Wrocław, Stare Miasto, ul. Staromłyńska",51.115305,17.040423,3/5,700 zł,pełna własność,balkon,Zapytaj,2023-04-21,2021,apartamentowiec,nie,brak informacji,brak informacji,brak informacji,wtórny
1,3 350 000 zł,106 m²,Pierwsza linia zabudowy od Odry| Księcia Witolda,3,Zapytaj,Współrzędne dokładne,"Wrocław, Stare Miasto, ul. Księcia Witolda",51.115085,17.0266,1/2,1 200 zł,pełna własność,balkon,Zapytaj,brak informacji,2021,apartamentowiec,tak,internet,domofon / wideofon,inne,wtórny
1,890 000 zł,"96,9 m²",Mieszkanie w prestiżowej lokalizacji,3,Zapytaj,Współrzędne dokładne,"Wrocław, Plac Grunwaldzki, Wybrzeże Pasteura",51.111782,17.069839,2/8,750 zł,Zapytaj,balkon,Zapytaj,brak informacji,1995,plomba,tak,"telewizja kablowa, internet",domofon / wideofon,inne,wtórny
1,899 000 zł,"56,67 m²",#Biskupin#Nowebudownictwo#Taras#2Pokoje#,2,Zapytaj,Współrzędne dokładne,"Wrocław, Dąbie, ul. Antoniego Wiwulskiego",51.101044,17.082708,parter/2,600 zł,pełna własność,ogródek,garaż/miejsce parkingowe,brak informacji,2010,apartamentowiec,nie,"telewizja kablowa, internet","teren zamknięty, domofon / wideofon",inne,wtórny
1,579 000 zł,"63,19 m²",3-pokoje z bardzo dużym salonem i dwoma ogródkami,3,Zapytaj,Współrzędne dokładne,"ul. Południowa , Kiełczów, wrocławski",51.136487,17.184185,parter/3,600 zł,pełna własność,ogródek,Zapytaj,brak informacji,2019,brak informacji,nie,"telewizja kablowa, internet","teren zamknięty, domofon / wideofon, rolety antywłamaniowe",inne,wtórny
1,2 473 120 zł,"95,12 m²","Apartament nad rzeką 96m2, Młyn Maria",3,do zamieszkania,Współrzędne dokładne,"Wrocław, Stare Miasto, ul. Staromłyńska",51.115305,17.040423,4/5,1 250 zł,pełna własność,balkon,garaż/miejsce parkingowe,2023-04-21,2021,apartamentowiec,nie,brak informacji,brak informacji,brak informacji,wtórny
1,1 020 000 zł,125 m²,Mieszkanie willowe + przyziemie + ogród. Wys. std.,3,Zapytaj,Współrzędne dokładne,"Wrocław, Psie Pole, ul. Mazepy",51.139453,17.121396,1/2,Zapytaj,pełna własność,ogródek,Zapytaj,brak informacji,1935,dom wolnostojący,nie,brak informacji,brak informacji,cegła,wtórny
1,929 900 zł,"120,55 m²","Duże, 4-pok. mieszkanie w kamienicy na Krzykach",4,Zapytaj,Współrzędne dokładne,"Wrocław, Huby, ul. Wesoła",51.091017,17.037727,1/4,425 zł,pełna własność,balkon,Zapytaj,brak informacji,1905,kamienica,nie,internet,domofon / wideofon,cegła,wtórny
1,419 000 zł,"51,9 m²",Mieszkanie 2 pokojowe z widokiem na Odrę!,2,do remontu,Współrzędne dokładne,"Wrocław, Różanka, ul. Obornicka",51.146354,17.021943,7/10,500 zł,spółdzielcze własnościowe,balkon,Zapytaj,brak informacji,1979,blok,tak,"telewizja kablowa, internet, telefon",domofon / wideofon,wielka płyta,wtórny
1,785 000 zł,"73,25 m²",Nowa Cena Mieszkanie 73m2- 2 ogródki Kom. Lok.+ Mp,3,Zapytaj,Współrzędne dokładne,"Wrocław, Muchobór Wielki, ul. Jurija Gagarina",51.095284,16.934685,parter/2,700 zł,pełna własność,"balkon, ogródek",garaż/miejsce parkingowe,brak informacji,2008,blok,nie,internet,domofon / wideofon,inne,wtórny
1,549 000 zł,"61,8 m²",Obok stawu Pilczyckiego,3,Zapytaj,Współrzędne dokładne,"Wrocław, Pilczyce, ul. Lotnicza",51.132506,16.959094,parter/11,750 zł,pełna własność,balkon,Zapytaj,brak informacji,1989,blok,tak,internet,domofon / wideofon,wielka płyta,wtórny
1,549 000 zł,"61,8 m²",Obok stawu Pilczyckiego,3,Zapytaj,Współrzędne dokładne,"Wrocław, Pilczyce, ul. Lotnicza",51.132506,16.959094,parter/11,750 zł,pełna własność,balkon,Zapytaj,brak informacji,1989,blok,tak,internet,domofon / wideofon,wielka płyta,wtórny
1,385 000 zł,"41,55 m²","3,6M wysokości Super lokalizacja",1,do zamieszkania,Współrzędne dokładne,"Wrocław, Nadodrze, ul. Bolesława Chrobrego",51.122794,17.034676,2/5,250 zł,pełna własność,Zapytaj,Zapytaj,brak informacji,1930,kamienica,nie,brak informacji,domofon / wideofon,cegła,wtórny
1,340 000 zł,"35,24 m²",Kawalerka na Jedności Narodowej,1,Zapytaj,Współrzędne dokładne,"Wrocław, Ołbin, ul. Jedności Narodowej",51.123858,17.044852,2/4,160 zł,pełna własność,Zapytaj,Zapytaj,brak informacji,1909,kamienica,nie,"telewizja kablowa, internet, telefon",domofon / wideofon,cegła,wtórny
1,395 000 zł,"47,15 m²","Mieszkanie 47,15 m² po remoncie, Krzyki ul.Chudoby",2,Zapytaj,Współrzędne dokładne,"Wrocław, Krzyki, ul. Stanisława Chudoby",51.096907,17.054222,parter,Zapytaj,Zapytaj,Zapytaj,Zapytaj,brak informacji,brak informacji,kamienica,nie,brak informacji,brak informacji,brak informacji,wtórny
1,540 000 zł,55 m²,#Szczepin #Kamienica #2 pokoje #Do wejścia,2,do zamieszkania,Współrzędne dokładne,"Wrocław, Wrocław, dolnośląskie",51.119678,17.012466,4/4,300 zł,pełna własność,Zapytaj,Zapytaj,brak informacji,1920,kamienica,nie,"telewizja kablowa, internet, telefon",domofon / wideofon,cegła,wtórny
1,339 000 zł,65 m²,Podzamcze 3 pokoje 65 m2 z balkonem po remoncie,3,do zamieszkania,Współrzędne dokładne,"Wałbrzych, Podzamcze, ul. Forteczna",50.824006,16.282887,6/10,800 zł,spółdzielcze własnościowe,balkon,Zapytaj,brak informacji,brak informacji,blok,tak,brak informacji,domofon / wideofon,wielka płyta,wtórny
1,295 000 zł,"53,1 m²","winda z poziomu ""0""",2,do zamieszkania,Współrzędne dokładne,"ul. Poselska , Wałbrzych, Wałbrzych",50.82121,16.27879,6/10,550 zł,pełna własność,balkon,Zapytaj,brak informacji,1990,blok,tak,"telewizja kablowa, internet",domofon / wideofon,wielka płyta,wtórny
1,639 000 zł,"54,49 m²","NOWE, Niska Cena, Niskie Koszty, Do Wprowadzenia!",3,do zamieszkania,Współrzędne dokładne,"Wrocław, Swojczyce, ul. Byczyńska 21",51.120228,17.127921,1/2,272 zł,pełna własność,balkon,garaż/miejsce parkingowe,2023-04-14,2021,blok,nie,"telewizja kablowa, internet, telefon","drzwi / okna antywłamaniowe, teren zamknięty, domofon / wideofon, monitoring / ochrona",brak informacji,wtórny
1,1 150 000 zł,"108,1 m²",Ogród| taras|4 pok.|2 łazienki| południe Wrocławia,4,Zapytaj,Współrzędne dokładne,"Klecina, Wrocław, Wrocław",51.060426,16.976415,parter/1,Zapytaj,pełna własność,taras,Zapytaj,brak informacji,1930,dom wolnostojący,nie,brak informacji,"teren zamknięty, domofon / wideofon",cegła,wtórny
1,950 000 zł,"38,06 m²",Mieszkanie 2 pok. Księcia Witolda | Klimatyzacja |,2,Zapytaj,Współrzędne dokładne,"Wrocław, Stare Miasto, ul. Księcia Witolda",51.115085,17.0266,1/5,490 zł,pełna własność,balkon,Zapytaj,2023-03-13,2020,blok,tak,brak informacji,"domofon / wideofon, monitoring / ochrona",brak informacji,wtórny
1,1 100 000 zł,"64,29 m²",Przestronne 2 pokoje przy Ogrodzie Botanicznym!,2,Zapytaj,Współrzędne dokładne,"Wrocław, Plac Grunwaldzki, bulw. kard. Stefana Wyszyńskiego",51.128219,17.055353,6/6,609 zł,pełna własność,"balkon, taras",garaż/miejsce parkingowe,2023-12-31,2018,blok,tak,"telewizja kablowa, internet","drzwi / okna antywłamaniowe, domofon / wideofon",inne,wtórny
1,399 000 zł,"24,26 m²",Kawalerka tuż przy pl. Grunwaldzkim!,1,Zapytaj,Współrzędne dokładne,"Wrocław, Plac Grunwaldzki, Wybrzeże Pasteura",51.111782,17.069839,8/10,600 zł,pełna własność,Zapytaj,Zapytaj,brak informacji,2017,blok,tak,"telewizja kablowa, internet","drzwi / okna antywłamaniowe, domofon / wideofon",inne,wtórny
1,509 000 zł,55 m²,M2 dla rodziny w spokojnej okolicy*Balkon*Piwnica,2,Zapytaj,Współrzędne dokładne,"Wrocław, Żerniki, ul. Objazdowa",51.12267,16.922853,2/2,400 zł,pełna własność,balkon,Zapytaj,brak informacji,2008,blok,nie,brak informacji,domofon / wideofon,brak informacji,wtórny
1,2 999 000 zł,437 m²,Apartament z prywatnym tarasem na dachu/Przy parku,5,Zapytaj,Współrzędne dokładne,"Wrocław, Klecina, ul. Przyjaźni",51.067092,16.996414,3/3,1 850 zł,pełna własność,taras,garaż/miejsce parkingowe,2023-01-14,2000,blok,tak,"telewizja kablowa, internet, telefon","drzwi / okna antywłamaniowe, domofon / wideofon, monitoring / ochrona, rolety antywłamaniowe",inne,wtórny
1,1 399 999 zł,"95,5 m²",Wysoki standard w nowym budownictwie | Krzyki,3,Zapytaj,Współrzędne dokładne,"Wrocław, Krzyki, ul. Skarbowców",51.074224,16.995346,3/3,800 zł,pełna własność,balkon,garaż/miejsce parkingowe,brak informacji,2017,blok,tak,"telewizja kablowa, internet, telefon",domofon / wideofon,inne,wtórny
1,340 000 zł,"34,3 m²",Kawalerka do remontu z pięknym widokiem!,1,do remontu,Współrzędne dokładne,"Wrocław, Gądów Mały, ul. Franciszka Hynka",51.123881,16.964165,9/10,380 zł,pełna własność,balkon,Zapytaj,brak informacji,1990,blok,tak,brak informacji,domofon / wideofon,brak informacji,wtórny
1,790 000 zł,"45,7 m²",Rynek/Stare Miasto/do własnej aranżacji,4,Zapytaj,Współrzędne dokładne,"Wrocław, Stare Miasto, ul. Kotlarska",51.11144,17.034512,2/4,450 zł,pełna własność,Zapytaj,Zapytaj,brak informacji,1970,blok,nie,"telewizja kablowa, internet, telefon",domofon / wideofon,wielka płyta,wtórny
1,580 000 zł,"60,91 m²",Dwupoziomowe 3 pokoje | Duży taras| Ołtaszyn,3,Zapytaj,Współrzędne dokładne,"Wrocław, Ołtaszyn, ul. Motylkowa",51.06144,17.022342,2/2,560 zł,pełna własność,balkon,Zapytaj,brak informacji,2006,blok,nie,brak informacji,domofon / wideofon,inne,wtórny
1,489 000 zł,"47,1 m²",3-pokojowe mieszkanie na Stabłowicach,3,Zapytaj,Współrzędne dokładne,"Wrocław, Stabłowice, ul. Arbuzowa",51.155397,16.89932,parter/4,500 zł,pełna własność,balkon,Zapytaj,brak informacji,2016,blok,tak,"telewizja kablowa, internet","teren zamknięty, domofon / wideofon, monitoring / ochrona, rolety antywłamaniowe",inne,wtórny
1,445 000 zł,"50,33 m²","3 pokoje w rozkładzie, atrakcyjna cena, loggia",3,do zamieszkania,Współrzędne dokładne,"Wrocław, Karłowice, ul. Piotra Czajkowskiego",51.140942,17.060328,2/4,470 zł,pełna własność,balkon,Zapytaj,brak informacji,1980,blok,nie,internet,domofon / wideofon,inne,wtórny
1,459 000 zł,"54,4 m²",Dwupokojowe Przestronne Mieszkanie,2,do zamieszkania,Współrzędne dokładne,"Wrocław, Nowy Dwór, ul. Budziszyńska",51.112574,16.957546,parter/10,530 zł,pełna własność,Zapytaj,Zapytaj,brak informacji,1983,blok,nie,brak informacji,brak informacji,brak informacji,wtórny
1,699 000 zł,72 m²,"Willowe, 4 pokoje, 72 m2, ogródek 250 m2",4,Zapytaj,Współrzędne dokładne,"Wrocław, Sołtysowice, ul. Torfowa",51.153921,17.072676,2/2,Zapytaj,pełna własność,ogródek,Zapytaj,brak informacji,1935,brak informacji,nie,"telewizja kablowa, internet",domofon / wideofon,cegła,wtórny
1,440 000 zł,34 m²,Kawalerka z osobną kuchnią/ Plac Grunwaldzki,1,Zapytaj,Współrzędne dokładne,"Wrocław, Plac Grunwaldzki, ul. Stefana Żeromskiego",51.123423,17.048823,3/4,400 zł,pełna własność,Zapytaj,Zapytaj,brak informacji,1962,plomba,nie,brak informacji,domofon / wideofon,beton,wtórny
1,609 000 zł,"55,52 m²","Komfortowe, spokojne, dwustronne, 2 balkony!",2,Zapytaj,Współrzędne dokładne,"Wrocław, Grabiszyn, ul. Spiżowa",51.101471,17.001437,1/6,400 zł,pełna własność,balkon,Zapytaj,brak informacji,2008,blok,tak,"telewizja kablowa, internet, telefon",domofon / wideofon,inne,wtórny
1,470 000 zł,40 m²,Kawalerka 40m2 przy pl.Legionów/ dla inwestora!,1,do zamieszkania,Współrzędne dokładne,"Wrocław, Psie Pole, pl. marsz. Józefa Piłsudskiego",51.1031,17.025004,4/4,450 zł,pełna własność,balkon,Zapytaj,brak informacji,1960,blok,nie,internet,domofon / wideofon,cegła,wtórny
1,680 000 zł,97 m²,"Łączna pow. to 97m2, z dodatkowym poddaszem.",4,Zapytaj,Współrzędne dokładne,"ul. Słoneczna , Iwiny, wrocławski",51.043309,17.075869,1/1,450 zł,pełna własność,balkon,Zapytaj,2022-09-01,2013,szeregowiec,nie,"telewizja kablowa, internet","drzwi / okna antywłamaniowe, domofon / wideofon",brak informacji,wtórny
1,1 600 000 zł,132 m²,Stylowy apartament przy Parku Południowym,4,Zapytaj,Współrzędne dokładne,"Wrocław, Borek, ok. Januszowickiej",51.082249,17.012212,1/3,1 200 zł,spółdzielcze własnościowe,taras,Zapytaj,brak informacji,1991,apartamentowiec,nie,"telewizja kablowa, internet, telefon",domofon / wideofon,cegła,wtórny
1,625 000 zł,47 m²,HIT! Mieszkanie z ogródkiem 10 min od CENTRUM!,2,do zamieszkania,Współrzędne dokładne,"Wrocław, Tarnogaj, ul. ks. Czesława Klimasa",51.080254,17.061418,parter/4,580 zł,pełna własność,ogródek,garaż/miejsce parkingowe,brak informacji,2016,blok,nie,internet,"drzwi / okna antywłamaniowe, teren zamknięty, domofon / wideofon, monitoring / ochrona, rolety antywłamaniowe",brak informacji,wtórny
1,435 000 zł,"72,6 m²","Wygodne 3-pokojowe z trójkątem, ul. Sucharskiego",3,Zapytaj,Nieruchomość znajduje się w zaznaczonym obszarze mapy. Niestety ogłoszeniodawca nie wskazał dokładnego adresu.,"Oleśnica, oleśnicki, dolnośląskie",51.21183,17.398408,2/4,Zapytaj,spółdzielcze wł. z KW,balkon,Zapytaj,brak informacji,brak informacji,blok,nie,"telewizja kablowa, internet, telefon",domofon / wideofon,beton,wtórny
1,709 000 zł,80 m²,"Pl. Legionów, Stare Miasto, 4 pokoje blisko Rynku!",4,do remontu,Współrzędne dokładne,"Wrocław, Stare Miasto, pl. Legionów",51.104047,17.022767,5/5,850 zł,spółdzielcze wł. z KW,Zapytaj,Zapytaj,brak informacji,1960,blok,nie,"telewizja kablowa, internet, telefon","drzwi / okna antywłamaniowe, domofon / wideofon, rolety antywłamaniowe",cegła,wtórny
1,599 000 zł,56 m²,3 pokoje | ogródek | Smolec,3,do zamieszkania,Współrzędne dokładne,"ul. Granitowa , Smolec, wrocławski",51.082431,16.909012,Zapytaj,650 zł,Zapytaj,"ogródek, taras",garaż/miejsce parkingowe,brak informacji,2017,brak informacji,tak,brak informacji,brak informacji,brak informacji,wtórny
1,519 000 zł,52 m²,Okolice ul.Dźwirzyńskiej/Balkon/Piwnica/Inwestycja,3,Zapytaj,Nieruchomość znajduje się w zaznaczonym obszarze mapy. Niestety ogłoszeniodawca nie wskazał dokładnego adresu.,"Kuźniki, Wrocław, Wrocław",51.13305,16.91019,4/4,560 zł,pełna własność,balkon,garaż/miejsce parkingowe,brak informacji,1986,blok,nie,brak informacji,domofon / wideofon,wielka płyta,wtórny
1,589 000 zł,"58,47 m²",Dwupoziomowe mieszkanie - Maślice,2,do zamieszkania,Współrzędne dokładne,"Wrocław, Maślice, ul. Królewiecka",51.148259,16.937084,2/3,480 zł,pełna własność,balkon,garaż/miejsce parkingowe,brak informacji,2016,blok,nie,"telewizja kablowa, internet, telefon","teren zamknięty, domofon / wideofon",cegła,wtórny
1,636 000 zł,"46,35 m²",Mieszkanie dwupokojowe - Żerniki,2,do zamieszkania,Współrzędne dokładne,"Wrocław, Żerniki, ul. Objazdowa",51.122685,16.922423,2/3,550 zł,pełna własność,Zapytaj,Zapytaj,brak informacji,2015,blok,nie,brak informacji,brak informacji,silikat,wtórny
1,450 000 zł,"33,41 m²",Kawalerka z możliwością przerobienia na 2-pokojowe,1,Zapytaj,Współrzędne dokładne,"Wrocław, Stare Miasto, ul. Gnieźnieńska",51.122877,17.013509,1/4,Zapytaj,Zapytaj,Zapytaj,Zapytaj,brak informacji,brak informacji,apartamentowiec,nie,"telewizja kablowa, internet, telefon",domofon / wideofon,brak informacji,wtórny
1,390 000 zł,85 m²,SPRZEDAM 4 Pokojowe mieszkanie na Zarzeczu,4,do zamieszkania,Nieruchomość znajduje się w zaznaczonym obszarze mapy. Niestety ogłoszeniodawca nie wskazał dokładnego adresu.,"Świdnica, świdnicki, dolnośląskie",50.844166,16.490959,2/2,400 zł,pełna własność,Zapytaj,Zapytaj,brak informacji,1950,kamienica,nie,"telewizja kablowa, internet",domofon / wideofon,cegła,wtórny
1,249 000 zł,"45,5 m²","Mieszkanie, 45,50 m², Kłodzko",2,Zapytaj,Nieruchomość znajduje się w zaznaczonym obszarze mapy. Niestety ogłoszeniodawca nie wskazał dokładnego adresu.,"Kłodzko, kłodzki, dolnośląskie",50.431472,16.646969,Zapytaj,Zapytaj,Zapytaj,Zapytaj,Zapytaj,brak informacji,brak informacji,brak informacji,nie,brak informacji,brak informacji,brak informacji,wtórny
1,324 000 zł,"43,5 m²","42m2, 2 pokoje, komórka, ogródek, Ołtaszyn-Mędłów",2,do wykończenia,Nieruchomość znajduje się w zaznaczonym obszarze mapy. Niestety ogłoszeniodawca nie wskazał dokładnego adresu.,"Krzyki, Wrocław, Wrocław",51.042299,17.029157,parter/3,285 zł,pełna własność,"balkon, ogródek, taras",Zapytaj,brak informacji,2015,apartamentowiec,nie,"telewizja kablowa, internet, telefon","drzwi / okna antywłamaniowe, domofon / wideofon, rolety antywłamaniowe",brak informacji,wtórny
1,945 000 zł,75 m²,"wysoki standard, 4 pok. duży taras z wid. na Ślężę",4,do zamieszkania,Współrzędne dokładne,"Wrocław, Muchobór Wielki, ul. Drohobycka",51.095849,16.938,2/2,730 zł,pełna własność,"balkon, taras",garaż/miejsce parkingowe,brak informacji,2005,apartamentowiec,nie,"telewizja kablowa, internet, telefon","drzwi / okna antywłamaniowe, teren zamknięty, domofon / wideofon, monitoring / ochrona, rolety antywłamaniowe",brak informacji,wtórny
1,259 000 zł,48 m²,"Pełne wyposażenie/idealne pod inwestycję, Ip.",2,do zamieszkania,Nieruchomość znajduje się w zaznaczonym obszarze mapy. Niestety ogłoszeniodawca nie wskazał dokładnego adresu.,"Dzierżoniów, dzierżoniowski, dolnośląskie",50.72623,16.65407,1/2,260 zł,pełna własność,Zapytaj,Zapytaj,brak informacji,brak informacji,kamienica,nie,internet,domofon / wideofon,cegła,wtórny
1,255 000 zł,43 m²,2 pokoje 43m blok os. Błękitne,2,do zamieszkania,Współrzędne dokładne,"os. Błękitne , Dzierżoniów, dzierżoniowski",50.738483,16.644182,3/4,660 zł,spółdzielcze własnościowe,Zapytaj,Zapytaj,brak informacji,brak informacji,blok,nie,brak informacji,brak informacji,wielka płyta,wtórny
1,329 000 zł,52 m²,Oława*Centrum*słoneczne 3 pokoje*rozkład* piwnica*,3,do wykończenia,Współrzędne dokładne,"ul. Bolesława Chrobrego , Oława, oławski",50.94434,17.30278,10/11,550 zł,spółdzielcze wł. z KW,Zapytaj,Zapytaj,brak informacji,1975,brak informacji,nie,brak informacji,brak informacji,brak informacji,wtórny
1,450 000 zł,"58,3 m²","/2p 58,3m//Świetna lokalizacja/duże pokoje/",2,Zapytaj,Współrzędne dokładne,"Wrocław, Karłowice, al. Tadeusza Boya-Żeleńskiego",51.13435,17.05893,3/3,300 zł,pełna własność,Zapytaj,Zapytaj,brak informacji,brak informacji,brak informacji,nie,brak informacji,brak informacji,brak informacji,wtórny
1,1 299 000 zł,"88,4 m²",Lux z dwoma balkonami w centrum,3,do zamieszkania,Współrzędne dokładne,"Wrocław, Stare Miasto, ul. Tęczowa 80",51.104425,17.009331,4/6,670 zł,pełna własność,balkon,garaż/miejsce parkingowe,brak informacji,2011,blok,tak,"telewizja kablowa, internet, telefon","drzwi / okna antywłamaniowe, teren zamknięty, domofon / wideofon, monitoring / ochrona",cegła,wtórny
1,499 900 zł,105 m²,Mieszkanie 4 pok 105 m okolice Wrocław 0 prowizji!,4,do zamieszkania,Nieruchomość znajduje się w zaznaczonym obszarze mapy. Niestety ogłoszeniodawca nie wskazał dokładnego adresu.,"Łukaszowice, wrocławski, dolnośląskie",51.01137,17.08619,parter/2,Zapytaj,spółdzielcze własnościowe,ogródek,garaż/miejsce parkingowe,brak informacji,1836,dom wolnostojący,nie,"telewizja kablowa, internet, telefon",brak informacji,cegła,wtórny
1,389 000 zł,65 m²,Dwustronne 3 pokoje z balkonem w Oławie!,3,do zamieszkania,Współrzędne dokładne,"ul. Jarosława Iwaszkiewicza , Oława, oławski",50.94595,17.27484,4/4,800 zł,spółdzielcze wł. z KW,balkon,Zapytaj,brak informacji,brak informacji,blok,nie,"telewizja kablowa, internet, telefon",domofon / wideofon,wielka płyta,wtórny
1,289 000 zł,45 m²,3 Pokoje Piaskowa Góra po remoncie bez prowizji !!,3,do zamieszkania,Nieruchomość znajduje się w zaznaczonym obszarze mapy. Niestety ogłoszeniodawca nie wskazał dokładnego adresu.,"Piaskowa Góra, Wałbrzych, Wałbrzych",50.80816,16.28452,parter/10,330 zł,spółdzielcze własnościowe,balkon,Zapytaj,brak informacji,1980,blok,tak,telewizja kablowa,domofon / wideofon,wielka płyta,wtórny
1,315 000 zł,54 m²,"3 duże pokoje, 54m2, blok-Bielawa",3,do zamieszkania,Nieruchomość znajduje się w zaznaczonym obszarze mapy. Niestety ogłoszeniodawca nie wskazał dokładnego adresu.,"Bielawa, dzierżoniowski, dolnośląskie",50.69075,16.623,2/4,450 zł,spółdzielcze własnościowe,balkon,Zapytaj,brak informacji,brak informacji,blok,nie,brak informacji,domofon / wideofon,wielka płyta,wtórny
1,209 000 zł,"54,5 m²",Mieszkanie Głogów Kopernik 3pokoje super lokalizac,3,do remontu,Współrzędne dokładne,"Głogów, Kopernik, ul. Oriona",51.651136,16.058906,5/10,700 zł,spółdzielcze wł. z KW,Zapytaj,Zapytaj,brak informacji,brak informacji,blok,tak,"telewizja kablowa, internet",brak informacji,wielka płyta,wtórny
1,335 000 zł,"68,2 m²",jasne przestronne ciepłe mieszkanie Podzamcze,3,do zamieszkania,Nieruchomość znajduje się w zaznaczonym obszarze mapy. Niestety ogłoszeniodawca nie wskazał dokładnego adresu.,"Podzamcze, Wałbrzych, Wałbrzych",50.82413,16.27713,1/10,942 zł,spółdzielcze własnościowe,balkon,Zapytaj,brak informacji,brak informacji,blok,tak,"telewizja kablowa, internet, telefon","drzwi / okna antywłamaniowe, domofon / wideofon",wielka płyta,wtórny
1,399 000 zł,35 m²,Dwupokojowe mieszkanie po remoncie na Gaju,2,do zamieszkania,Nieruchomość znajduje się w zaznaczonym obszarze mapy. Niestety ogłoszeniodawca nie wskazał dokładnego adresu.,"Gaj, Wrocław, Wrocław",51.07916,17.04203,6/10,Zapytaj,spółdzielcze własnościowe,balkon,Zapytaj,brak informacji,brak informacji,blok,nie,brak informacji,"drzwi / okna antywłamaniowe, domofon / wideofon",wielka płyta,wtórny
1,599 000 zł,51 m²,2 pokoje | Garderoba | Ogródek | 51 m2,2,do zamieszkania,Współrzędne dokładne,"Stabłowice, Wrocław, Wrocław",51.14792,16.89247,parter,400 zł,pełna własność,Zapytaj,garaż/miejsce parkingowe,brak informacji,2019,blok,tak,brak informacji,monitoring / ochrona,brak informacji,wtórny
1,550 000 zł,"48,1 m²","Centrum / Gotowe do zamieszkania, 3 Pokoje",3,do zamieszkania,Współrzędne dokładne,"Wrocław, Południe, ul. Drukarska",51.089992,17.020857,parter/10,700 zł,pełna własność,Zapytaj,Zapytaj,brak informacji,1967,blok,tak,"telewizja kablowa, internet, telefon","drzwi / okna antywłamaniowe, domofon / wideofon",wielka płyta,wtórny
1,159 900 zł,"39,7 m²",Okazja! Mieszkanie 2 pokoje ul.Słowiańska Lubin,2,do remontu,Współrzędne dokładne,"Lubin, Centrum, ul. Słowiańska",51.399629,16.215982,3/4,470 zł,pełna własność,Zapytaj,Zapytaj,brak informacji,1996,blok,nie,brak informacji,brak informacji,wielka płyta,wtórny
1,1 500 000 zł,"170,6 m²",Piętro w Willi na Karłowicach 170m2 + garaż,6,do zamieszkania,Współrzędne dokładne,"Wrocław, Psie Pole, al. Jana Kasprowicza",51.136062,17.048203,1/2,Zapytaj,pełna własność,"balkon, ogródek, taras",garaż/miejsce parkingowe,brak informacji,1900,dom wolnostojący,nie,brak informacji,brak informacji,cegła,wtórny
1,180 000 zł,48 m²,Przestrzenne mieszkanie o powierzchni 48 mkw,2,do zamieszkania,Współrzędne dokładne,"Osiedle Piastowskie , Nowa Ruda, kłodzki",50.583,16.4951,parter/3,Zapytaj,pełna własność,Zapytaj,Zapytaj,brak informacji,1970,blok,nie,brak informacji,brak informacji,wielka płyta,wtórny
1,225 000 zł,"52,5 m²",2 pokoje 52.5m² parter do wykończenia 11 listopada,2,do wykończenia,Współrzędne dokładne,"Oleśnica, Centrum, ul. 11 Listopada",51.206156,17.383933,parter/2,400 zł,pełna własność,Zapytaj,Zapytaj,brak informacji,1937,kamienica,nie,"telewizja kablowa, internet, telefon",drzwi / okna antywłamaniowe,cegła,wtórny
1,430 000 zł,"49,1 m²",Świetne mieszkanie pod bazę wypadową!,3,do zamieszkania,Współrzędne dokładne,"Szklarska Poręba, karkonoski, dolnośląskie",50.82593,15.52108,1/1,350 zł,pełna własność,Zapytaj,garaż/miejsce parkingowe,2022-09-30,brak informacji,dom wolnostojący,nie,internet,brak informacji,brak informacji,wtórny
1,480 000 zł,42 m²,"2 Pokoje, Kleczków, Balkon",2,do zamieszkania,Nieruchomość znajduje się w zaznaczonym obszarze mapy. Niestety ogłoszeniodawca nie wskazał dokładnego adresu.,"Kleczków, Wrocław, Wrocław",51.12889,17.02781,parter/5,520 zł,pełna własność,balkon,Zapytaj,brak informacji,1977,blok,nie,"telewizja kablowa, internet, telefon",brak informacji,silikat,wtórny
1,497 000 zł,71 m²,3 pokojowe 71m w kamienicy IIp przy ul. Podwale,3,do remontu,Współrzędne dokładne,"Wrocław, Stare Miasto, ul. Podwale",51.111446,17.021811,2/4,300 zł,pełna własność,Zapytaj,Zapytaj,brak informacji,1920,kamienica,nie,"telewizja kablowa, internet, telefon","drzwi / okna antywłamaniowe, domofon / wideofon",cegła,wtórny
1,859 000 zł,"64,25 m²",3 pokoje |Miejsce postojowe|Atrakcyjna lokalizacja,3,Zapytaj,Współrzędne dokładne,"Wrocław, Popowice, ul. Białowieska",51.126986,16.993548,6/9,692 zł,pełna własność,balkon,garaż/miejsce parkingowe,brak informacji,2017,apartamentowiec,tak,"telewizja kablowa, internet",domofon / wideofon,inne,wtórny
1,369 000 zł,"30,64 m²","Kawalerka na Karłowicach, inwestycyjnie",1,Zapytaj,Współrzędne dokładne,"Wrocław, Karłowice, ul. Ignacego Chrzanowskiego",51.142842,17.048177,4/4,257 zł,pełna własność,Zapytaj,Zapytaj,brak informacji,2007,apartamentowiec,nie,brak informacji,"domofon / wideofon, rolety antywłamaniowe",brak informacji,wtórny
1,580 000 zł,"57,3 m²",3-pokojowe mieszkanie w pięknej okolicy,3,do zamieszkania,Współrzędne dokładne,"Wrocław, Nadodrze, ul. Bolesława Chrobrego",51.122794,17.034676,parter/7,750 zł,pełna własność,Zapytaj,Zapytaj,brak informacji,1900,kamienica,tak,"telewizja kablowa, internet",domofon / wideofon,brak informacji,wtórny
1,600 000 zł,54 m²,3-pokojowe mieszkanie po generalnym remoncie,3,Zapytaj,Współrzędne dokładne,"Wrocław, Różanka, ul. Obornicka",51.146354,17.021943,9/10,700 zł,pełna własność,balkon,Zapytaj,brak informacji,1979,blok,tak,"telewizja kablowa, internet",domofon / wideofon,wielka płyta,wtórny
1,620 000 zł,"71,9 m²","3 pokoje, garderoba. Widok na skwer.",3,Zapytaj,Współrzędne dokładne,"Wrocław, Karłowice, ul. Koszarowa",51.141733,17.06444,1/4,830 zł,spółdzielcze własnościowe,balkon,Zapytaj,2023-06-14,1981,blok,tak,"telewizja kablowa, internet","system alarmowy, domofon / wideofon",wielka płyta,wtórny
1,645 000 zł,"61,8 m²",3 pok. z 1997 r.| Gądów |m.postojowe| duża komórka,3,do zamieszkania,Współrzędne dokładne,"Wrocław, Gądów Mały, ul. Latawcowa",51.129586,16.963593,parter/4,700 zł,pełna własność,balkon,Zapytaj,2023-05-31,1997,blok,nie,"telewizja kablowa, internet","drzwi / okna antywłamaniowe, domofon / wideofon, rolety antywłamaniowe",cegła,wtórny
1,600 000 zł,"67,65 m²",Przestronne 2-pokojowe mieszkanie w centrum.,2,do remontu,Współrzędne dokładne,"Wrocław, Nadodrze, ul. Henryka Probusa",51.118576,17.037709,3/4,412 zł,pełna własność,Zapytaj,Zapytaj,2023-05-04,1900,kamienica,nie,brak informacji,domofon / wideofon,cegła,wtórny
1,975 000 zł,"62,9 m²",Piękne mieszkanie|Kępa Mieszczańska|63m2|duży tara,3,Zapytaj,Współrzędne dokładne,"Wrocław, Stare Miasto, ul. Romana Dmowskiego",51.116948,17.021582,1/6,850 zł,pełna własność,"balkon, taras",garaż/miejsce parkingowe,brak informacji,2014,apartamentowiec,nie,brak informacji,brak informacji,brak informacji,wtórny
1,975 000 zł,"62,9 m²",Piękne mieszkanie|Kępa Mieszczańska|63m2|duży tara,3,Zapytaj,Współrzędne dokładne,"Wrocław, Stare Miasto, ul. Romana Dmowskiego",51.116948,17.021582,1/6,850 zł,pełna własność,"balkon, taras",garaż/miejsce parkingowe,brak informacji,2014,apartamentowiec,nie,brak informacji,brak informacji,brak informacji,wtórny
1,472 000 zł,"50,8 m²","2 pokoje/ 50,8m2/ balkon/ osobna kuchnia",2,Zapytaj,Współrzędne dokładne,"Wrocław, Stabłowice, ul. Główna",51.161718,16.902077,2/4,500 zł,pełna własność,balkon,Zapytaj,brak informacji,2009,blok,tak,brak informacji,domofon / wideofon,brak informacji,wtórny
1,369 000 zł,"33,4 m²","Duża kawalerka po remoncie,po remoncie.",1,Zapytaj,Współrzędne dokładne,"Wrocław, Nadodrze, ul. Andrzeja Struga",51.107885,17.038538,3/4,300 zł,pełna własność,Zapytaj,Zapytaj,2023-05-01,1900,kamienica,nie,"telewizja kablowa, internet","drzwi / okna antywłamaniowe, domofon / wideofon",cegła,wtórny
1,490 000 zł,"51,6 m²",Nowe /Komfortowe / Balkon / Plus Komórka / Bez Pcc,2,Zapytaj,Współrzędne dokładne,"Wrocław, Lipa Piotrowska, ul. Waniliowa",51.1766,17.0033,1/2,500 zł,Zapytaj,balkon,Zapytaj,brak informacji,2022,apartamentowiec,tak,brak informacji,brak informacji,brak informacji,wtórny
1,760 000 zł,"71,87 m²","2019 r. / 3 pokoje + ogródek /Iwiny, ul. Św.Jacka",3,do zamieszkania,Współrzędne dokładne,"Jagodno, Wrocław, Wrocław",51.050649,17.058463,parter/1,175 zł,pełna własność,ogródek,garaż/miejsce parkingowe,brak informacji,2018,dom wolnostojący,nie,brak informacji,system alarmowy,silikat,wtórny
1,690 000 zł,115 m²,Sprzedam mieszkanie Świeradów-Zdrój,3,Zapytaj,Nieruchomość znajduje się w zaznaczonym obszarze mapy. Niestety ogłoszeniodawca nie wskazał dokładnego adresu.,"Świeradów-Zdrój, lubański, dolnośląskie",50.9121,15.342,Zapytaj,Zapytaj,Zapytaj,Zapytaj,Zapytaj,brak informacji,brak informacji,brak informacji,nie,brak informacji,brak informacji,brak informacji,wtórny
1,179 000 zł,"28,2 m²","Piękne mieszkanie! Super inwestycja, parter OKAZJA",1,do zamieszkania,Współrzędne dokładne,"ul. Przemysłowa , Głogów, głogowski",51.667799,16.072796,parter/4,300 zł,pełna własność,Zapytaj,Zapytaj,brak informacji,brak informacji,brak informacji,nie,"telewizja kablowa, internet",brak informacji,cegła,wtórny
1,499 000 zł,60 m²,"3 Pokoje, 1 piętro, 60m2",4,do zamieszkania,Nieruchomość znajduje się w zaznaczonym obszarze mapy. Niestety ogłoszeniodawca nie wskazał dokładnego adresu.,"Księże Małe, Wrocław, Wrocław",51.07688,17.08372,1/3,600 zł,spółdzielcze własnościowe,Zapytaj,Zapytaj,brak informacji,1930,kamienica,nie,"telewizja kablowa, internet, telefon",brak informacji,cegła,wtórny
1,809 999 zł,"69,6 m²","Mieszkanie 3 Pokoje, Krzyki, Balkon",3,Zapytaj,Nieruchomość znajduje się w zaznaczonym obszarze mapy. Niestety ogłoszeniodawca nie wskazał dokładnego adresu.,"Krzyki, Wrocław, Wrocław",51.07855,17.05319,2/4,Zapytaj,spółdzielcze własnościowe,balkon,Zapytaj,brak informacji,brak informacji,blok,nie,"telewizja kablowa, internet, telefon",brak informacji,silikat,wtórny
1,614 000 zł,"60,02 m²",Garderoba | 2 pokoje | Duży taras,2,do zamieszkania,Nieruchomość znajduje się w zaznaczonym obszarze mapy. Niestety ogłoszeniodawca nie wskazał dokładnego adresu.,"Partynice, Wrocław, Wrocław",51.06102,17.00083,2,590 zł,Zapytaj,balkon,garaż/miejsce parkingowe,brak informacji,brak informacji,blok,tak,"telewizja kablowa, internet, telefon",brak informacji,silikat,wtórny
1,460 000 zł,47 m²,2 pokoje z balkonem | Blisko tramwaj,2,do remontu,Nieruchomość znajduje się w zaznaczonym obszarze mapy. Niestety ogłoszeniodawca nie wskazał dokładnego adresu.,"Grabiszyn, Wrocław, Wrocław",51.09141,16.97927,4/4,600 zł,spółdzielcze własnościowe,balkon,Zapytaj,brak informacji,1970,blok,nie,"telewizja kablowa, internet, telefon",brak informacji,wielka płyta,wtórny
1,530 000 zł,"50,5 m²","3 pokoje, Śródmieście, 3km do centrum",3,Zapytaj,Nieruchomość znajduje się w zaznaczonym obszarze mapy. Niestety ogłoszeniodawca nie wskazał dokładnego adresu.,"Śródmieście, Wrocław, Wrocław",51.11324,17.08127,> 10/11,500 zł,pełna własność,balkon,Zapytaj,brak informacji,1978,blok,tak,"telewizja kablowa, internet, telefon",brak informacji,silikat,wtórny
1,769 000 zł,"72,8 m²","3 pokojowe mieszkanie 72,8m Kowale - Bezpośrednio",3,do zamieszkania,Nieruchomość znajduje się w zaznaczonym obszarze mapy. Niestety ogłoszeniodawca nie wskazał dokładnego adresu.,"Kowale, Wrocław, Wrocław",51.135032,17.091652,1,820 zł,pełna własność,"balkon, taras",garaż/miejsce parkingowe,brak informacji,2009,blok,nie,"internet, telefon","teren zamknięty, domofon / wideofon, monitoring / ochrona",pustak,wtórny
1,449 000 zł,44 m²,Rozkładowe dwa pokoje - Plac Wróblewskiego/gotowe,2,do zamieszkania,Współrzędne dokładne,"Wrocław, Krzyki, ul. gen. Józefa Haukego-Bosaka",51.10442,17.04726,4,210 zł,Zapytaj,Zapytaj,Zapytaj,brak informacji,brak informacji,kamienica,nie,internet,domofon / wideofon,cegła,wtórny
1,1 250 000 zł,50 m²,"Piękny apartament, piękne widoki. Wizyta 3D",2,do zamieszkania,Współrzędne dokładne,"Stare Miasto, Wrocław, Wrocław",51.115456,17.04005,4,400 zł,Zapytaj,balkon,Zapytaj,brak informacji,brak informacji,apartamentowiec,tak,"telewizja kablowa, internet, telefon",system alarmowy,cegła,wtórny
1,529 312 zł,"38,88 m²","Nowoczesne, prestiżowe z pięknym widokiem, taras!",2,Zapytaj,Współrzędne dokładne,"Generała Józefa Hauke-Bosaka 18, Wrocław, Wrocław",51.10495,17.04514,7/7,450 zł,pełna własność,balkon,garaż/miejsce parkingowe,brak informacji,2022,apartamentowiec,tak,brak informacji,system alarmowy,brak informacji,wtórny
1,1 950 000 zł,150 m²,"Apartament w willi miejskiej, z tarasem i ogrodem!",6,Zapytaj,Współrzędne dokładne,"Borek, Wrocław, Wrocław",51.081852,17.00683,1/1,Zapytaj,pełna własność,"balkon, ogródek, taras",Zapytaj,brak informacji,1930,dom wolnostojący,nie,"telewizja kablowa, telefon",brak informacji,brak informacji,wtórny
1,324 900 zł,"55,4 m²",3 pokoje / po remoncie / niezamieszkane / winda,3,do zamieszkania,Nieruchomość znajduje się w zaznaczonym obszarze mapy. Niestety ogłoszeniodawca nie wskazał dokładnego adresu.,"Legnica, Legnica, dolnośląskie",51.206786,16.19484,10/11,532 zł,pełna własność,Zapytaj,Zapytaj,brak informacji,1980,blok,tak,brak informacji,"drzwi / okna antywłamaniowe, domofon / wideofon",brak informacji,wtórny
1,235 000 zł,30 m²,Piaskowa Góra kapitalny remont 2 pok. balkon winda,2,Zapytaj,Nieruchomość znajduje się w zaznaczonym obszarze mapy. Niestety ogłoszeniodawca nie wskazał dokładnego adresu.,"Piaskowa Góra, Wałbrzych, Wałbrzych",50.80816,16.28452,5/10,Zapytaj,spółdzielcze wł. z KW,balkon,Zapytaj,brak informacji,brak informacji,blok,tak,brak informacji,domofon / wideofon,wielka płyta,wtórny
1,595 000 zł,"57,2 m²","3 pok. mieszkanie, idealne dla rodziny I Kuźniki",3,do zamieszkania,Współrzędne dokładne,"Wrocław, Kuźniki, ul. Koszalińska",51.1249,16.950559,3/4,Zapytaj,spółdzielcze wł. z KW,Zapytaj,Zapytaj,brak informacji,1981,blok,nie,brak informacji,brak informacji,brak informacji,wtórny
1,260 000 zł,"48,08 m²",2 pokoje Ustronie III,2,Zapytaj,Współrzędne dokładne,"Lubin, lubiński, dolnośląskie",51.407031,16.176177,3/4,460 zł,spółdzielcze wł. z KW,Zapytaj,Zapytaj,brak informacji,brak informacji,blok,nie,brak informacji,brak informacji,brak informacji,wtórny
1,266 000 zł,"54,76 m²","mieszkanie Jelenia Góra Centrum 54,76 m2",1,do wykończenia,Nieruchomość znajduje się w zaznaczonym obszarze mapy. Niestety ogłoszeniodawca nie wskazał dokładnego adresu.,"Centrum, Jelenia Góra, Jelenia Góra",50.89884,15.74245,2,290 zł,pełna własność,Zapytaj,Zapytaj,brak informacji,brak informacji,kamienica,nie,brak informacji,brak informacji,brak informacji,wtórny
1,469 000 zł,47 m²,Budziszyńska / blok / balkon / nowa kuchnia i Agd,2,do zamieszkania,Współrzędne dokładne,"Wrocław, Nowy Dwór, ul. Budziszyńska",51.114144,16.95099,3/10,700 zł,pełna własność,balkon,Zapytaj,brak informacji,1979,blok,tak,brak informacji,brak informacji,brak informacji,wtórny
1,610 000 zł,"56,12 m²",2 pokoje + balkon /Kamienica po remoncie!,2,do zamieszkania,Współrzędne dokładne,"Ołbin, Wrocław, Wrocław",51.123956,17.049505,4/4,Zapytaj,pełna własność,Zapytaj,Zapytaj,brak informacji,1905,kamienica,nie,brak informacji,brak informacji,cegła,wtórny
1,365 000 zł,"26,6 m²","kawalerka 26,60m2 z balkonem / 15 minut od Rynku",1,do zamieszkania,Współrzędne dokładne,"Krzyki, Wrocław, Wrocław",51.099289,17.013917,4/10,350 zł,pełna własność,balkon,Zapytaj,brak informacji,1970,blok,tak,brak informacji,brak informacji,wielka płyta,wtórny
1,427 500 zł,46 m²,ul. Sycowska,2,do zamieszkania,Współrzędne dokładne,"Wrocław, Psie Pole, ul. Sycowska",51.146615,17.110093,parter/4,550 zł,pełna własność,balkon,Zapytaj,brak informacji,1980,blok,nie,brak informacji,"drzwi / okna antywłamaniowe, domofon / wideofon",cegła,wtórny
1,899 000 zł,"81,3 m²","ul.Rymarska ładne 4 pokoje z ogródkiem,blisko park",4,do zamieszkania,Nieruchomość znajduje się w zaznaczonym obszarze mapy. Niestety ogłoszeniodawca nie wskazał dokładnego adresu.,"Fabryczna, Wrocław, Wrocław",51.080567,16.991173,parter/3,Zapytaj,pełna własność,ogródek,Zapytaj,brak informacji,2006,blok,nie,telewizja kablowa,monitoring / ochrona,brak informacji,wtórny
1,497 000 zł,40 m²,Bardzo ładne mieszkanie w dobrej lokalizacji.,2,do zamieszkania,Współrzędne dokładne,"Wrocław, Brochów, ul. Ignacego Mościckiego",51.060848,17.085707,1/3,350 zł,pełna własność,balkon,garaż/miejsce parkingowe,brak informacji,2018,blok,tak,"telewizja kablowa, internet","teren zamknięty, domofon / wideofon, monitoring / ochrona",brak informacji,wtórny
1,369 999 zł,27 m²,Loft Studio Apartament 26m2 Winda!,1,do zamieszkania,Nieruchomość znajduje się w zaznaczonym obszarze mapy. Niestety ogłoszeniodawca nie wskazał dokładnego adresu.,"Wrocław, Wrocław, dolnośląskie",51.10195,17.03667,6/10,Zapytaj,pełna własność,Zapytaj,Zapytaj,brak informacji,1980,blok,tak,brak informacji,brak informacji,brak informacji,wtórny
1,175 000 zł,30 m²,sprzedam mieszkanie jedno pokojowe Zgorzelec,1,do zamieszkania,Współrzędne dokładne,"ul. Stanisława Wyspiańskiego , Zgorzelec, zgorzelecki",51.157583,15.003323,5/5,600 zł,spółdzielcze własnościowe,Zapytaj,Zapytaj,brak informacji,brak informacji,blok,nie,"telewizja kablowa, internet",domofon / wideofon,wielka płyta,wtórny
1,329 000 zł,"32,23 m²",Mieszkanie dwa pokoje POD WYNAJEM SKY TOWER,2,do remontu,Współrzędne dokładne,"Wrocław, Borek, ul. Zaporoska",51.091421,17.01573,parter/4,Zapytaj,pełna własność,Zapytaj,Zapytaj,brak informacji,brak informacji,blok,nie,brak informacji,rolety antywłamaniowe,wielka płyta,wtórny
1,580 000 zł,47 m²,Mieszkanie 3 pokoje wroclaw biskupin,3,Zapytaj,Współrzędne dokładne,"Wrocław, Śródmieście, ul. Karola Olszewskiego",51.102277,17.103241,2,Zapytaj,pełna własność,balkon,Zapytaj,brak informacji,brak informacji,blok,nie,"telewizja kablowa, internet, telefon",domofon / wideofon,brak informacji,wtórny
1,295 000 zł,46 m²,"Mieszkanie, 46 m², Oleśnica",2,do zamieszkania,Współrzędne dokładne,"ul. Jana Sinapiusa , Oleśnica, oleśnicki",51.210962,17.384003,4/5,880 zł,pełna własność,balkon,Zapytaj,brak informacji,brak informacji,blok,nie,brak informacji,domofon / wideofon,wielka płyta,wtórny
1,449 000 zł,"58,2 m²",3/4 Pokoje | Rozkładowe | balkon | ogrz. miejskie,3,Zapytaj,Współrzędne dokładne,"Wrocław, Psie Pole, ul. Żmigrodzka",51.1376,17.0342,6/10,Zapytaj,Zapytaj,balkon,Zapytaj,brak informacji,1980,blok,tak,brak informacji,domofon / wideofon,brak informacji,wtórny
1,560 000 zł,54 m²,Krzyki Gaj/Rozkładowe/3pokoje/54m2/Loggia.,3,Zapytaj,Nieruchomość znajduje się w zaznaczonym obszarze mapy. Niestety ogłoszeniodawca nie wskazał dokładnego adresu.,"Gaj, Wrocław, Wrocław",51.07916,17.04203,parter/10,600 zł,spółdzielcze wł. z KW,Zapytaj,Zapytaj,brak informacji,brak informacji,blok,tak,brak informacji,brak informacji,wielka płyta,wtórny
1,560 000 zł,"39,96 m²",Apartament Karpacz Karkonoska 13 Triventi Mountain,2,do zamieszkania,Współrzędne dokładne,"ul. Karkonoska 13, Karpacz, karkonoski",50.772796,15.731636,1/3,Zapytaj,pełna własność,balkon,garaż/miejsce parkingowe,brak informacji,2018,apartamentowiec,tak,internet,brak informacji,cegła,wtórny
1,159 500 zł,47 m²,Sprzedam 2 pokojowe mieszkanie do remontu Bielawa,2,do remontu,Nieruchomość znajduje się w zaznaczonym obszarze mapy. Niestety ogłoszeniodawca nie wskazał dokładnego adresu.,"Bielawa, dzierżoniowski, dolnośląskie",50.69075,16.623,parter/2,200 zł,Zapytaj,Zapytaj,garaż/miejsce parkingowe,2023-01-30,brak informacji,kamienica,nie,brak informacji,"drzwi / okna antywłamaniowe, teren zamknięty, domofon / wideofon",cegła,wtórny
1,299 000 zł,60 m²,M3 do remontu super lokalizacja Jelenia Góra,3,do remontu,Nieruchomość znajduje się w zaznaczonym obszarze mapy. Niestety ogłoszeniodawca nie wskazał dokładnego adresu.,"Centrum, Jelenia Góra, Jelenia Góra",50.89884,15.74245,2/3,120 zł,pełna własność,Zapytaj,garaż/miejsce parkingowe,brak informacji,brak informacji,kamienica,nie,brak informacji,brak informacji,brak informacji,wtórny
1,468 000 zł,67 m²,Dwupokojowe- z klimatem- idealne pod Booking- Jele,2,Zapytaj,Współrzędne dokładne,"Centrum, Jelenia Góra, Jelenia Góra",50.903103,15.734431,2/3,Zapytaj,pełna własność,Zapytaj,Zapytaj,brak informacji,brak informacji,kamienica,nie,brak informacji,brak informacji,brak informacji,wtórny
1,569 000 zł,48 m²,Świeżo po remoncie! 3 pokoje dla studentów / Ue,3,Zapytaj,Współrzędne dokładne,"Wrocław, Krzyki, ul. Kamienna",51.08862,17.033067,5/11,600 zł,pełna własność,Zapytaj,Zapytaj,brak informacji,1975,blok,tak,brak informacji,domofon / wideofon,wielka płyta,wtórny
1,120 000 zł,"54,3 m²",OKAZJA! Mieszkanie 3 pok./ 55 m2 / Parter!,3,do remontu,Nieruchomość znajduje się w zaznaczonym obszarze mapy. Niestety ogłoszeniodawca nie wskazał dokładnego adresu.,"Pieszyce, dzierżoniowski, dolnośląskie",50.71119,16.58306,parter/1,100 zł,Zapytaj,ogródek,garaż/miejsce parkingowe,brak informacji,brak informacji,dom wolnostojący,nie,brak informacji,brak informacji,cegła,wtórny
1,329 000 zł,"71,4 m²","Mieszkanie na sprzedaż - 71,40m², 3-pok - Głogów",3,do wykończenia,Współrzędne dokładne,"Głogów, Kopernik, ul. Plutona",51.652,16.064634,parter/11,750 zł,Zapytaj,balkon,Zapytaj,brak informacji,1980,blok,tak,brak informacji,"drzwi / okna antywłamaniowe, domofon / wideofon",wielka płyta,wtórny
1,615 000 zł,"40,53 m²","Gotowiec inwestycyjny, dwie kawalerki, Legnicka",2,do zamieszkania,Współrzędne dokładne,"Wrocław, Leśnica, ul. Grabowa",51.13305,16.91019,7/10,300 zł,Zapytaj,Zapytaj,garaż/miejsce parkingowe,brak informacji,2021,apartamentowiec,tak,brak informacji,domofon / wideofon,brak informacji,wtórny
1,319 000 zł,"63,91 m²",3 Pok. w bloku na pierwszym piętrze os. Piastów,3,do zamieszkania,Współrzędne dokładne,"ul. Henryka V Żelaznego , Głogów, głogowski",51.64728,16.11689,1/4,750 zł,pełna własność,Zapytaj,Zapytaj,2023-03-20,1991,blok,nie,brak informacji,brak informacji,wielka płyta,wtórny
1,299 000 zł,"52,9 m²",Mieszkanie 3 Pokoje w Bloku z Balkonem Kopernik,3,do zamieszkania,Współrzędne dokładne,"ul. Perseusza , Głogów, głogowski",51.65393,16.05962,4/4,650 zł,pełna własność,balkon,Zapytaj,2023-03-01,1983,blok,nie,brak informacji,brak informacji,wielka płyta,wtórny
1,460 000 zł,36 m²,2-pokokowe komfortowe mieszkanie na Spiżowej,2,do zamieszkania,Współrzędne dokładne,"Wrocław, Fabryczna, ul. Spiżowa",51.102252,17.001028,3/4,480 zł,pełna własność,balkon,Zapytaj,brak informacji,brak informacji,blok,nie,internet,domofon / wideofon,brak informacji,wtórny
1,450 000 zł,"48,5 m²",2 Osobne pokoje + Kuchnia z oknem + Balkon,2,do zamieszkania,Współrzędne dokładne,"Wrocław, Różanka, ul. Zaułek Rogoziński",51.141075,17.031135,5/8,580 zł,spółdzielcze wł. z KW,balkon,Zapytaj,brak informacji,brak informacji,blok,tak,internet,domofon / wideofon,brak informacji,wtórny
1,899 000 zł,"102,76 m²",Nieoczywiste M3! Piwnica+schowek! *Cisza i zieleń*,3,do zamieszkania,Nieruchomość znajduje się w zaznaczonym obszarze mapy. Niestety ogłoszeniodawca nie wskazał dokładnego adresu.,"Partynice, Wrocław, Wrocław",51.06531,16.997255,2/2,1 177 zł,pełna własność,balkon,garaż/miejsce parkingowe,brak informacji,2012,blok,nie,brak informacji,brak informacji,brak informacji,wtórny
1,560 000 zł,"55,58 m²",Jasne*Świeże*Wyposażone*Loggia*Garaż*Zieleń*Spokój,2,do zamieszkania,Nieruchomość znajduje się w zaznaczonym obszarze mapy. Niestety ogłoszeniodawca nie wskazał dokładnego adresu.,"Lipa Piotrowska, Wrocław, Wrocław",51.177891,16.99906,3/3,550 zł,pełna własność,Zapytaj,garaż/miejsce parkingowe,brak informacji,2015,blok,tak,brak informacji,brak informacji,brak informacji,wtórny
1,409 000 zł,43 m²,"Jasne mieszkanie, okna od południa",2,Zapytaj,Współrzędne dokładne,"Wrocław, Pilczyce, ul. Pilczycka",51.140008,16.959982,2/2,375 zł,Zapytaj,Zapytaj,Zapytaj,brak informacji,brak informacji,brak informacji,nie,"telewizja kablowa, internet",brak informacji,brak informacji,wtórny
1,699 000 zł,"63,36 m²",SUPER CENA! |Krzyki - TARNOGAJ ul. Piękna | 3 pok.,3,do zamieszkania,Współrzędne dokładne,"Wrocław, Krzyki, ul. Piękna 5",51.07855,17.05319,1/6,460 zł,pełna własność,Zapytaj,garaż/miejsce parkingowe,brak informacji,2013,blok,tak,"telewizja kablowa, internet","teren zamknięty, domofon / wideofon, monitoring / ochrona",żelbet,wtórny
1,729 000 zł,"63,6 m²",0% prowizji.Super lokalizacja.Przestronne 3-pokoje,3,do zamieszkania,Współrzędne dokładne,"Wrocław, Szczepin, ul. Poznańska",51.11352,17.006228,4/8,610 zł,pełna własność,balkon,garaż/miejsce parkingowe,brak informacji,1995,blok,tak,brak informacji,domofon / wideofon,cegła,wtórny
1,450 000 zł,34 m²,Popowice/Ok.Magnolii/Jelenia/2 Pok./Balkon/Winda,2,do zamieszkania,Nieruchomość znajduje się w zaznaczonym obszarze mapy. Niestety ogłoszeniodawca nie wskazał dokładnego adresu.,"Wrocław, Wrocław, dolnośląskie",51.10195,17.03667,3/10,600 zł,spółdzielcze wł. z KW,balkon,garaż/miejsce parkingowe,brak informacji,1980,blok,tak,brak informacji,brak informacji,brak informacji,wtórny
1,726 000 zł,80 m²,Okolice ul.Kniaziewicza Rozkład/Piwnica/Comiejskie,3,Zapytaj,Nieruchomość znajduje się w zaznaczonym obszarze mapy. Niestety ogłoszeniodawca nie wskazał dokładnego adresu.,"Krzyki, Wrocław, Wrocław",51.101299,17.049343,1/3,930 zł,pełna własność,Zapytaj,garaż/miejsce parkingowe,brak informacji,1930,kamienica,nie,brak informacji,domofon / wideofon,cegła,wtórny
1,365 000 zł,26 m²,Top/Fabryczna/Lubuska/Po Remoncie/Balkon/Kw,1,do zamieszkania,Nieruchomość znajduje się w zaznaczonym obszarze mapy. Niestety ogłoszeniodawca nie wskazał dokładnego adresu.,"Wrocław, Wrocław, dolnośląskie",51.10195,17.03667,4/10,350 zł,pełna własność,balkon,garaż/miejsce parkingowe,brak informacji,1971,blok,tak,brak informacji,brak informacji,brak informacji,wtórny
1,428 999 zł,"39,1 m²",Szczepin/Staremiasto/Młodychtechników/Rozkład/2Pok,2,do zamieszkania,Nieruchomość znajduje się w zaznaczonym obszarze mapy. Niestety ogłoszeniodawca nie wskazał dokładnego adresu.,"Wrocław, Wrocław, dolnośląskie",51.10195,17.03667,5/10,700 zł,spółdzielcze własnościowe,Zapytaj,garaż/miejsce parkingowe,brak informacji,1969,blok,tak,brak informacji,brak informacji,brak informacji,wtórny
1,389 999 zł,36 m²,Obornicka/Różanka/2 Pok./Loggia/Winda/Piwnica/Top!,2,do zamieszkania,Nieruchomość znajduje się w zaznaczonym obszarze mapy. Niestety ogłoszeniodawca nie wskazał dokładnego adresu.,"Wrocław, Wrocław, dolnośląskie",51.10195,17.03667,6/10,Zapytaj,spółdzielcze własnościowe,Zapytaj,Zapytaj,brak informacji,1980,blok,tak,brak informacji,brak informacji,brak informacji,wtórny
1,423 997 zł,"47,7 m²",Kozanów/Fabryczna/Rozkład/2 Pok./Garderoba/Balkon,2,do remontu,Nieruchomość znajduje się w zaznaczonym obszarze mapy. Niestety ogłoszeniodawca nie wskazał dokładnego adresu.,"Wrocław, Wrocław, dolnośląskie",51.10195,17.03667,9/9,580 zł,spółdzielcze własnościowe,balkon,garaż/miejsce parkingowe,brak informacji,1980,blok,tak,brak informacji,brak informacji,brak informacji,wtórny
1,635 000 zł,"58,42 m²",Lokal mieszkalny / użytkowy z osobnym wejściem,2,do wykończenia,Współrzędne dokładne,"ul. Główna 15, Ślęza, wrocławski",51.034649,16.993171,parter/1,Zapytaj,pełna własność,"ogródek, taras",garaż/miejsce parkingowe,brak informacji,brak informacji,dom wolnostojący,nie,"telewizja kablowa, internet, telefon","drzwi / okna antywłamaniowe, teren zamknięty, domofon / wideofon, rolety antywłamaniowe",cegła,wtórny
1,649 000 zł,"78,5 m²","4 - pokoje / pełen rozkład / 78,50 m2 / Różanka",4,do zamieszkania,Współrzędne dokładne,"Różanka, Wrocław, Wrocław",51.14005,17.02325,7/10,800 zł,pełna własność,Zapytaj,garaż/miejsce parkingowe,2023-05-11,1979,blok,tak,"telewizja kablowa, internet, telefon","domofon / wideofon, monitoring / ochrona",brak informacji,wtórny
1,510 100 zł,"68,03 m²",Krzeptów | dwupoziomowe | 2 miejsca,3,Zapytaj,Współrzędne dokładne,"Krzeptów, wrocławski, dolnośląskie",51.08917,16.88586,2/2,Zapytaj,Zapytaj,balkon,garaż/miejsce parkingowe,brak informacji,2019,brak informacji,nie,brak informacji,brak informacji,brak informacji,wtórny
1,699 000 zł,65 m²,Okolice ul Piławskiej Nowe2017/Lux/Balkon/Garaż,3,do zamieszkania,Nieruchomość znajduje się w zaznaczonym obszarze mapy. Niestety ogłoszeniodawca nie wskazał dokładnego adresu.,"Gaj, Wrocław, Wrocław",51.07603,17.03419,3/4,850 zł,pełna własność,balkon,garaż/miejsce parkingowe,brak informacji,2017,apartamentowiec,tak,brak informacji,"monitoring / ochrona, domofon / wideofon",silikat,wtórny
1,799 000 zł,96 m²,Mieszkanie dwupoziomowe 96m2 Wrocław Pilczyce,4,do zamieszkania,Współrzędne dokładne,"Wrocław, Fabryczna, ul. Szklarska",51.133339,16.957956,3/4,650 zł,pełna własność,balkon,Zapytaj,brak informacji,2007,blok,nie,"telewizja kablowa, internet",domofon / wideofon,cegła,wtórny
1,695 000 zł,"60,23 m²",Okolice ul. Januszowickiej Garaż/Balkon/Inwestycja,3,do zamieszkania,Nieruchomość znajduje się w zaznaczonym obszarze mapy. Niestety ogłoszeniodawca nie wskazał dokładnego adresu.,"Borek, Wrocław, Wrocław",51.07806,17.01522,1/4,600 zł,pełna własność,balkon,garaż/miejsce parkingowe,brak informacji,1970,blok,nie,brak informacji,domofon / wideofon,inne,wtórny
1,140 000 zł,"53,99 m²",Mieszkanie do remontu.,2,do remontu,Współrzędne dokładne,"Podgórze, Wałbrzych, Wałbrzych",50.7438,16.28946,parter/2,390 zł,Zapytaj,Zapytaj,Zapytaj,brak informacji,1930,brak informacji,nie,brak informacji,brak informacji,brak informacji,wtórny
1,985 000 zł,"106,2 m²","Ciekawe, przestronne mieszkanie na Muchoborze.",3,Zapytaj,Współrzędne dokładne,"Wrocław, Muchobór Wielki, ul. Stanisławowska",51.096572,16.947477,2/2,320 zł,pełna własność,Zapytaj,Zapytaj,brak informacji,2001,apartamentowiec,nie,brak informacji,domofon / wideofon,inne,wtórny
1,309 000 zł,52 m²,2-pok mieszkanie w centrum gotowe do umeblowania,2,Zapytaj,Współrzędne dokładne,"ul. 1 Maja , Świdnica, świdnicki",50.844406,16.490527,3/3,Zapytaj,pełna własność,Zapytaj,Zapytaj,brak informacji,brak informacji,kamienica,nie,brak informacji,brak informacji,brak informacji,wtórny
1,630 000 zł,"75,61 m²",Mieszkanie 3-pokojowe inwestycyjne,3,do zamieszkania,Współrzędne dokładne,"Wrocław, Stare Miasto, Plac Legionów",51.104422,17.022097,5/5,800 zł,pełna własność,Zapytaj,Zapytaj,brak informacji,1960,blok,nie,"telewizja kablowa, internet","drzwi / okna antywłamaniowe, domofon / wideofon",cegła,wtórny
1,489 000 zł,"68,05 m²",Piękne mieszkanie do wprowadzenia!Parter!Zabobrze!,3,Zapytaj,Współrzędne dokładne,"Zabobrze, Jelenia Góra, Jelenia Góra",50.922462,15.7536,parter/4,718 zł,pełna własność,balkon,garaż/miejsce parkingowe,brak informacji,1990,blok,nie,brak informacji,brak informacji,brak informacji,wtórny
1,560 000 zł,"70,25 m²","Śliczne 3 pok w apartamentowcu, 2 miejsca garażowe",3,do zamieszkania,Nieruchomość znajduje się w zaznaczonym obszarze mapy. Niestety ogłoszeniodawca nie wskazał dokładnego adresu.,"Legnica, Legnica, dolnośląskie",51.20701,16.15532,3/4,500 zł,pełna własność,balkon,garaż/miejsce parkingowe,brak informacji,1,apartamentowiec,tak,"telewizja kablowa, internet, telefon","teren zamknięty, domofon / wideofon, rolety antywłamaniowe",brak informacji,wtórny
1,339 000 zł,35 m²,Ul. Przejazdowa Nowe2023/Garderoba/BrakPCC,2,do wykończenia,Współrzędne dokładne,"Wrocław, Sołtysowice, ul. Przejazdowa",51.147821,17.080488,3/3,Zapytaj,pełna własność,Zapytaj,Zapytaj,brak informacji,2023,apartamentowiec,nie,"internet, telefon",brak informacji,silikat,wtórny
1,900 000 zł,100 m²,*Rutkiewicz*4 pokoje*garaż*super rozkład*,4,Zapytaj,Nieruchomość znajduje się w zaznaczonym obszarze mapy. Niestety ogłoszeniodawca nie wskazał dokładnego adresu.,"Gaj, Wrocław, Wrocław",51.073232,17.037696,3/3,1 200 zł,Zapytaj,balkon,garaż/miejsce parkingowe,brak informacji,brak informacji,brak informacji,nie,brak informacji,brak informacji,brak informacji,wtórny
1,479 000 zł,"43,19 m²",Kamienica Po Remoncie - Mieszkanie Po Remoncie,2,do zamieszkania,Nieruchomość znajduje się w zaznaczonym obszarze mapy. Niestety ogłoszeniodawca nie wskazał dokładnego adresu.,"Kleczków, Wrocław, Wrocław",51.12889,17.02781,4/4,Zapytaj,pełna własność,Zapytaj,Zapytaj,brak informacji,1940,kamienica,nie,brak informacji,brak informacji,cegła,wtórny
1,795 000 zł,"105,3 m²",Drohobycka Z Dużym Tarasem,4,Zapytaj,Nieruchomość znajduje się w zaznaczonym obszarze mapy. Niestety ogłoszeniodawca nie wskazał dokładnego adresu.,"Muchobór Wielki, Wrocław, Wrocław",51.095849,16.938,2/3,Zapytaj,Zapytaj,Zapytaj,Zapytaj,brak informacji,2003,brak informacji,nie,brak informacji,brak informacji,brak informacji,wtórny
1,503 500 zł,"38,18 m²",Ul. Sępa-Sarzyńskiego/Kamienica/Po generalnym rem.,3,Zapytaj,Współrzędne dokładne,"Wrocław, Ołbin, ul. Mikołaja Sępa-Szarzyńskiego",51.115849,17.052407,1/4,287 zł,pełna własność,Zapytaj,Zapytaj,brak informacji,1927,kamienica,nie,brak informacji,brak informacji,cegła,wtórny
1,359 000 zł,50 m²,"MIESZKANIE 3-Pokojowe, 1 PIĘTRO, balkon",3,do zamieszkania,Nieruchomość znajduje się w zaznaczonym obszarze mapy. Niestety ogłoszeniodawca nie wskazał dokładnego adresu.,"Głogów, głogowski, dolnośląskie",51.665645,16.086203,1/4,Zapytaj,Zapytaj,balkon,Zapytaj,brak informacji,brak informacji,blok,nie,"telewizja kablowa, internet, telefon",brak informacji,cegła,wtórny
1,460 000 zł,48 m²,2 pok* balkon* ul. Pilczycka * parking,2,do zamieszkania,Współrzędne dokładne,"Wrocław, Pilczyce, ul. Pilczycka",51.145239,16.946789,1/3,409 zł,Zapytaj,balkon,garaż/miejsce parkingowe,brak informacji,2005,apartamentowiec,nie,brak informacji,brak informacji,brak informacji,wtórny
1,499 000 zł,"97,8 m²",1-ga Maja-Centrum-Parter,4,do wykończenia,Współrzędne dokładne,"1-go Maja , Oława, oławski",50.945928,17.292402,1/3,980 zł,pełna własność,Zapytaj,Zapytaj,brak informacji,1920,kamienica,nie,"internet, telefon",brak informacji,cegła,wtórny
1,195 000 zł,49 m²,3 pokoje w Głuszycy GARAŻ balkon ogrzewanie miejsk,3,Zapytaj,Nieruchomość znajduje się w zaznaczonym obszarze mapy. Niestety ogłoszeniodawca nie wskazał dokładnego adresu.,"Wałbrzych, Wałbrzych, dolnośląskie",50.784,16.2843,2,500 zł,pełna własność,Zapytaj,Zapytaj,brak informacji,1990,blok,nie,brak informacji,brak informacji,brak informacji,wtórny
1,139 000 zł,35 m²,Chopina - 2 pokoje - do zamieszkania,2,do zamieszkania,Współrzędne dokładne,"Wałbrzych, Nowe Miasto, ul. Fryderyka Chopina",50.772467,16.290682,parter/3,230 zł,pełna własność,Zapytaj,Zapytaj,brak informacji,1920,kamienica,nie,"telewizja kablowa, internet, telefon","drzwi / okna antywłamaniowe, domofon / wideofon",cegła,wtórny
1,170 000 zł,"32,49 m²","Atrakcyjne mieszkanie w Legnickim Polu, I piętro",1,Zapytaj,Nieruchomość znajduje się w zaznaczonym obszarze mapy. Niestety ogłoszeniodawca nie wskazał dokładnego adresu.,"Legnickie Pole, legnicki, dolnośląskie",51.14323,16.24418,1/1,95 zł,Zapytaj,Zapytaj,Zapytaj,brak informacji,brak informacji,brak informacji,nie,brak informacji,teren zamknięty,brak informacji,wtórny
1,639 000 zł,81 m²,**Śliczne 4 pokoje*rozkład*ul.Podwale*po remoncie*,4,do zamieszkania,Współrzędne dokładne,"ul. Podwale , Złotoryja, złotoryjski",51.120884,15.914691,1/4,800 zł,spółdzielcze wł. z KW,Zapytaj,Zapytaj,brak informacji,brak informacji,blok,nie,"telewizja kablowa, internet",domofon / wideofon,brak informacji,wtórny
1,395 000 zł,"32,3 m²",Okolice ul. Przemyska/Piwnica/2003 r,2,Zapytaj,Nieruchomość znajduje się w zaznaczonym obszarze mapy. Niestety ogłoszeniodawca nie wskazał dokładnego adresu.,"Żerniki, Wrocław, Wrocław",51.14506,16.8606,4/4,400 zł,Zapytaj,Zapytaj,Zapytaj,brak informacji,2003,blok,nie,brak informacji,brak informacji,brak informacji,wtórny
1,375 000 zł,"27,98 m²",Kawalerka 28m2 Dolina Piastów Wrocław,1,do zamieszkania,Współrzędne dokładne,"Wrocław, Psie Pole, ul. Kiełczowska 18",51.146951,17.118298,3/3,260 zł,pełna własność,balkon,Zapytaj,brak informacji,2016,blok,nie,"telewizja kablowa, internet, telefon",domofon / wideofon,silikat,wtórny
1,770 000 zł,"42,12 m²",2-pokojowe|Park Tołpy|7 min Rynek|Blok 2022,2,do zamieszkania,Współrzędne dokładne,"Wrocław, Ołbin, ul. kard. Stefana Wyszyńskiego",51.120583,17.051703,2/6,570 zł,pełna własność,balkon,garaż/miejsce parkingowe,brak informacji,2022,apartamentowiec,nie,brak informacji,"drzwi / okna antywłamaniowe, domofon / wideofon, monitoring / ochrona",brak informacji,wtórny
1,320 000 zł,25 m²,Kawalerka w kamienicy z ogrzewaniem miejskim,1,Zapytaj,Współrzędne dokładne,"Wrocław, Szczepin, ul. Młodych Techników",51.1192,17.01354,parter/4,Zapytaj,pełna własność,Zapytaj,Zapytaj,brak informacji,brak informacji,brak informacji,nie,brak informacji,brak informacji,brak informacji,wtórny
1,448 500 zł,"45,6 m²",[Video] Mieszkanie z 16 m2 piwnicą przy Borowskiej,2,Zapytaj,Współrzędne dokładne,"Wrocław, Krzyki, ul. Borowska",51.07664,17.03384,parter/2,250 zł,pełna własność,Zapytaj,Zapytaj,brak informacji,brak informacji,brak informacji,nie,brak informacji,brak informacji,brak informacji,wtórny
1,593 500 zł,"55,5 m²",[Video] Popowice po remoncie 3 pokoje w rozkładzie,3,do zamieszkania,Współrzędne dokładne,"Wrocław, Popowice, ul. Wejherowska",51.12596,16.98708,5/10,Zapytaj,pełna własność,balkon,Zapytaj,brak informacji,1970,blok,tak,brak informacji,domofon / wideofon,wielka płyta,wtórny
1,395 000 zł,44 m²,[Video] Kawalerka z dużym potencjałem w centrum,1,Zapytaj,Współrzędne dokładne,"Wrocław, Stare Miasto, ul. Tęczowa",51.10555,17.01529,3/4,Zapytaj,Zapytaj,Zapytaj,Zapytaj,brak informacji,brak informacji,brak informacji,nie,brak informacji,brak informacji,brak informacji,wtórny
1,210 000 zł,"38,8 m²","/Kawalerka//38,8m/Centrum/",1,Zapytaj,Współrzędne dokładne,"ul. Niepodległości , Strzegom, świdnicki",50.96494,16.33555,1/2,260 zł,pełna własność,ogródek,Zapytaj,brak informacji,brak informacji,kamienica,nie,brak informacji,brak informacji,cegła,wtórny
1,426 000 zł,"47,4 m²","3 pokoje, balkon, m.postojowe",3,Zapytaj,Współrzędne dokładne,"Wrocław, Wrocław, dolnośląskie",51.10409,17.148843,1,850 zł,Zapytaj,balkon,Zapytaj,brak informacji,2004,blok,nie,brak informacji,teren zamknięty,brak informacji,wtórny
1,439 000 zł,56 m²,Nowe 3-pokojowe mieszkanie 56m2,3,do zamieszkania,Współrzędne dokładne,"ul. Księżnej Mechtyldy , Głogów, głogowski",51.6475,16.11796,3/3,465 zł,pełna własność,balkon,Zapytaj,brak informacji,2021,blok,tak,brak informacji,domofon / wideofon,brak informacji,wtórny
1,289 000 zł,50 m²,"balkon, 3 pokoje, osobna kuchnia, wyremontowane",3,Zapytaj,Nieruchomość znajduje się w zaznaczonym obszarze mapy. Niestety ogłoszeniodawca nie wskazał dokładnego adresu.,"Bielawa, dzierżoniowski, dolnośląskie",50.69075,16.623,3/4,425 zł,Zapytaj,balkon,Zapytaj,brak informacji,brak informacji,blok,nie,brak informacji,brak informacji,brak informacji,wtórny
1,339 000 zł,35 m²,Okolice ul. Strzeleckiej Nowe2023/Inwestycja,2,do wykończenia,Nieruchomość znajduje się w zaznaczonym obszarze mapy. Niestety ogłoszeniodawca nie wskazał dokładnego adresu.,"Sołtysowice, Wrocław, Wrocław",51.15239,17.07219,3/3,Zapytaj,pełna własność,Zapytaj,garaż/miejsce parkingowe,brak informacji,2023,apartamentowiec,tak,brak informacji,domofon / wideofon,silikat,wtórny
1,345 000 zł,"58,5 m²","Mieszkanie, 58,50 m², Zgorzelec",2,do zamieszkania,Współrzędne dokładne,"Zgorzelec, zgorzelecki, dolnośląskie",51.148421,15.01297,poddasze,801 zł,Zapytaj,Zapytaj,Zapytaj,brak informacji,brak informacji,brak informacji,nie,brak informacji,brak informacji,brak informacji,wtórny
1,240 000 zł,"61,79 m²","Mieszkanie, 61,79 m², Zgorzelec",3,Zapytaj,Współrzędne dokładne,"Zgorzelec, zgorzelecki, dolnośląskie",51.148227,15.00647,3,Zapytaj,Zapytaj,Zapytaj,Zapytaj,brak informacji,brak informacji,kamienica,nie,brak informacji,brak informacji,brak informacji,wtórny
1,270 000 zł,"54,86 m²","Mieszkanie, 54,86 m², Zgorzelec",2,do remontu,Nieruchomość znajduje się w zaznaczonym obszarze mapy. Niestety ogłoszeniodawca nie wskazał dokładnego adresu.,"Zgorzelec, zgorzelecki, dolnośląskie",51.14865,15.01585,1,Zapytaj,pełna własność,Zapytaj,Zapytaj,brak informacji,brak informacji,dom wolnostojący,nie,brak informacji,brak informacji,brak informacji,wtórny
1,340 000 zł,"65,7 m²","Mieszkanie, 65,70 m², Zgorzelec",3,do zamieszkania,Nieruchomość znajduje się w zaznaczonym obszarze mapy. Niestety ogłoszeniodawca nie wskazał dokładnego adresu.,"Zgorzelec, zgorzelecki, dolnośląskie",51.14865,15.01585,3,Zapytaj,Zapytaj,balkon,Zapytaj,brak informacji,brak informacji,brak informacji,nie,brak informacji,brak informacji,brak informacji,wtórny
1,299 000 zł,85 m²,"Mieszkanie, 85 m², Zgorzelec",4,do remontu,Współrzędne dokładne,"Zgorzelec, zgorzelecki, dolnośląskie",51.159506,14.99698,1,Zapytaj,Zapytaj,Zapytaj,garaż/miejsce parkingowe,brak informacji,brak informacji,dom wolnostojący,nie,brak informacji,brak informacji,brak informacji,wtórny
1,249 900 zł,"56,7 m²","4 pokoje, słoneczne, ul. Malczewskiego!!!",4,Zapytaj,Współrzędne dokładne,"Wałbrzych, Piaskowa Góra, ul. Jacka Malczewskiego",50.811808,16.286361,4/4,Zapytaj,spółdzielcze własnościowe,balkon,Zapytaj,brak informacji,brak informacji,blok,nie,"telewizja kablowa, internet, telefon",domofon / wideofon,wielka płyta,wtórny
1,265 000 zł,"62,3 m²","NISKA CENA , 4 pok, I piętro Kopernik",4,Zapytaj,Nieruchomość znajduje się w zaznaczonym obszarze mapy. Niestety ogłoszeniodawca nie wskazał dokładnego adresu.,"Kopernik, Głogów, głogowski",51.6525,16.06667,1,720 zł,pełna własność,balkon,Zapytaj,brak informacji,brak informacji,blok,tak,brak informacji,domofon / wideofon,brak informacji,wtórny
1,137 000 zł,35 m²,Mieszkanie 35m2 w Nowa Ruda Słupiec,1,Zapytaj,Nieruchomość znajduje się w zaznaczonym obszarze mapy. Niestety ogłoszeniodawca nie wskazał dokładnego adresu.,"Nowa Ruda, kłodzki, dolnośląskie",50.57929,16.5047,parter/2,Zapytaj,pełna własność,Zapytaj,Zapytaj,brak informacji,brak informacji,kamienica,nie,brak informacji,brak informacji,brak informacji,wtórny
1,185 000 zł,"42,5 m²","Mieszkanie na Hutniku 42,5 mkw",2,do remontu,Nieruchomość znajduje się w zaznaczonym obszarze mapy. Niestety ogłoszeniodawca nie wskazał dokładnego adresu.,"Głogów, głogowski, dolnośląskie",51.66277,16.08749,3/4,594 zł,pełna własność,Zapytaj,Zapytaj,brak informacji,brak informacji,blok,nie,brak informacji,domofon / wideofon,brak informacji,wtórny
1,685 000 zł,"52,2 m²","Apartament, Centrum, Wysoki Standard, Garaż",2,Zapytaj,Współrzędne dokładne,"Wrocław, Stare Miasto, ul. Tęczowa",51.10494,17.01181,4/6,470 zł,Zapytaj,balkon,garaż/miejsce parkingowe,2023-03-21,2021,brak informacji,nie,brak informacji,brak informacji,brak informacji,wtórny
1,900 000 zł,90 m²,Mieszkanie dwupoziomowe 90 m2 - bez pośredników,3,do zamieszkania,Współrzędne dokładne,"Wrocław, Klecina, ul. Wałbrzyska",51.064197,16.978186,3/3,1 167 zł,pełna własność,balkon,Zapytaj,brak informacji,1999,blok,nie,brak informacji,"teren zamknięty, domofon / wideofon",beton,wtórny
1,129 999 zł,"46,5 m²","Mieszkanie, 46,50 m², Wałbrzych",2,do remontu,Nieruchomość znajduje się w zaznaczonym obszarze mapy. Niestety ogłoszeniodawca nie wskazał dokładnego adresu.,"Śródmieście, Wałbrzych, Wałbrzych",50.765,16.28056,Zapytaj,213 zł,pełna własność,Zapytaj,Zapytaj,brak informacji,brak informacji,kamienica,nie,brak informacji,brak informacji,brak informacji,wtórny
1,157 000 zł,"34,55 m²","Mieszkanie, 34,55 m², Wałbrzych",2,do wykończenia,Nieruchomość znajduje się w zaznaczonym obszarze mapy. Niestety ogłoszeniodawca nie wskazał dokładnego adresu.,"Śródmieście, Wałbrzych, Wałbrzych",50.765,16.28056,Zapytaj,Zapytaj,Zapytaj,Zapytaj,Zapytaj,brak informacji,brak informacji,kamienica,nie,brak informacji,brak informacji,cegła,wtórny
1,297 000 zł,49 m²,"Mieszkanie, 49 m², Strzegom",2,Zapytaj,Nieruchomość znajduje się w zaznaczonym obszarze mapy. Niestety ogłoszeniodawca nie wskazał dokładnego adresu.,"Strzegom, świdnicki, dolnośląskie",50.95928,16.34863,2/2,Zapytaj,Zapytaj,Zapytaj,Zapytaj,brak informacji,brak informacji,brak informacji,nie,brak informacji,monitoring / ochrona,cegła,wtórny
1,269 000 zł,"44,7 m²","Mieszkanie, 44,70 m², Świebodzice",2,Zapytaj,Nieruchomość znajduje się w zaznaczonym obszarze mapy. Niestety ogłoszeniodawca nie wskazał dokładnego adresu.,"Świebodzice, świdnicki, dolnośląskie",50.85803,16.32151,2/4,456 zł,spółdzielcze własnościowe,balkon,Zapytaj,brak informacji,brak informacji,blok,nie,brak informacji,brak informacji,brak informacji,wtórny
1,365 000 zł,26 m²,"Blisko Rynku, Ciche, Balkon, Genialna Lokalizacja",1,Zapytaj,Współrzędne dokładne,"Wrocław, Stare Miasto, ul. Zaporoska",51.09998,17.01371,4/10,350 zł,pełna własność,balkon,Zapytaj,brak informacji,1971,blok,tak,brak informacji,brak informacji,wielka płyta,wtórny
1,539 600 zł,85 m²,Loftowe unikalne wykończone z dbałością o detale,2,do zamieszkania,Współrzędne dokładne,"rynek Rynek , Świdnica, świdnicki",50.844166,16.490959,2/4,Zapytaj,pełna własność,Zapytaj,Zapytaj,brak informacji,brak informacji,kamienica,nie,brak informacji,brak informacji,cegła,wtórny
1,370 000 zł,26 m²,Genialna Kawalerka Umeblowana Komunikacja Super,2,Zapytaj,Współrzędne dokładne,"Wrocław, Fabryczna, ul. Aleksandra Ostrowskiego",51.09501,16.97445,6/10,320 zł,spółdzielcze wł. z KW,Zapytaj,Zapytaj,brak informacji,1985,blok,tak,brak informacji,brak informacji,wielka płyta,wtórny
1,380 000 zł,"39,76 m²",Kawalerka - ul. Wielka - Blisko Sky Tower,1,do remontu,Współrzędne dokładne,"Wrocław, Krzyki, ul. Wielka",51.092621,17.022717,parter/4,470 zł,pełna własność,Zapytaj,Zapytaj,brak informacji,1960,blok,nie,"telewizja kablowa, internet, telefon",domofon / wideofon,beton,wtórny
1,980 000 zł,86 m²,"Nowoczesne, gustownie urządzone 3 pok balkon.",3,Zapytaj,Współrzędne dokładne,"Wrocław, Gądów Mały, ul. Skrzydlata",51.126311,16.958461,3/3,850 zł,pełna własność,balkon,Zapytaj,brak informacji,2013,apartamentowiec,nie,"telewizja kablowa, internet, telefon","drzwi / okna antywłamaniowe, domofon / wideofon",silikat,wtórny
1,649 000 zł,"51,59 m²",Mieszkanie 2 pok. w Apartamentowcu + miejsce post.,2,do zamieszkania,Współrzędne dokładne,"Wrocław, Krzyki, ul. Stacha Świstackiego",51.09715,17.04988,5/7,600 zł,pełna własność,balkon,garaż/miejsce parkingowe,2022-12-16,2017,apartamentowiec,tak,internet,"drzwi / okna antywłamaniowe, teren zamknięty, domofon / wideofon, monitoring / ochrona",brak informacji,wtórny
1,930 000 zł,135 m²,Nowy segment w zab. bliźniaczej-Zalesie II,5,do zamieszkania,Nieruchomość znajduje się w zaznaczonym obszarze mapy. Niestety ogłoszeniodawca nie wskazał dokładnego adresu.,"Lubin, lubiński, dolnośląskie",51.40026,16.20152,parter/1,Zapytaj,pełna własność,Zapytaj,Zapytaj,brak informacji,2023,brak informacji,nie,brak informacji,brak informacji,silikat,wtórny
1,499 000 zł,42 m²,Mieszkanie | pod wynajem | Sky Tower | antresola,2,do zamieszkania,Współrzędne dokładne,"Wrocław, Południe, ul. Wielka",51.09295,17.02086,3/4,487 zł,pełna własność,Zapytaj,Zapytaj,brak informacji,1963,kamienica,nie,brak informacji,domofon / wideofon,brak informacji,wtórny
1,239 000 zł,48 m²,Mieszkanie 48m2 Piekary,2,do remontu,Nieruchomość znajduje się w zaznaczonym obszarze mapy. Niestety ogłoszeniodawca nie wskazał dokładnego adresu.,"Legnica, Legnica, dolnośląskie",51.20701,16.15532,4/4,Zapytaj,Zapytaj,balkon,Zapytaj,brak informacji,brak informacji,blok,nie,brak informacji,brak informacji,brak informacji,wtórny
1,465 000 zł,5 m²,Ladne w pelnym rozkladzie balkon / 2013rok,2,do zamieszkania,Nieruchomość znajduje się w zaznaczonym obszarze mapy. Niestety ogłoszeniodawca nie wskazał dokładnego adresu.,"Psie Pole, Wrocław, Wrocław",51.10195,17.03667,1/3,520 zł,pełna własność,balkon,Zapytaj,brak informacji,2013,blok,nie,internet,domofon / wideofon,cegła,wtórny
1,350 000 zł,48 m²,"Mieszkanie 3 pokoje, 1 piętro, ul. Żeromskiego 14",3,do zamieszkania,Współrzędne dokładne,"ul. Stefana Żeromskiego , Oleśnica, oleśnicki",51.205784,17.382131,1/4,Zapytaj,spółdzielcze własnościowe,balkon,Zapytaj,brak informacji,brak informacji,blok,nie,brak informacji,"drzwi / okna antywłamaniowe, domofon / wideofon",wielka płyta,wtórny
1,445 000 zł,69 m²,Pod klucz 45m2+25m2 antresola+40m2 ogród MP PCC0%,2,do zamieszkania,Współrzędne dokładne,"Wrocław, Sępolno, ul. Miłoszycka",51.114592,17.130009,1/1,Zapytaj,pełna własność,ogródek,garaż/miejsce parkingowe,brak informacji,2023,loft,nie,"telewizja kablowa, internet, telefon",domofon / wideofon,cegła,wtórny
1,459 000 zł,"39,48 m²",TOP | KRZYKI - Wojszyce | ogródek + komórka lok. |,2,do zamieszkania,Współrzędne dokładne,"Wrocław, Krzyki, ul. Klasztorna",51.060597,17.044223,parter/3,390 zł,pełna własność,"balkon, ogródek, taras",garaż/miejsce parkingowe,brak informacji,2011,apartamentowiec,tak,"telewizja kablowa, internet","teren zamknięty, domofon / wideofon, rolety antywłamaniowe",brak informacji,wtórny
1,689 000 zł,"80,36 m²",Okazja !! 4M + balkon I Gotowe I GARAŻ - 2M,4,do zamieszkania,Nieruchomość znajduje się w zaznaczonym obszarze mapy. Niestety ogłoszeniodawca nie wskazał dokładnego adresu.,"Psie Pole, Wrocław, Wrocław",51.14586,17.03559,1/2,500 zł,pełna własność,balkon,Zapytaj,brak informacji,2015,blok,nie,"telewizja kablowa, internet","drzwi / okna antywłamaniowe, domofon / wideofon",brak informacji,wtórny
1,259 000 zł,36 m²,"Mieszkanie 2 pokojowe z balkonem,pełne wyposażenie",2,do zamieszkania,Nieruchomość znajduje się w zaznaczonym obszarze mapy. Niestety ogłoszeniodawca nie wskazał dokładnego adresu.,"Legnica, Legnica, dolnośląskie",51.20701,16.15532,2/4,Zapytaj,pełna własność,balkon,Zapytaj,brak informacji,brak informacji,blok,nie,"telewizja kablowa, internet","drzwi / okna antywłamaniowe, domofon / wideofon",brak informacji,wtórny
1,549 000 zł,49 m²,"Okazja! 2 pok z ogródkiem , Wrocław",2,do zamieszkania,Współrzędne dokładne,"Wrocław, Jagodno, Krzysztofa Komedy",51.05375,17.05464,parter/3,Zapytaj,Zapytaj,"balkon, ogródek",garaż/miejsce parkingowe,brak informacji,2016,brak informacji,nie,brak informacji,brak informacji,brak informacji,wtórny
1,315 000 zł,41 m²,Komfortowy i nowy apartament pl. Ratuszowy,2,do zamieszkania,Współrzędne dokładne,"pl. Ratuszowy , Jelenia Góra, Jelenia Góra",50.90274,15.734375,3/3,Zapytaj,pełna własność,Zapytaj,garaż/miejsce parkingowe,brak informacji,brak informacji,kamienica,nie,brak informacji,brak informacji,brak informacji,wtórny
1,1 850 000 zł,96 m²,Apartament wykończony pod klucz,4,do zamieszkania,Nieruchomość znajduje się w zaznaczonym obszarze mapy. Niestety ogłoszeniodawca nie wskazał dokładnego adresu.,"Krzyki, Wrocław, Wrocław",51.096794,17.021016,> 10/15,Zapytaj,pełna własność,Zapytaj,garaż/miejsce parkingowe,brak informacji,2021,blok,tak,brak informacji,monitoring / ochrona,brak informacji,wtórny
1,229 000 zł,42 m²,Mieszkanie 2 -pokojowe 42 m2 Piaskowa Góra,2,do zamieszkania,Współrzędne dokładne,"Wałbrzych, Piaskowa Góra, ul. Władysława Broniewskiego",50.808386,16.281948,4/4,400 zł,spółdzielcze własnościowe,balkon,Zapytaj,brak informacji,brak informacji,blok,nie,"telewizja kablowa, internet, telefon","drzwi / okna antywłamaniowe, domofon / wideofon",wielka płyta,wtórny
1,499 000 zł,45 m²,2 pok. / Wyposażone / przy Sky Tower / 0% prow.,2,do zamieszkania,Współrzędne dokładne,"Wrocław, Krzyki, ul. Gajowicka",51.09397,17.01036,6/12,550 zł,pełna własność,balkon,Zapytaj,brak informacji,1965,blok,tak,"telewizja kablowa, internet",brak informacji,wielka płyta,wtórny
1,235 000 zł,50 m²,"Mieszkanie, 50 m², Ząbkowice Śląskie",3,Zapytaj,Nieruchomość znajduje się w zaznaczonym obszarze mapy. Niestety ogłoszeniodawca nie wskazał dokładnego adresu.,"Ząbkowice Śląskie, ząbkowicki, dolnośląskie",50.596568,16.829942,1,Zapytaj,Zapytaj,Zapytaj,Zapytaj,brak informacji,brak informacji,brak informacji,nie,brak informacji,brak informacji,brak informacji,wtórny
1,499 000 zł,45 m²,2 pok. / Wyposażone / przy Sky Tower / 0% prow.,2,do zamieszkania,Współrzędne dokładne,"Wrocław, Krzyki, ul. Gajowicka",51.09397,17.01036,6/12,550 zł,pełna własność,balkon,Zapytaj,brak informacji,1965,blok,tak,"telewizja kablowa, internet",brak informacji,wielka płyta,wtórny
1,235 000 zł,50 m²,"Mieszkanie, 50 m², Ząbkowice Śląskie",3,Zapytaj,Nieruchomość znajduje się w zaznaczonym obszarze mapy. Niestety ogłoszeniodawca nie wskazał dokładnego adresu.,"Ząbkowice Śląskie, ząbkowicki, dolnośląskie",50.596568,16.829942,1,Zapytaj,Zapytaj,Zapytaj,Zapytaj,brak informacji,brak informacji,brak informacji,nie,brak informacji,brak informacji,brak informacji,wtórny
1,184 999 zł,"28,2 m²",Kawalerka Bielany,1,do zamieszkania,Nieruchomość znajduje się w zaznaczonym obszarze mapy. Niestety ogłoszeniodawca nie wskazał dokładnego adresu.,"Legnica, Legnica, dolnośląskie",51.20701,16.15532,parter/1,186 zł,pełna własność,Zapytaj,Zapytaj,brak informacji,brak informacji,kamienica,nie,brak informacji,brak informacji,cegła,wtórny
1,499 000 zł,"35,81 m²",Dwupokojowe mieszkanie - Kowale,2,do zamieszkania,Współrzędne dokładne,"Wrocław, Kowale, ul. Kowalska 81",51.132372,17.108319,2/2,450 zł,pełna własność,balkon,garaż/miejsce parkingowe,brak informacji,2021,brak informacji,tak,brak informacji,brak informacji,brak informacji,wtórny
1,199 000 zł,"56,5 m²",Super okazja !!! 3 pokoje 56.50m2 !!! 1 piętro,3,do remontu,Nieruchomość znajduje się w zaznaczonym obszarze mapy. Niestety ogłoszeniodawca nie wskazał dokładnego adresu.,"Głogów, głogowski, dolnośląskie",51.66277,16.08749,1/4,390 zł,pełna własność,Zapytaj,Zapytaj,brak informacji,1990,blok,nie,"telewizja kablowa, internet, telefon",domofon / wideofon,wielka płyta,wtórny
1,499 000 zł,"42,97 m²","Dwa pokoje, okolice SKYTOWER, wysoki standard",2,do zamieszkania,Współrzędne dokładne,"Wrocław, Grabiszyn, ul. Gajowicka",51.094952,17.011771,9/11,650 zł,pełna własność,balkon,Zapytaj,brak informacji,1970,blok,tak,brak informacji,"drzwi / okna antywłamaniowe, domofon / wideofon",brak informacji,wtórny
1,5 625 000 zł,225 m²,Apartament 225m2 Sky Tower 40 piętro,4,Zapytaj,Współrzędne dokładne,"Wrocław, Południe, ul. Gwiaździsta",51.09725,17.021612,> 10/47,5 000 zł,pełna własność,Zapytaj,garaż/miejsce parkingowe,brak informacji,2012,apartamentowiec,tak,"telewizja kablowa, internet","drzwi / okna antywłamaniowe, domofon / wideofon, monitoring / ochrona",beton,wtórny
1,960 000 zł,80 m²,"Mieszkanie 80m2 ul. Rumiankowa, Żerniki",3,Zapytaj,Współrzędne dokładne,"Wrocław, Żerniki, ul. Rumiankowa",51.121443,16.923376,parter/3,600 zł,pełna własność,taras,Zapytaj,2023-03-26,2008,blok,nie,internet,"drzwi / okna antywłamaniowe, teren zamknięty, domofon / wideofon",cegła,wtórny
1,670 000 zł,64 m²,Mieszkanie 3 pok | osobna kuchnia | centrum,3,Zapytaj,Współrzędne dokładne,"Wrocław, Grabiszyn, ul. Skwierzyńska",51.098587,17.01478,1/10,650 zł,Zapytaj,balkon,Zapytaj,2023-04-03,1970,blok,tak,brak informacji,domofon / wideofon,brak informacji,wtórny
1,420 000 zł,42 m²,"Mieszkanie 2 pok, do remontu, ul. Śliczna, winda",2,Zapytaj,Współrzędne dokładne,"Wrocław, Gaj, ul. Śliczna",51.084581,17.040565,2/10,530 zł,spółdzielcze własnościowe,Zapytaj,Zapytaj,2023-04-24,1970,blok,tak,brak informacji,domofon / wideofon,inne,wtórny
1,399 000 zł,44 m²,ogrzewanie miejskie Centrum duża kawalerka 44 m2,1,do remontu,Współrzędne dokładne,"Wrocław, Stare Miasto, ul. Tęczowa",51.104942,17.01181,3/4,400 zł,pełna własność,Zapytaj,Zapytaj,2022-01-24,1900,kamienica,nie,"telewizja kablowa, internet",domofon / wideofon,cegła,wtórny
1,480 000 zł,"52,62 m²",Dwupokojowe mieszkanie w rozkładzie.,2,Zapytaj,Współrzędne dokładne,"Wrocław, Grabiszyn, ul. Krucza",51.093463,17.006504,3/4,700 zł,pełna własność,balkon,Zapytaj,brak informacji,1961,blok,nie,"telewizja kablowa, internet, telefon",domofon / wideofon,inne,wtórny
1,949 000 zł,"66,07 m²",|nowe budownictwo|2-pokoje|5 pieszo do rynku|,2,Zapytaj,Współrzędne dokładne,"Wrocław, Południe, ul. gen. Romualda Traugutta",51.103008,17.050549,3/6,600 zł,pełna własność,balkon,Zapytaj,2021-12-28,2008,apartamentowiec,tak,"telewizja kablowa, internet","system alarmowy, domofon / wideofon, monitoring / ochrona",inne,wtórny
1,670 000 zł,"60,67 m²",3 pokoje na Wojszycach/ dwa balkony.,3,Zapytaj,Współrzędne dokładne,"Wrocław, Wojszyce, ul. Jarosława Iwaszkiewicza",51.056645,17.0331,1/3,600 zł,pełna własność,balkon,Zapytaj,brak informacji,2014,blok,tak,"telewizja kablowa, internet","teren zamknięty, domofon / wideofon, monitoring / ochrona",inne,wtórny
1,5 400 000 zł,"249,83 m²","Penthouse 250m2, winda + 3xMp+komórka lok. Sauna",3,Zapytaj,Współrzędne dokładne,"Wrocław, Stare Miasto, ul. Krawiecka",51.108621,17.037578,6/6,4 000 zł,pełna własność,taras,garaż/miejsce parkingowe,brak informacji,2013,apartamentowiec,tak,"telewizja kablowa, internet, telefon","system alarmowy, drzwi / okna antywłamaniowe, domofon / wideofon, monitoring / ochrona",brak informacji,wtórny
1,700 000 zł,"98,65 m²",pl. Grunwaldzki -gotowiec inwestycyjny,5,Zapytaj,Współrzędne dokładne,"Wrocław, Plac Grunwaldzki, ul. Szczytnicka",51.113459,17.053361,4/4,400 zł,pełna własność,Zapytaj,Zapytaj,brak informacji,1990,kamienica,nie,internet,domofon / wideofon,cegła,wtórny
1,449 000 zł,"35,82 m²",Po remoncie | 2 pokoje | kamienica na Oporowie,2,Zapytaj,Współrzędne dokładne,"Wrocław, Oporów, ul. Wiejska",51.077902,16.96045,1/1,140 zł,pełna własność,Zapytaj,Zapytaj,brak informacji,1930,kamienica,nie,"internet, telefon",brak informacji,cegła,wtórny
1,798 990 zł,63 m²,Nowe budownictwo | Grabiszyn | 3 pokoje,3,Zapytaj,Współrzędne dokładne,"Wrocław, Grabiszyn, ul. Racławicka",51.081088,16.998484,3/3,600 zł,pełna własność,balkon,Zapytaj,brak informacji,2014,blok,nie,"telewizja kablowa, internet, telefon","teren zamknięty, domofon / wideofon",inne,wtórny
1,1 399 000 zł,149 m²,Piękne mieszkanie na Borku | piętro domu,4,Zapytaj,Współrzędne dokładne,"Wrocław, Borek, ul. Jesienna",51.071913,17.003527,parter/1,750 zł,pełna własność,taras,garaż/miejsce parkingowe,brak informacji,1910,kamienica,nie,"internet, telefon",domofon / wideofon,cegła,wtórny
1,620 000 zł,"63,5 m²","Kamienica przy P.Grabiszyńskim, Rekuperacja",3,Zapytaj,Współrzędne dokładne,"Wrocław, Krzyki, al. gen. Józefa Hallera",51.090158,16.99508,2/2,250 zł,pełna własność,Zapytaj,Zapytaj,2021-07-21,1960,blok,nie,internet,domofon / wideofon,inne,wtórny
1,489 000 zł,"36,92 m²",Najpiękniejsza Kamienica We Wrocławiu! |2 pok.,2,do remontu,Współrzędne dokładne,"Wrocław, Stare Miasto, ul. Podwale",51.105312,17.027972,parter/4,400 zł,pełna własność,Zapytaj,Zapytaj,brak informacji,1880,kamienica,nie,telewizja kablowa,domofon / wideofon,inne,wtórny
1,449 000 zł,"38,5 m²","Krzyki, ul. Komandorska - 2 pokoje",2,do zamieszkania,Współrzędne dokładne,"Wrocław, Krzyki, ul. Komandorska",51.092508,17.025495,1/4,500 zł,spółdzielcze własnościowe,Zapytaj,garaż/miejsce parkingowe,brak informacji,1971,blok,nie,internet,"drzwi / okna antywłamaniowe, domofon / wideofon",wielka płyta,wtórny
1,599 000 zł,59 m²,Wrocław Fabryczna Mieszkanie 3 pokoje po remoncie!,3,do zamieszkania,Współrzędne dokładne,"Wrocław, Kozanów, ul. Gwarecka",51.141594,16.959445,parter/11,800 zł,spółdzielcze własnościowe,Zapytaj,Zapytaj,brak informacji,1990,blok,tak,"telewizja kablowa, internet","drzwi / okna antywłamaniowe, domofon / wideofon",wielka płyta,wtórny
1,710 000 zł,"94,3 m²",3 pokoje+antresola+miejsce postojowe,3,do zamieszkania,Współrzędne dokładne,"Wrocław, Leśnica, ul. Krępicka",51.149854,16.861131,2/3,600 zł,pełna własność,Zapytaj,garaż/miejsce parkingowe,brak informacji,2021,blok,nie,"telewizja kablowa, internet","drzwi / okna antywłamaniowe, domofon / wideofon",żelbet,wtórny
1,419 000 zł,"95,85 m²",4 pokoje - dwupoziomowe - Nowe Miasto,4,do zamieszkania,Nieruchomość znajduje się w zaznaczonym obszarze mapy. Niestety ogłoszeniodawca nie wskazał dokładnego adresu.,"Nowe Miasto, Wałbrzych, Wałbrzych",50.77091,16.29277,1/1,120 zł,pełna własność,ogródek,Zapytaj,brak informacji,brak informacji,kamienica,nie,"telewizja kablowa, internet",drzwi / okna antywłamaniowe,cegła,wtórny
1,738 000 zł,"67,32 m²",3 pokoje - parter - ogrzewanie miejskie,3,do zamieszkania,Nieruchomość znajduje się w zaznaczonym obszarze mapy. Niestety ogłoszeniodawca nie wskazał dokładnego adresu.,"Psie Pole, Wrocław, Wrocław",51.131165,17.064558,parter/2,1 000 zł,pełna własność,Zapytaj,Zapytaj,brak informacji,brak informacji,blok,nie,"telewizja kablowa, internet, telefon","drzwi / okna antywłamaniowe, domofon / wideofon",cegła,wtórny
1,370 000 zł,43 m²,Piękne mieszkanie w centrum Jeleniej Góry,2,do zamieszkania,Nieruchomość znajduje się w zaznaczonym obszarze mapy. Niestety ogłoszeniodawca nie wskazał dokładnego adresu.,"Jelenia Góra, Jelenia Góra, dolnośląskie",50.903362,15.734644,1/3,Zapytaj,pełna własność,Zapytaj,Zapytaj,brak informacji,brak informacji,kamienica,nie,brak informacji,"drzwi / okna antywłamaniowe, domofon / wideofon",cegła,wtórny
1,360 000 zł,"127,44 m²",Sprzedam mieszkanie w domu wolnostojącym,5,do zamieszkania,Nieruchomość znajduje się w zaznaczonym obszarze mapy. Niestety ogłoszeniodawca nie wskazał dokładnego adresu.,"Dankowice, strzeliński, dolnośląskie",50.72071,17.01433,1/1,Zapytaj,pełna własność,ogródek,Zapytaj,brak informacji,1920,dom wolnostojący,nie,internet,drzwi / okna antywłamaniowe,cegła,wtórny
1,329 000 zł,38 m²,2 pokoje | Kuchnia z aneksem | Kunickiego,2,do zamieszkania,Współrzędne dokładne,"Wrocław, Muchobór Wielki, ul. Stanisława Kunickiego",51.091708,16.937849,1/3,540 zł,pełna własność,Zapytaj,garaż/miejsce parkingowe,brak informacji,1904,kamienica,nie,internet,brak informacji,cegła,wtórny
1,699 000 zł,41 m²,Sprzedam piękny apartament w Karpaczu gotowy!,2,do zamieszkania,Współrzędne dokładne,"ul. Myśliwska , Karpacz, karkonoski",50.781305,15.744772,1/3,450 zł,pełna własność,balkon,garaż/miejsce parkingowe,brak informacji,2021,apartamentowiec,nie,"telewizja kablowa, internet","system alarmowy, teren zamknięty, domofon / wideofon",silikat,wtórny
1,850 000 zł,"53,55 m²",Apartament - 2/3 pokoje w centrum - BEZPOŚREDNIO,3,do zamieszkania,Współrzędne dokładne,"Wrocław, Stare Miasto, ul. Czysta",51.102964,17.034512,2/6,600 zł,pełna własność,taras,garaż/miejsce parkingowe,brak informacji,2008,apartamentowiec,tak,"telewizja kablowa, internet, telefon","drzwi / okna antywłamaniowe, teren zamknięty, domofon / wideofon, monitoring / ochrona, rolety antywłamaniowe",brak informacji,wtórny
1,369 000 zł,"49,12 m²",Mieszkanie z 25m tarasem!,2,do zamieszkania,Współrzędne dokładne,"ul. Polna , Groblice, wrocławski",51.02388,17.15995,1/2,350 zł,Zapytaj,taras,garaż/miejsce parkingowe,2022-10-30,2010,brak informacji,nie,"telewizja kablowa, internet",brak informacji,brak informacji,wtórny
1,300 000 zł,45 m²,2 pokoje | centrum |,2,do zamieszkania,Nieruchomość znajduje się w zaznaczonym obszarze mapy. Niestety ogłoszeniodawca nie wskazał dokładnego adresu.,"Legnica, Legnica, dolnośląskie",51.20701,16.15532,4/4,340 zł,Zapytaj,Zapytaj,Zapytaj,brak informacji,brak informacji,blok,nie,brak informacji,brak informacji,brak informacji,wtórny
1,230 000 zł,"50,7 m²",Mieszkanie do remontu w centrum!,2,do remontu,Współrzędne dokładne,"ul. Bartosza Głowackiego , Trzebnica, trzebnicki",51.30793,17.05754,parter/4,235 zł,Zapytaj,Zapytaj,garaż/miejsce parkingowe,2022-12-04,brak informacji,blok,nie,brak informacji,brak informacji,brak informacji,wtórny
1,549 999 zł,56 m²,3M + kuchnia | Ogrzewanie miejskie! Po remoncie!,3,do zamieszkania,Nieruchomość znajduje się w zaznaczonym obszarze mapy. Niestety ogłoszeniodawca nie wskazał dokładnego adresu.,"Psie Pole, Wrocław, Wrocław",51.14586,17.03559,parter/4,645 zł,pełna własność,Zapytaj,Zapytaj,brak informacji,brak informacji,blok,nie,"telewizja kablowa, internet, telefon","drzwi / okna antywłamaniowe, domofon / wideofon",wielka płyta,wtórny
1,740 000 zł,89 m²,"5 pokoi + 2 balkony, 89 m2, ul. Szkocka",5,do zamieszkania,Nieruchomość znajduje się w zaznaczonym obszarze mapy. Niestety ogłoszeniodawca nie wskazał dokładnego adresu.,"Muchobór Mały, Wrocław, Wrocław",51.109086,16.962799,3/3,1 320 zł,spółdzielcze wł. z KW,balkon,Zapytaj,brak informacji,1981,blok,nie,"telewizja kablowa, internet",domofon / wideofon,wielka płyta,wtórny
1,295 000 zł,29 m²,Okolice ronda Lotników Polskich/Do remontu,1,Zapytaj,Nieruchomość znajduje się w zaznaczonym obszarze mapy. Niestety ogłoszeniodawca nie wskazał dokładnego adresu.,"Psie Pole, Wrocław, Wrocław",51.14586,17.03559,2/2,Zapytaj,Zapytaj,Zapytaj,Zapytaj,brak informacji,1950,blok,nie,brak informacji,brak informacji,brak informacji,wtórny
1,660 000 zł,65 m²,3Pok - Balkon - Kom. Lok. - Gaj - Nowe Bud.,3,Zapytaj,Współrzędne dokładne,"Wrocław, Gaj, ul. Srebrnogórska",51.0721,17.0473,parter/4,750 zł,pełna własność,Zapytaj,Zapytaj,brak informacji,brak informacji,blok,tak,internet,"drzwi / okna antywłamaniowe, domofon / wideofon",brak informacji,wtórny
1,420 000 zł,38 m²,Dwa pokoje - Hubska - Inwestycja,2,Zapytaj,Współrzędne dokładne,"Wrocław, Huby, ul. Hubska",51.08639,17.04669,6/10,400 zł,Zapytaj,Zapytaj,Zapytaj,brak informacji,brak informacji,blok,tak,brak informacji,brak informacji,brak informacji,wtórny
1,529 000 zł,52 m²,Gaj 2 pokoje inwestycyjnie blisko centrum Borowska,2,do zamieszkania,Współrzędne dokładne,"Wrocław, Gaj, ul. Jerzego Kukuczki",51.07157,17.03683,parter/5,350 zł,pełna własność,balkon,Zapytaj,2022-12-28,2008,blok,tak,brak informacji,brak informacji,brak informacji,wtórny
1,620 000 zł,70 m²,"Bajana, 3 pokoje, media miejskie, Fabryczna,",3,do wykończenia,Współrzędne dokładne,"Wrocław, Fabryczna, ul. Jerzego Bajana",51.1267,16.96233,2/8,800 zł,pełna własność,balkon,garaż/miejsce parkingowe,2023-04-17,1990,blok,tak,brak informacji,brak informacji,brak informacji,wtórny
1,445 000 zł,"38,41 m²",Przytulne mieszkanie 2-pokojowe ul. Słowiańska,2,do zamieszkania,Współrzędne dokładne,"Wrocław, Nadodrze, ul. Słowiańska",51.123675,17.041198,5/6,Zapytaj,pełna własność,Zapytaj,Zapytaj,brak informacji,brak informacji,kamienica,nie,brak informacji,brak informacji,cegła,wtórny
1,540 000 zł,61 m²,"3 pok., 61m2, Przyjaźni, rozkł., balkon",3,do wykończenia,Współrzędne dokładne,"Wrocław, Krzyki, ul. Przyjaźni",51.067069,16.996287,4/6,600 zł,pełna własność,balkon,Zapytaj,brak informacji,1986,blok,tak,"telewizja kablowa, internet, telefon","teren zamknięty, domofon / wideofon",brak informacji,wtórny
1,298 000 zł,"56,3 m²",Słoneczne duże mieszkanie Leżne Zacisze Dziwiszów,3,do zamieszkania,Współrzędne dokładne,"ul. Karkonoska , Dziwiszów, karkonoski",50.925231,15.806901,2/2,420 zł,pełna własność,balkon,garaż/miejsce parkingowe,brak informacji,1998,blok,nie,brak informacji,brak informacji,brak informacji,wtórny
1,639 000 zł,52 m²,Krzycka 2 pokoje krzyki blisko centrum media miejs,2,do zamieszkania,Współrzędne dokładne,"Wrocław, Krzyki, ul. Krzycka",51.07007,16.99801,parter/5,550 zł,pełna własność,balkon,garaż/miejsce parkingowe,2023-04-24,2016,blok,tak,brak informacji,brak informacji,brak informacji,wtórny
1,274 000 zł,"50,14 m²",2 pokoje | 1 piętro| Tarninów,2,do zamieszkania,Nieruchomość znajduje się w zaznaczonym obszarze mapy. Niestety ogłoszeniodawca nie wskazał dokładnego adresu.,"Legnica, Legnica, dolnośląskie",51.20701,16.15532,1/4,150 zł,Zapytaj,Zapytaj,Zapytaj,brak informacji,1930,kamienica,nie,brak informacji,brak informacji,cegła,wtórny
1,699 000 zł,"71,2 m²","przestronne, blisko Dworca Głównego i uczelni",3,do zamieszkania,Współrzędne dokładne,"Wrocław, Krzyki, ul. Tadeusza Kościuszki",51.098693,17.052034,4/7,970 zł,spółdzielcze własnościowe,balkon,Zapytaj,brak informacji,1994,blok,tak,brak informacji,domofon / wideofon,brak informacji,wtórny
1,510 000 zł,62 m²,Nowe Mieszkanie Na Sprzedaż,3,do zamieszkania,Współrzędne dokładne,"ul. gen. Leopolda Okulickiego , Legnica, Legnica",51.200846,16.220778,3/3,400 zł,pełna własność,balkon,garaż/miejsce parkingowe,brak informacji,2016,blok,nie,brak informacji,"drzwi / okna antywłamaniowe, domofon / wideofon, monitoring / ochrona, rolety antywłamaniowe",brak informacji,wtórny
1,419 000 zł,30 m²,"Wrocław Krzyki, 2 pokoje, klimatyzacja, balkon",2,do zamieszkania,Nieruchomość znajduje się w zaznaczonym obszarze mapy. Niestety ogłoszeniodawca nie wskazał dokładnego adresu.,"Krzyki, Wrocław, Wrocław",51.07855,17.05319,Zapytaj,300 zł,pełna własność,balkon,Zapytaj,brak informacji,2016,brak informacji,nie,"telewizja kablowa, internet, telefon","teren zamknięty, domofon / wideofon, monitoring / ochrona",brak informacji,wtórny
1,379 000 zł,28 m²,Sky Tower/Uniwersytet/Po remoncie/Wyposażone,1,do zamieszkania,Współrzędne dokładne,"Wrocław, Południe, Kamienna/Drukarska",51.088939,17.02113,5/10,450 zł,Zapytaj,Zapytaj,Zapytaj,brak informacji,1970,blok,tak,brak informacji,brak informacji,brak informacji,wtórny
1,190 000 zł,"41,6 m²",2 pokoje | Garaż | 2 piętro,2,do remontu,Nieruchomość znajduje się w zaznaczonym obszarze mapy. Niestety ogłoszeniodawca nie wskazał dokładnego adresu.,"Legnica, Legnica, dolnośląskie",51.20701,16.15532,2/3,220 zł,pełna własność,balkon,garaż/miejsce parkingowe,brak informacji,brak informacji,kamienica,nie,brak informacji,brak informacji,cegła,wtórny
1,225 000 zł,48 m²,Duża kawalerka |Oddzielna kuchnia | Tarninów,1,do remontu,Nieruchomość znajduje się w zaznaczonym obszarze mapy. Niestety ogłoszeniodawca nie wskazał dokładnego adresu.,"Tarninów, Legnica, Legnica",51.19884,16.15597,parter/3,Zapytaj,Zapytaj,Zapytaj,Zapytaj,brak informacji,brak informacji,kamienica,nie,brak informacji,brak informacji,cegła,wtórny
1,510 000 zł,64 m²,3 pokoje | 64m2 | Rozkładowe | Kozanów | Piwnica,3,do wykończenia,Współrzędne dokładne,"Wrocław, Kozanów, ul. Modra",51.136346,16.969745,poddasze/11,1 000 zł,spółdzielcze własnościowe,Zapytaj,Zapytaj,brak informacji,brak informacji,blok,tak,"telewizja kablowa, internet, telefon",domofon / wideofon,wielka płyta,wtórny
1,310 000 zł,"66,5 m²",Przestronne mieszkanie na osiedlu krzeszowskim,3,do zamieszkania,Współrzędne dokładne,"ul. Wałbrzyska , Kamienna Góra, kamiennogórski",50.785713,16.041493,3/4,600 zł,spółdzielcze własnościowe,balkon,Zapytaj,brak informacji,1982,blok,nie,brak informacji,domofon / wideofon,wielka płyta,wtórny
1,1 280 000 zł,"90,6 m²",Premium | 4 pokoje | Taras 141 metrów,4,Zapytaj,Współrzędne dokładne,"Wrocław, Ołbin, ul. ks. Konstantego Damrota",51.12551,17.05593,4/4,800 zł,pełna własność,"balkon, ogródek, taras",garaż/miejsce parkingowe,brak informacji,brak informacji,brak informacji,tak,brak informacji,brak informacji,brak informacji,wtórny
1,520 000 zł,"40,64 m²",Apartament w Czarnej Górze,2,do zamieszkania,Nieruchomość znajduje się w zaznaczonym obszarze mapy. Niestety ogłoszeniodawca nie wskazał dokładnego adresu.,"Biała Woda, kłodzki, dolnośląskie",50.268445,16.7901,1,720 zł,pełna własność,balkon,garaż/miejsce parkingowe,brak informacji,2014,apartamentowiec,tak,"telewizja kablowa, internet, telefon","domofon / wideofon, monitoring / ochrona",brak informacji,wtórny
1,549 000 zł,36 m²,Piękne nowe mieszkanie Port Popowice Okazja !!,2,do zamieszkania,Współrzędne dokładne,"Wrocław, Fabryczna, ul. Białowieska",51.12617,16.98892,1/8,400 zł,pełna własność,balkon,garaż/miejsce parkingowe,brak informacji,2022,apartamentowiec,tak,brak informacji,"monitoring / ochrona, domofon / wideofon",silikat,wtórny
1,625 000 zł,"57,7 m²",Okolice ul. Sztabowej/3 pokoje/winda/balkon,3,do zamieszkania,Nieruchomość znajduje się w zaznaczonym obszarze mapy. Niestety ogłoszeniodawca nie wskazał dokładnego adresu.,"Grabiszyn, Wrocław, Wrocław",51.09141,16.97927,4/10,600 zł,Zapytaj,Zapytaj,Zapytaj,brak informacji,1975,blok,tak,brak informacji,brak informacji,wielka płyta,wtórny
1,420 000 zł,38 m²,"Rozkład 2 Pok, Osobna Widna Kuchnia , Inwestycja",2,Zapytaj,Nieruchomość znajduje się w zaznaczonym obszarze mapy. Niestety ogłoszeniodawca nie wskazał dokładnego adresu.,"Krzyki, Wrocław, Wrocław",51.07855,17.05319,6/10,330 zł,Zapytaj,Zapytaj,Zapytaj,brak informacji,1970,blok,nie,brak informacji,brak informacji,brak informacji,wtórny
1,205 000 zł,"41,3 m²",2 pokoje Przylesie 1 piętro,2,do remontu,Współrzędne dokładne,"Lubin, lubiński, dolnośląskie",51.386262,16.209491,1/10,350 zł,spółdzielcze wł. z KW,Zapytaj,Zapytaj,brak informacji,brak informacji,blok,tak,brak informacji,brak informacji,brak informacji,wtórny
1,469 000 zł,"46,19 m²","Widok na panoramę, obok Sky Tower",3,do zamieszkania,Współrzędne dokładne,"Wrocław, Grabiszyn, ul. Stalowowolska",51.092927,16.999714,4/4,Zapytaj,pełna własność,Zapytaj,Zapytaj,brak informacji,1970,blok,nie,brak informacji,"domofon / wideofon, rolety antywłamaniowe",brak informacji,wtórny
1,482 000 zł,52 m²,2 pokoje | antresola | bajkowa okolica| taras,2,do zamieszkania,Współrzędne dokładne,"Wrocław, Sołtysowice, ul. Przejazdowa",51.147877,17.0802,2/2,350 zł,pełna własność,taras,Zapytaj,brak informacji,2000,blok,nie,"telewizja kablowa, internet",domofon / wideofon,inne,wtórny
1,649 000 zł,"51,59 m²",|Mieszkanie w centrum| 2-pokoje|klimatyczny balkon,2,Zapytaj,Współrzędne dokładne,"ok. Pułaskiego , Wrocław, Wrocław",51.100292,17.045632,5/6,600 zł,pełna własność,balkon,garaż/miejsce parkingowe,brak informacji,2017,apartamentowiec,tak,"telewizja kablowa, internet","domofon / wideofon, monitoring / ochrona",brak informacji,wtórny
1,1 175 000 zł,101 m²,Zainwestuj ! mieszkanie w Rynku po remoncie!,4,Zapytaj,Współrzędne dokładne,"Wrocław, Stare Miasto, ul. Uniwersytecka",51.113082,17.034571,4/4,550 zł,pełna własność,Zapytaj,Zapytaj,brak informacji,1920,kamienica,nie,brak informacji,brak informacji,cegła,wtórny
1,929 000 zł,85 m²,4 pokoje | Blisko centrum| Świetna komunikacja|,4,do zamieszkania,Współrzędne dokładne,"Wrocław, Krzyki, pl. Powstańców Śląskich",51.089325,17.015979,4/14,820 zł,spółdzielcze własnościowe,balkon,Zapytaj,brak informacji,1980,blok,tak,brak informacji,domofon / wideofon,inne,wtórny
1,429 000 zł,32 m²,centrum#kamienica#2pokoje#do wejścia#,2,Zapytaj,Współrzędne dokładne,"Wrocław, Nadodrze, ul. Trzebnicka",51.125926,17.036051,1/4,250 zł,pełna własność,Zapytaj,Zapytaj,brak informacji,1920,kamienica,nie,brak informacji,domofon / wideofon,brak informacji,wtórny
1,569 000 zł,50 m²,Inwestycyjne mieszkanie w centrum!,3,Zapytaj,Współrzędne dokładne,"Wrocław, Nadodrze, ul. Trzebnicka",51.125926,17.036051,1/4,300 zł,pełna własność,Zapytaj,Zapytaj,brak informacji,1930,kamienica,nie,brak informacji,brak informacji,brak informacji,wtórny
1,439 900 zł,"53,9 m²",3 pokoje/ 4 pokoje/ 2 kawalerki- Ty decydujesz,3,Zapytaj,Współrzędne dokładne,"Wrocław, Kleczków, ul. Emila Zegadłowicza",51.128558,17.032781,4/4,590 zł,pełna własność,Zapytaj,Zapytaj,brak informacji,1976,blok,nie,internet,domofon / wideofon,wielka płyta,wtórny
1,509 000 zł,"48,05 m²","2 pok. z balkonem, w spokojnej okolicy Partynic",2,Zapytaj,Współrzędne dokładne,"Wrocław, Partynice, ul. Partynicka",51.064031,16.993183,1/3,500 zł,pełna własność,balkon,Zapytaj,brak informacji,2004,blok,nie,"telewizja kablowa, internet","drzwi / okna antywłamaniowe, domofon / wideofon",inne,wtórny
1,570 000 zł,"73,4 m²",Mieszkanie 73m2 - 5 pokoi - dla inwestora- Kozanów,5,Zapytaj,Współrzędne dokładne,"Wrocław, Kozanów, ul. Pałucka",51.134795,16.977268,4/4,750 zł,spółdzielcze własnościowe,balkon,Zapytaj,2022-08-10,1986,blok,nie,"telewizja kablowa, internet",domofon / wideofon,inne,wtórny
1,599 000 zł,64 m²,"3 pokoje w rozkładzie + loggia, I piętro Kamienica",3,Zapytaj,Współrzędne dokładne,"Wrocław, Ołbin, ul. Józefa Lompy",51.124144,17.055072,1/3,500 zł,pełna własność,balkon,Zapytaj,brak informacji,1930,kamienica,nie,"internet, telefon",domofon / wideofon,cegła,wtórny
1,640 000 zł,64 m²,Przestronne Jasne Rozkładowe Mieszkanie W Centrum,3,Zapytaj,Współrzędne dokładne,"Wrocław, Borek, Aleja Hallera",51.090158,16.99508,1/4,"533,72 zł",pełna własność,balkon,Zapytaj,2022-08-01,1964,kamienica,nie,"telewizja kablowa, internet",domofon / wideofon,cegła,wtórny
1,2 000 000 zł,"168,7 m²",Zamieszkaj na Wielkiej Wyspie,9,do remontu,Współrzędne dokładne,"Wrocław, Zalesie, ul. Mieczysława Karłowicza",51.120248,17.087219,1/3,Zapytaj,pełna własność,"balkon, ogródek",garaż/miejsce parkingowe,brak informacji,1936,brak informacji,nie,brak informacji,brak informacji,cegła,wtórny
1,678 800 zł,"65,5 m²",Kamienica*ogrzewanie miejskie*blisko uczelni,4,Zapytaj,Współrzędne dokładne,"Wrocław, Ołbin, ul. Stefana Żeromskiego",51.123423,17.048823,2/4,600 zł,pełna własność,Zapytaj,Zapytaj,brak informacji,1920,kamienica,nie,brak informacji,brak informacji,brak informacji,wtórny
1,889 000 zł,"57,97 m²",Gotowiec: 3 Kawalerki blisko pl. Grunwaldzkiego!,3,Zapytaj,Współrzędne dokładne,"Wrocław, Ołbin, ul. Walecznych",51.119189,17.060271,parter/4,"362,62 zł",pełna własność,Zapytaj,Zapytaj,brak informacji,1910,kamienica,nie,internet,"drzwi / okna antywłamaniowe, domofon / wideofon",cegła,wtórny
1,1 100 000 zł,"57,95 m²",balkon z widokiem na wieżę ciśnień-przy Sky Tower,2,do zamieszkania,Współrzędne dokładne,"Wrocław, Grabiszyn, ul. Krucza",51.093463,17.006504,10/10,550 zł,pełna własność,"balkon, taras",garaż/miejsce parkingowe,brak informacji,2016,apartamentowiec,tak,"telewizja kablowa, internet","drzwi / okna antywłamaniowe, domofon / wideofon",inne,wtórny
1,899 000 zł,"44,82 m²","|Walońska|5,5m wysokości|wysokistandard|",2,Zapytaj,Współrzędne dokładne,"Wrocław, Stare Miasto, ul. Walońska",51.104679,17.050747,parter/6,630 zł,pełna własność,"ogródek, taras",Zapytaj,brak informacji,2018,apartamentowiec,tak,"telewizja kablowa, internet","drzwi / okna antywłamaniowe, teren zamknięty, domofon / wideofon, monitoring / ochrona",brak informacji,wtórny
1,2 490 000 zł,"110,43 m²",Luksusowy Apartament / Klimatyzacja / Garaż,4,Zapytaj,Współrzędne dokładne,"Wrocław, Stare Miasto, pl. marsz. Józefa Piłsudskiego",51.1031,17.025004,3/4,500 zł,pełna własność,Zapytaj,garaż/miejsce parkingowe,brak informacji,1860,kamienica,nie,brak informacji,"system alarmowy, drzwi / okna antywłamaniowe, domofon / wideofon",cegła,wtórny
1,650 000 zł,92 m²,Duże mieszkanie z tarasem/ 5 min. od Wrocławia,3,do zamieszkania,Współrzędne dokładne,"ul. Mściwoja , Komorowice, wrocławski",51.015276,16.993155,1/1,350 zł,pełna własność,taras,Zapytaj,2022-07-13,2010,blok,nie,brak informacji,domofon / wideofon,brak informacji,wtórny
1,699 000 zł,64 m²,Mieszkanie 64 m2 10 minut od Dworca Głównego Pkp,3,Zapytaj,Współrzędne dokładne,"Wrocław, Huby, ul. Gliniana",51.09312,17.037537,2/3,590 zł,pełna własność,Zapytaj,Zapytaj,brak informacji,1960,blok,nie,brak informacji,domofon / wideofon,cegła,wtórny
