option,prize,surface,offer name,rooms ,standard,localization_info,localization_name,latitude,longitude,floor_number,rental_cost,form_of_property,extras,garage,availability,year_of_construction,type_of_building,elevator,media,security,building_material,market
1,850 000 zł,86 m²,APARTAMENT w Solankach komfortowo urządzony,3,do zamieszkania,Nieruchomość znajduje się w zaznaczonym obszarze mapy. Niestety ogłoszeniodawca nie wskazał dokładnego adresu.,"Solanki, Inowrocław, inowrocławski",52.79528,18.24056,1/3,960 zł,pełna własność,"balkon, ogródek, taras",garaż/miejsce parkingowe,brak informacji,2016,apartamentowiec,tak,internet,"drzwi / okna antywłamaniowe, teren zamknięty, domofon / wideofon, monitoring / ochrona, rolety antywłamaniowe",pustak,wtórny
1,263 000 zł,"47,95 m²",3 pokoje z Balkonem parter w Centrum Solca,3,do remontu,Współrzędne dokładne,"ul. Dworcowa 11, Solec Kujawski, bydgoski",53.07911,18.22321,parter/4,560 zł,pełna własność,balkon,Zapytaj,brak informacji,1975,blok,nie,brak informacji,brak informacji,beton komórkowy,wtórny
1,487 255 zł,"41,73 m²","Nowe mieszkanie, wysoki standard, bez PCC",2,do zamieszkania,Nieruchomość znajduje się w zaznaczonym obszarze mapy. Niestety ogłoszeniodawca nie wskazał dokładnego adresu.,"Toruń, Toruń, kujawsko-pomorskie",53.035522,18.699264,1/2,Zapytaj,pełna własność,Zapytaj,garaż/miejsce parkingowe,brak informacji,2023,blok,nie,brak informacji,"monitoring / ochrona, domofon / wideofon",brak informacji,wtórny
1,279 000 zł,48 m²,"Atrakcyjne M3 Solec Kujawski, idealna lokalizacja",2,do zamieszkania,Współrzędne dokładne,"ul. Toruńska 54A, Solec Kujawski, bydgoski",53.07911,18.22321,1/3,Zapytaj,pełna własność,balkon,Zapytaj,brak informacji,brak informacji,blok,nie,telewizja kablowa,domofon / wideofon,cegła,wtórny
1,150 000 zł,26 m²,"Szwederowo, kamienica M3, okazja cenowa!",2,Zapytaj,Nieruchomość znajduje się w zaznaczonym obszarze mapy. Niestety ogłoszeniodawca nie wskazał dokładnego adresu.,"Szwederowo, Bydgoszcz, Bydgoszcz",53.11239,17.98932,2/2,350 zł,pełna własność,Zapytaj,Zapytaj,2023-05-12,1930,kamienica,nie,"telewizja kablowa, internet",brak informacji,cegła,wtórny
1,246 000 zł,"35,2 m²",2 Pokoje 35M Błonie - Świetna Lokalizacja!,2,do zamieszkania,Nieruchomość znajduje się w zaznaczonym obszarze mapy. Niestety ogłoszeniodawca nie wskazał dokładnego adresu.,"Błonie, Bydgoszcz, Bydgoszcz",53.116899,17.958654,4/4,290 zł,pełna własność,Zapytaj,garaż/miejsce parkingowe,brak informacji,1968,blok,nie,brak informacji,brak informacji,wielka płyta,wtórny
1,387 000 zł,"48,5 m²","Piękne Mieszkanie 3 Pokoje 48,5M Szewderowo",3,do zamieszkania,Nieruchomość znajduje się w zaznaczonym obszarze mapy. Niestety ogłoszeniodawca nie wskazał dokładnego adresu.,"Szwederowo, Bydgoszcz, Bydgoszcz",53.109275,17.986567,6/11,580 zł,pełna własność,Zapytaj,garaż/miejsce parkingowe,brak informacji,1980,blok,tak,brak informacji,brak informacji,wielka płyta,wtórny
1,329 000 zł,"52,97 m²",Wyżyny 3 Pokoje Z Ładnym Widokiem,3,do zamieszkania,Nieruchomość znajduje się w zaznaczonym obszarze mapy. Niestety ogłoszeniodawca nie wskazał dokładnego adresu.,"Wyżyny, Bydgoszcz, Bydgoszcz",53.107198,18.026327,3/4,530 zł,pełna własność,Zapytaj,Zapytaj,brak informacji,1975,blok,nie,brak informacji,brak informacji,wielka płyta,wtórny
1,230 000 zł,"35,07 m²",Dobra Cena - 2 Pokoje Kapuściska Parter,2,do zamieszkania,Nieruchomość znajduje się w zaznaczonym obszarze mapy. Niestety ogłoszeniodawca nie wskazał dokładnego adresu.,"Kapuściska, Bydgoszcz, Bydgoszcz",53.10585,18.05483,parter/4,580 zł,spółdzielcze własnościowe,Zapytaj,Zapytaj,brak informacji,1972,blok,nie,brak informacji,brak informacji,wielka płyta,wtórny
1,239 000 zł,"26,1 m²",Kawalerka po remoncie! Z balkonem! os. Leśne!,1,Zapytaj,Nieruchomość znajduje się w zaznaczonym obszarze mapy. Niestety ogłoszeniodawca nie wskazał dokładnego adresu.,"Osiedle Leśne, Bydgoszcz, Bydgoszcz",53.139025,18.023437,3/4,Zapytaj,pełna własność,balkon,Zapytaj,brak informacji,brak informacji,blok,nie,brak informacji,brak informacji,cegła,wtórny
1,274 900 zł,"49,19 m²",M3 Przylesie! Loggia! II. piętro z windą!,2,do remontu,Nieruchomość znajduje się w zaznaczonym obszarze mapy. Niestety ogłoszeniodawca nie wskazał dokładnego adresu.,"Fordon, Bydgoszcz, Bydgoszcz",53.151137,18.12955,2/7,480 zł,spółdzielcze własnościowe,Zapytaj,Zapytaj,2023-04-15,brak informacji,brak informacji,tak,brak informacji,brak informacji,wielka płyta,wtórny
1,299 000 zł,"50,7 m²",M3 os. Leśne! Do remontu! Parking dla mieszkańców!,2,do zamieszkania,Nieruchomość znajduje się w zaznaczonym obszarze mapy. Niestety ogłoszeniodawca nie wskazał dokładnego adresu.,"Osiedle Leśne, Bydgoszcz, Bydgoszcz",53.139626,18.027783,2/3,590 zł,pełna własność,Zapytaj,garaż/miejsce parkingowe,brak informacji,1952,blok,nie,brak informacji,brak informacji,cegła,wtórny
1,379 000 zł,"54,3 m²",M4 do wprowadzenia się! Szwederowo! Parter! Loggia,3,do zamieszkania,Nieruchomość znajduje się w zaznaczonym obszarze mapy. Niestety ogłoszeniodawca nie wskazał dokładnego adresu.,"Szwederowo, Bydgoszcz, Bydgoszcz",53.109472,18.000115,parter/11,620 zł,pełna własność,Zapytaj,Zapytaj,brak informacji,brak informacji,brak informacji,tak,brak informacji,brak informacji,wielka płyta,wtórny
1,730 000 zł,67 m²,"Piękne,nowe-3 pokojowe bezposrednio od właściciela",3,do zamieszkania,Współrzędne dokładne,"Bydgoszcz, Górzyskowo, ul. Orla 47",53.112367,17.978096,parter/5,600 zł,pełna własność,ogródek,garaż/miejsce parkingowe,brak informacji,2021,apartamentowiec,tak,"telewizja kablowa, internet, telefon","drzwi / okna antywłamaniowe, teren zamknięty, domofon / wideofon, monitoring / ochrona, rolety antywłamaniowe",cegła,wtórny
1,699 300 zł,126 m²,"Mieszkanie, 126 m², Bydgoszcz",4,Zapytaj,Nieruchomość znajduje się w zaznaczonym obszarze mapy. Niestety ogłoszeniodawca nie wskazał dokładnego adresu.,"Śródmieście, Bydgoszcz, Bydgoszcz",53.12868,18.0023,2,"485,10 zł",pełna własność,balkon,Zapytaj,brak informacji,1876,kamienica,nie,brak informacji,brak informacji,cegła,wtórny
1,540 000 zł,86 m²,Atrakcyjne mieszkanie 2 poziomowe! Nowe osiedle !,3,do zamieszkania,Współrzędne dokładne,"ul. gen. Józefa Hallera , Świecie, świecki",53.412734,18.449996,3/3,Zapytaj,spółdzielcze własnościowe,balkon,garaż/miejsce parkingowe,brak informacji,2019,apartamentowiec,nie,"telewizja kablowa, internet, telefon","drzwi / okna antywłamaniowe, teren zamknięty, domofon / wideofon, monitoring / ochrona",beton komórkowy,wtórny
1,419 000 zł,"63,36 m²",Super mieszkanie przy ul. Przybory 4,3,do zamieszkania,Współrzędne dokładne,"Fordon, Bydgoszcz, Bydgoszcz",53.157051,18.151551,2/4,Zapytaj,pełna własność,balkon,Zapytaj,brak informacji,1987,blok,nie,brak informacji,brak informacji,wielka płyta,wtórny
1,169 000 zł,"20,21 m²",M-2 Centrum ogrzewanie miejskie! Lokata kapitału!,1,Zapytaj,Współrzędne dokładne,"Centrum, Bydgoszcz, Bydgoszcz",53.132168,18.009986,2/3,437 zł,pełna własność,Zapytaj,Zapytaj,2023-05-10,1930,kamienica,nie,brak informacji,"drzwi / okna antywłamaniowe, teren zamknięty, domofon / wideofon",cegła,wtórny
1,285 000 zł,"51,89 m²",/OMS,2,do zamieszkania,Współrzędne dokładne,"ul. Stanisława Noakowskiego , Bydgoszcz, Bydgoszcz",53.107511,18.055989,3/3,600 zł,pełna własność,Zapytaj,Zapytaj,brak informacji,brak informacji,blok,nie,brak informacji,brak informacji,brak informacji,wtórny
1,509 000 zł,"67,5 m²",Apartament pod sową 67m2 kamienica Toruń,3,do zamieszkania,Współrzędne dokładne,"Toruń, Bydgoskie Przedmieście, ul. Marii Konopnickiej",53.010958,18.585576,3/4,309 zł,pełna własność,balkon,Zapytaj,2023-05-15,1907,kamienica,nie,brak informacji,"teren zamknięty, domofon / wideofon",cegła,wtórny
1,799 000 zł,"73,63 m²","Piękny apartament z ogródkiem, Os. Leśne",3,do zamieszkania,Współrzędne dokładne,"Bydgoszcz, Osiedle Leśne, ul. Leśna",53.137899,18.020332,1/7,670 zł,pełna własność,"ogródek, taras",garaż/miejsce parkingowe,brak informacji,2018,blok,tak,"telewizja kablowa, internet","system alarmowy, drzwi / okna antywłamaniowe, domofon / wideofon, monitoring / ochrona, rolety antywłamaniowe",brak informacji,wtórny
1,390 000 zł,"49,41 m²","Mieszkanie Fałata blisko UMK, Plazy",3,do zamieszkania,Współrzędne dokładne,"Bielany, Toruń, Toruń",53.014857,18.564439,1/4,280 zł,pełna własność,balkon,Zapytaj,brak informacji,1964,blok,nie,"telewizja kablowa, internet",domofon / wideofon,cegła,wtórny
1,330 000 zł,"42,42 m²","Fordon 42m2 -2 pokoje bardzo ładne, 2p z windą!!",2,do zamieszkania,Nieruchomość znajduje się w zaznaczonym obszarze mapy. Niestety ogłoszeniodawca nie wskazał dokładnego adresu.,"Bohaterów, Bydgoszcz, Bydgoszcz",53.15352,18.14365,2/6,700 zł,spółdzielcze własnościowe,balkon,Zapytaj,brak informacji,brak informacji,blok,tak,internet,brak informacji,brak informacji,wtórny
1,339 000 zł,"36,81 m²",Wysposażone 2 pokoje / hala garażowa / balkon /,2,do zamieszkania,Nieruchomość znajduje się w zaznaczonym obszarze mapy. Niestety ogłoszeniodawca nie wskazał dokładnego adresu.,"Czyżkówko, Bydgoszcz, Bydgoszcz",53.15,17.96,1/2,282 zł,pełna własność,Zapytaj,Zapytaj,brak informacji,2021,blok,nie,brak informacji,brak informacji,brak informacji,wtórny
1,239 000 zł,42 m²,"komfortowe 2 osobne pokoje,parter - Bez Pcc 2%",2,Zapytaj,Współrzędne dokładne,"Chełmża, toruński, kujawsko-pomorskie",53.184472,18.604557,parter/2,550 zł,pełna własność,Zapytaj,Zapytaj,2023-03-29,2022,kamienica,nie,"telewizja kablowa, internet, telefon","drzwi / okna antywłamaniowe, domofon / wideofon",cegła,wtórny
1,175 000 zł,29 m²,Nowoczesne mieszkanie na parterze -bez podatku Pcc,1,Zapytaj,Współrzędne dokładne,"Chełmża, toruński, kujawsko-pomorskie",53.184472,18.604557,parter/2,370 zł,pełna własność,Zapytaj,Zapytaj,2023-03-29,2022,kamienica,nie,"telewizja kablowa, internet, telefon","drzwi / okna antywłamaniowe, domofon / wideofon",cegła,wtórny
1,428 000 zł,"41,68 m²","Nowe, wykończone, bezpośrednio, Jar, przy lesie",2,do zamieszkania,Współrzędne dokładne,"ul. Henryka Strobanda , Toruń, Toruń",53.052598,18.610531,2/3,Zapytaj,pełna własność,"balkon, taras",garaż/miejsce parkingowe,2023-05-12,2023,blok,tak,"telewizja kablowa, internet, telefon","drzwi / okna antywłamaniowe, teren zamknięty, domofon / wideofon",cegła,wtórny
1,255 000 zł,38 m²,"Mieszkanie, 38 m², Bydgoszcz",2,do zamieszkania,Nieruchomość znajduje się w zaznaczonym obszarze mapy. Niestety ogłoszeniodawca nie wskazał dokładnego adresu.,"Bielawy, Bydgoszcz, Bydgoszcz",53.13187,18.05309,2,450 zł,pełna własność,Zapytaj,Zapytaj,brak informacji,brak informacji,blok,tak,brak informacji,brak informacji,brak informacji,wtórny
1,259 000 zł,"45,85 m²",Dwa pokoje w Centrum miasta,2,do zamieszkania,Współrzędne dokładne,"Centrum, Bydgoszcz, Bydgoszcz",53.13506,18.00497,1/2,250 zł,pełna własność,ogródek,Zapytaj,2022-05-20,1958,kamienica,nie,brak informacji,domofon / wideofon,brak informacji,wtórny
1,370 000 zł,"56,4 m²","3 pokoje. loggia, do wejścia, na Ogrodach",3,Zapytaj,Współrzędne dokładne,"Wyżyny, Bydgoszcz, Bydgoszcz",53.11272,18.03302,2/10,Zapytaj,Zapytaj,Zapytaj,Zapytaj,2023-03-28,brak informacji,blok,tak,brak informacji,"drzwi / okna antywłamaniowe, domofon / wideofon",wielka płyta,wtórny
1,315 000 zł,62 m²,"Po generalnym remoncie, winda- polecamy.",3,do zamieszkania,Nieruchomość znajduje się w zaznaczonym obszarze mapy. Niestety ogłoszeniodawca nie wskazał dokładnego adresu.,"Grudziądz, Grudziądz, kujawsko-pomorskie",53.46469,18.77287,7/10,Zapytaj,Zapytaj,balkon,Zapytaj,brak informacji,88022,brak informacji,tak,"telewizja kablowa, internet",brak informacji,brak informacji,wtórny
1,379 000 zł,54 m²,Mieszkanie M4 Na Parterze Z Balkonem Loggia,3,do zamieszkania,Nieruchomość znajduje się w zaznaczonym obszarze mapy. Niestety ogłoszeniodawca nie wskazał dokładnego adresu.,"Szwederowo, Bydgoszcz, Bydgoszcz",53.11239,17.98932,parter/11,600 zł,pełna własność,balkon,Zapytaj,brak informacji,brak informacji,brak informacji,nie,brak informacji,brak informacji,brak informacji,wtórny
1,620 000 zł,54 m²,"Ulokuj gotówkę i zarabiaj pasywnie, GOTOWE !!",3,do zamieszkania,Współrzędne dokładne,"Bydgoszcz, Osiedle Leśne, ul. Zaświat",53.144592,18.007266,3/6,473 zł,pełna własność,balkon,Zapytaj,brak informacji,2023,blok,tak,"telewizja kablowa, internet","drzwi / okna antywłamaniowe, teren zamknięty, domofon / wideofon",silikat,wtórny
1,459 000 zł,"63,21 m²",os.Leśne M4 blok II piętro balkon polecam !!!,3,do zamieszkania,Nieruchomość znajduje się w zaznaczonym obszarze mapy. Niestety ogłoszeniodawca nie wskazał dokładnego adresu.,"Osiedle Leśne, Bydgoszcz, Bydgoszcz",53.13905,18.02752,2/2,650 zł,pełna własność,balkon,Zapytaj,brak informacji,brak informacji,blok,nie,brak informacji,brak informacji,brak informacji,wtórny
1,229 000 zł,36 m²,Na Skarpie 2-pokojowe z windą i balkonem,2,do remontu,Nieruchomość znajduje się w zaznaczonym obszarze mapy. Niestety ogłoszeniodawca nie wskazał dokładnego adresu.,"Na Skarpie, Toruń, Toruń",53.020269,18.690168,3/11,450 zł,Zapytaj,balkon,Zapytaj,brak informacji,1983,brak informacji,tak,brak informacji,brak informacji,brak informacji,wtórny
1,189 980 zł,"54,28 m²","Lokal mieszkalny M7 54,28 m2 sprzedaż lub wynajem",2,do zamieszkania,Współrzędne dokładne,"ul. Topolowa , Lipno, lipnowski",52.836694,19.190515,1/2,Zapytaj,pełna własność,Zapytaj,Zapytaj,brak informacji,1999,blok,nie,brak informacji,brak informacji,pustak,wtórny
1,136 220 zł,"38,92 m²","Lokal mieszkalny M10 38,92m2 sprzedaż lub wynajem",1,do zamieszkania,Współrzędne dokładne,"ul. Topolowa , Lipno, lipnowski",52.836694,19.190515,1/2,Zapytaj,pełna własność,Zapytaj,Zapytaj,brak informacji,1999,blok,nie,brak informacji,brak informacji,pustak,wtórny
1,670 000 zł,82 m²,Apartament W Niemczu 82Mkw,3,do zamieszkania,Współrzędne dokładne,"ul. Olszynki , Niemcz, bydgoski",53.18051,18.0412,2/2,Zapytaj,pełna własność,balkon,garaż/miejsce parkingowe,brak informacji,2019,brak informacji,nie,brak informacji,brak informacji,brak informacji,wtórny
1,485 000 zł,54 m²,M4 z 2 balkonami nowe budownictwo Wzgórze Wolności,3,do zamieszkania,Nieruchomość znajduje się w zaznaczonym obszarze mapy. Niestety ogłoszeniodawca nie wskazał dokładnego adresu.,"Wzgórze Wolności, Bydgoszcz, Bydgoszcz",53.11441,18.01577,1/3,500 zł,pełna własność,balkon,garaż/miejsce parkingowe,2023-05-12,2014,blok,nie,"telewizja kablowa, internet, telefon",brak informacji,cegła,wtórny
1,358 000 zł,"46,87 m²",Dni pokazowe 10.05.2023 Zapraszam,2,do zamieszkania,Współrzędne dokładne,"Toruń, Chełmińskie Przedmieście, ul. Ogrodowa",53.023844,18.605161,3/3,530 zł,pełna własność,balkon,Zapytaj,brak informacji,2001,blok,nie,brak informacji,monitoring / ochrona,cegła,wtórny
1,470 000 zł,"108,81 m²","Klimatyczne, idealne pod inwestycję w sercu Starów",4,do remontu,Współrzędne dokładne,"ul. Strumykowa , Toruń, Toruń",53.011297,18.607488,3/3,443 zł,pełna własność,Zapytaj,Zapytaj,brak informacji,1900,kamienica,nie,brak informacji,brak informacji,cegła,wtórny
1,369 000 zł,31 m²,"Przytulne mieszkanie na Jarze, winda, 2 pokoje",2,do zamieszkania,Współrzędne dokładne,"ul. Łukasza Watzenrodego , Toruń, Toruń",53.0442,18.6016,2/2,Zapytaj,pełna własność,balkon,Zapytaj,brak informacji,2015,blok,tak,brak informacji,brak informacji,silikat,wtórny
1,258 000 zł,"44,87 m²",Sprzedaż mieszkania,2,do zamieszkania,Współrzędne dokładne,"ul. 700-lecia , Gniewkowo, inowrocławski",52.890092,18.403071,3/4,150 zł,pełna własność,Zapytaj,Zapytaj,brak informacji,brak informacji,blok,nie,"telewizja kablowa, internet",domofon / wideofon,beton,wtórny
1,490 000 zł,"58,7 m²","Nowe M-4 Fordon, winda, parking!",3,Zapytaj,Współrzędne dokładne,"Fordon, Bydgoszcz, Bydgoszcz",53.145841,18.15898,3/6,470 zł,pełna własność,balkon,Zapytaj,2023-04-28,2022,blok,tak,"telewizja kablowa, internet, telefon","drzwi / okna antywłamaniowe, domofon / wideofon",cegła,wtórny
1,248 000 zł,49 m²,Mieszkanie na parterze po kapitalnym remoncie,2,do zamieszkania,Nieruchomość znajduje się w zaznaczonym obszarze mapy. Niestety ogłoszeniodawca nie wskazał dokładnego adresu.,"Grudziądz, Grudziądz, kujawsko-pomorskie",53.46469,18.77287,parter/4,Zapytaj,pełna własność,Zapytaj,Zapytaj,brak informacji,brak informacji,blok,nie,brak informacji,brak informacji,brak informacji,wtórny
1,320 000 zł,72 m²,Duże i przestronne- polecamy,4,do zamieszkania,Nieruchomość znajduje się w zaznaczonym obszarze mapy. Niestety ogłoszeniodawca nie wskazał dokładnego adresu.,"Grudziądz, Grudziądz, kujawsko-pomorskie",53.46469,18.77287,3/4,Zapytaj,pełna własność,balkon,Zapytaj,brak informacji,brak informacji,blok,tak,brak informacji,brak informacji,brak informacji,wtórny
1,393 000 zł,70 m²,Bajecznie Słoneczne M5 - 70m2 !BEZPOŚREDNIO!,4,do zamieszkania,Współrzędne dokładne,"Bydgoszcz, Bajka, ul. Gawędy",53.147356,18.151496,3/4,685 zł,pełna własność,balkon,Zapytaj,brak informacji,brak informacji,blok,nie,"telewizja kablowa, internet, telefon","drzwi / okna antywłamaniowe, domofon / wideofon",brak informacji,wtórny
1,204 000 zł,45 m²,45m kw- Centrum,2,do remontu,Nieruchomość znajduje się w zaznaczonym obszarze mapy. Niestety ogłoszeniodawca nie wskazał dokładnego adresu.,"Centrum, Włocławek, Włocławek",52.65729,19.071,4,554 zł,pełna własność,balkon,Zapytaj,brak informacji,brak informacji,blok,nie,brak informacji,brak informacji,pustak,wtórny
1,375 000 zł,"37,5 m²",4 Pory Roku; I piętro; Blok' Winda: Garaż,2,do zamieszkania,Współrzędne dokładne,"Cztery Pory Roku , Toruń, Toruń",52.99448,18.63335,1/3,380 zł,pełna własność,balkon,garaż/miejsce parkingowe,2023-05-31,2022,brak informacji,nie,brak informacji,brak informacji,brak informacji,wtórny
1,262 000 zł,48 m²,Bardzo zadbane mieszkanie-os. Kazimierza Wielkiego,3,do zamieszkania,Nieruchomość znajduje się w zaznaczonym obszarze mapy. Niestety ogłoszeniodawca nie wskazał dokładnego adresu.,"Kazimierza Wielkiego, Włocławek, Włocławek",52.64719,19.09231,4/4,530 zł,Zapytaj,balkon,Zapytaj,brak informacji,brak informacji,blok,nie,brak informacji,brak informacji,brak informacji,wtórny
1,380 000 zł,"49,45 m²",3 pokoje w kamienicy na Bydgoskim Przedmieściu,3,do zamieszkania,Nieruchomość znajduje się w zaznaczonym obszarze mapy. Niestety ogłoszeniodawca nie wskazał dokładnego adresu.,"Bydgoskie Przedmieście, Toruń, Toruń",53.00947,18.57054,4/4,280 zł,pełna własność,Zapytaj,Zapytaj,brak informacji,brak informacji,kamienica,nie,brak informacji,brak informacji,cegła,wtórny
1,478 000 zł,"65,1 m²",M4 rewelacyjna lokalizacja z garażem -bezpośrednio,3,do zamieszkania,Nieruchomość znajduje się w zaznaczonym obszarze mapy. Niestety ogłoszeniodawca nie wskazał dokładnego adresu.,"Wzgórze Wolności, Bydgoszcz, Bydgoszcz",53.114046,18.012315,2/4,560 zł,pełna własność,balkon,garaż/miejsce parkingowe,brak informacji,2008,blok,nie,"telewizja kablowa, internet, telefon","drzwi / okna antywłamaniowe, teren zamknięty, domofon / wideofon, monitoring / ochrona",cegła,wtórny
1,399 000 zł,53 m²,"Mieszkanie M4 - 53m2, Wyżyny, idealna lokalizacja!",3,do zamieszkania,Współrzędne dokładne,"Bydgoszcz, Wyżyny, ul. Adama Grzymały-Siedleckiego",53.111016,18.032481,3/4,Zapytaj,spółdzielcze wł. z KW,balkon,Zapytaj,brak informacji,1972,blok,nie,"telewizja kablowa, internet, telefon","drzwi / okna antywłamaniowe, domofon / wideofon",wielka płyta,wtórny
1,280 000 zł,47 m²,M-3 ul. Lelewela,2,do remontu,Nieruchomość znajduje się w zaznaczonym obszarze mapy. Niestety ogłoszeniodawca nie wskazał dokładnego adresu.,"Osiedle Leśne, Bydgoszcz, Bydgoszcz",53.13905,18.02752,Zapytaj,550 zł,spółdzielcze własnościowe,Zapytaj,Zapytaj,brak informacji,brak informacji,blok,nie,brak informacji,brak informacji,cegła,wtórny
1,369 900 zł,"50,01 m²",Mieszkanie na Leśnym 50m2,3,do zamieszkania,Nieruchomość znajduje się w zaznaczonym obszarze mapy. Niestety ogłoszeniodawca nie wskazał dokładnego adresu.,"Osiedle Leśne, Bydgoszcz, Bydgoszcz",53.13905,18.02752,2/2,440 zł,pełna własność,Zapytaj,Zapytaj,brak informacji,1960,blok,nie,brak informacji,brak informacji,cegła,wtórny
1,289 000 zł,52 m²,Mieszkanie w Fordonie 52m2,2,Zapytaj,Nieruchomość znajduje się w zaznaczonym obszarze mapy. Niestety ogłoszeniodawca nie wskazał dokładnego adresu.,"Fordon, Bydgoszcz, Bydgoszcz",53.14183,18.16897,parter/4,600 zł,pełna własność,balkon,Zapytaj,brak informacji,1989,blok,nie,brak informacji,brak informacji,brak informacji,wtórny
1,374 000 zł,52 m²,Mieszkanie - Górzyskowo 51m2,3,do zamieszkania,Nieruchomość znajduje się w zaznaczonym obszarze mapy. Niestety ogłoszeniodawca nie wskazał dokładnego adresu.,"Górzyskowo, Bydgoszcz, Bydgoszcz",53.1119,17.97636,parter/2,650 zł,pełna własność,Zapytaj,Zapytaj,brak informacji,1960,blok,nie,"telewizja kablowa, internet",brak informacji,cegła,wtórny
1,434 600 zł,54 m²,Mieszkanie na Osowej Górze 54m2,3,Zapytaj,Nieruchomość znajduje się w zaznaczonym obszarze mapy. Niestety ogłoszeniodawca nie wskazał dokładnego adresu.,"Osowa Góra, Bydgoszcz, Bydgoszcz",53.16361,17.89917,2/2,350 zł,pełna własność,balkon,garaż/miejsce parkingowe,brak informacji,2004,blok,nie,brak informacji,brak informacji,cegła,wtórny
1,338 900 zł,"53,07 m²",Mieszkanie w Fordonie 53m2,3,do zamieszkania,Nieruchomość znajduje się w zaznaczonym obszarze mapy. Niestety ogłoszeniodawca nie wskazał dokładnego adresu.,"Fordon, Bydgoszcz, Bydgoszcz",53.14183,18.16897,2/4,650 zł,Zapytaj,balkon,Zapytaj,brak informacji,1981,blok,nie,"telewizja kablowa, internet",brak informacji,brak informacji,wtórny
1,227 000 zł,38 m²,Mieszkanie na Szwederowie 38m2!!!,2,do remontu,Nieruchomość znajduje się w zaznaczonym obszarze mapy. Niestety ogłoszeniodawca nie wskazał dokładnego adresu.,"Szwederowo, Bydgoszcz, Bydgoszcz",53.11239,17.98932,4/4,360 zł,pełna własność,Zapytaj,Zapytaj,brak informacji,1966,brak informacji,nie,brak informacji,brak informacji,cegła,wtórny
1,541 000 zł,"62,8 m²",Mieszkanie na Czyżkówku 63m2,3,Zapytaj,Nieruchomość znajduje się w zaznaczonym obszarze mapy. Niestety ogłoszeniodawca nie wskazał dokładnego adresu.,"Czyżkówko, Bydgoszcz, Bydgoszcz",53.15,17.96,2/2,Zapytaj,pełna własność,balkon,Zapytaj,brak informacji,2009,blok,nie,brak informacji,brak informacji,cegła,wtórny
1,364 000 zł,"73,62 m²",Nniska cena 364k/M5/2p/O. Przylesie,4,do remontu,Współrzędne dokładne,"Przylesie, Bydgoszcz, Bydgoszcz",53.152065,18.13032,2/4,599 zł,pełna własność,balkon,Zapytaj,2023-02-14,1960,blok,nie,"telewizja kablowa, telefon",brak informacji,wielka płyta,wtórny
1,460 000 zł,"81,48 m²","Mieszkanie 81,42m2 w Centrum",3,do zamieszkania,Nieruchomość znajduje się w zaznaczonym obszarze mapy. Niestety ogłoszeniodawca nie wskazał dokładnego adresu.,"Centrum, Bydgoszcz, Bydgoszcz",53.12348,18.00844,2/3,600 zł,pełna własność,balkon,Zapytaj,brak informacji,1898,kamienica,nie,brak informacji,brak informacji,cegła,wtórny
1,137 000 zł,43 m²,oficyna bezczynszowa na Okrzei 14 Aleksandrów Kuj,2,do remontu,Współrzędne dokładne,"ul. Stefana Okrzei , Aleksandrów Kujawski, aleksandrowski",52.874589,18.692727,parter,Zapytaj,pełna własność,taras,Zapytaj,brak informacji,brak informacji,brak informacji,nie,brak informacji,brak informacji,brak informacji,wtórny
1,389 000 zł,49 m²,M3 FORDON os.Tatrzańskie parter BEZPOŚREDNIO,2,do zamieszkania,Nieruchomość znajduje się w zaznaczonym obszarze mapy. Niestety ogłoszeniodawca nie wskazał dokładnego adresu.,"Fordon, Bydgoszcz, Bydgoszcz",53.14183,18.16897,parter/3,460 zł,pełna własność,balkon,Zapytaj,brak informacji,1990,blok,nie,brak informacji,domofon / wideofon,wielka płyta,wtórny
1,300 000 zł,44 m²,Tylko u nas-Po remoncie Kapitalnym-od zaraz,2,do zamieszkania,Współrzędne dokładne,"Bydgoszcz, Błonie, ul. Stawowa",53.117294,17.960612,3/4,365 zł,pełna własność,balkon,Zapytaj,brak informacji,1973,blok,nie,"telewizja kablowa, internet, telefon","drzwi / okna antywłamaniowe, teren zamknięty, domofon / wideofon",wielka płyta,wtórny
1,349 000 zł,52 m²,Nowa oferta- dostępne od zaraz !,2,do zamieszkania,Współrzędne dokładne,"Bydgoszcz, Fordon, ul. Lawinowa",53.161229,18.154659,3/3,400 zł,pełna własność,balkon,Zapytaj,brak informacji,2008,blok,nie,"telewizja kablowa, internet, telefon","drzwi / okna antywłamaniowe, domofon / wideofon",cegła,wtórny
1,259 000 zł,"37,5 m²",Wyżyny M3 Blok II Piętro Duży Balkon !,2,do zamieszkania,Nieruchomość znajduje się w zaznaczonym obszarze mapy. Niestety ogłoszeniodawca nie wskazał dokładnego adresu.,"Wyżyny, Bydgoszcz, Bydgoszcz",53.10434,18.03699,2/4,411 zł,pełna własność,balkon,Zapytaj,brak informacji,brak informacji,blok,nie,brak informacji,brak informacji,brak informacji,wtórny
1,134 900 zł,"17,29 m²",Gotowiec inwestycyjny kawalerka Centrum Tężnie,1,do zamieszkania,Nieruchomość znajduje się w zaznaczonym obszarze mapy. Niestety ogłoszeniodawca nie wskazał dokładnego adresu.,"Centrum, Inowrocław, inowrocławski",52.79492,18.26101,1/1,250 zł,pełna własność,Zapytaj,Zapytaj,brak informacji,1908,kamienica,nie,brak informacji,"drzwi / okna antywłamaniowe, teren zamknięty, domofon / wideofon",cegła,wtórny
1,329 000 zł,"52,53 m²","Mieszkanie, 52,53 m², Bydgoszcz",3,Zapytaj,Nieruchomość znajduje się w zaznaczonym obszarze mapy. Niestety ogłoszeniodawca nie wskazał dokładnego adresu.,"Wyżyny, Bydgoszcz, Bydgoszcz",53.10434,18.03699,3/4,Zapytaj,pełna własność,balkon,Zapytaj,brak informacji,1978,blok,nie,brak informacji,brak informacji,brak informacji,wtórny
1,379 000 zł,48 m²,3 pok. na Kapuściskach w niskim bloku po remoncie!,3,Zapytaj,Nieruchomość znajduje się w zaznaczonym obszarze mapy. Niestety ogłoszeniodawca nie wskazał dokładnego adresu.,"Kapuściska, Bydgoszcz, Bydgoszcz",53.10585,18.05483,3/4,500 zł,pełna własność,balkon,Zapytaj,brak informacji,1975,blok,nie,"telewizja kablowa, internet, telefon",brak informacji,brak informacji,wtórny
1,468 000 zł,"63,7 m²","3 pokoje na Górzyskowie, duży balkon!",3,Zapytaj,Współrzędne dokładne,"Górzyskowo, Bydgoszcz, Bydgoszcz",53.108731,17.977485,parter/3,660 zł,pełna własność,balkon,Zapytaj,brak informacji,2011,blok,nie,internet,brak informacji,silikat,wtórny
1,265 000 zł,"25,34 m²","Jar, nowa kawalerka z miejscem parkingowym",1,do zamieszkania,Nieruchomość znajduje się w zaznaczonym obszarze mapy. Niestety ogłoszeniodawca nie wskazał dokładnego adresu.,"Toruń, Toruń, kujawsko-pomorskie",53.052598,18.610531,3/3,300 zł,Zapytaj,balkon,Zapytaj,brak informacji,2021,brak informacji,nie,brak informacji,brak informacji,cegła,wtórny
1,299 900 zł,62 m²,Mieszkanie(62 m2) Centrum/Śródmieście,2,Zapytaj,Nieruchomość znajduje się w zaznaczonym obszarze mapy. Niestety ogłoszeniodawca nie wskazał dokładnego adresu.,"Śródmieście, Bydgoszcz, Bydgoszcz",53.131096,18.001864,3/3,400 zł,Zapytaj,Zapytaj,Zapytaj,brak informacji,1900,kamienica,nie,brak informacji,brak informacji,cegła,wtórny
1,470 925 zł,"81,9 m²",Klimatyczne mieszkanie w centrum,3,Zapytaj,Nieruchomość znajduje się w zaznaczonym obszarze mapy. Niestety ogłoszeniodawca nie wskazał dokładnego adresu.,"Centrum, Bydgoszcz, Bydgoszcz",53.12348,18.00844,2/2,650 zł,pełna własność,Zapytaj,Zapytaj,brak informacji,1895,kamienica,nie,brak informacji,brak informacji,cegła,wtórny
1,349 000 zł,"52,97 m²",3 pokoje na Wyżynach! - możliwy kredyt 2%,3,do remontu,Współrzędne dokładne,"Wyżyny, Bydgoszcz, Bydgoszcz",53.10775,18.031588,4/4,397 zł,pełna własność,balkon,Zapytaj,brak informacji,1978,blok,nie,brak informacji,brak informacji,wielka płyta,wtórny
1,229 900 zł,"40,6 m²",Na sprzedaż mieszkanie dwupokojowe!,2,do zamieszkania,Nieruchomość znajduje się w zaznaczonym obszarze mapy. Niestety ogłoszeniodawca nie wskazał dokładnego adresu.,"Chełmno, chełmiński, kujawsko-pomorskie",53.351723,18.436877,4/4,386 zł,pełna własność,balkon,Zapytaj,brak informacji,brak informacji,blok,nie,brak informacji,domofon / wideofon,wielka płyta,wtórny
1,389 000 zł,"40,9 m²",atrakcyjne mieszkanie dwupokojowe,2,do zamieszkania,Nieruchomość znajduje się w zaznaczonym obszarze mapy. Niestety ogłoszeniodawca nie wskazał dokładnego adresu.,"Rubinkowo, Toruń, Toruń",53.02705,18.66257,1/4,400 zł,pełna własność,Zapytaj,Zapytaj,brak informacji,1994,blok,nie,"telewizja kablowa, internet",domofon / wideofon,cegła,wtórny
1,415 000 zł,"73,2 m²",Wygodne Mieszkanie Z Dużą Przestrzenią,3,Zapytaj,Nieruchomość znajduje się w zaznaczonym obszarze mapy. Niestety ogłoszeniodawca nie wskazał dokładnego adresu.,"Fordon, Bydgoszcz, Bydgoszcz",53.14183,18.16897,4/4,Zapytaj,pełna własność,balkon,Zapytaj,brak informacji,1989,blok,nie,brak informacji,brak informacji,brak informacji,wtórny
1,798 000 zł,61 m²,Bartodzieje pięknie wykończone mieszkanie!!,3,Zapytaj,Nieruchomość znajduje się w zaznaczonym obszarze mapy. Niestety ogłoszeniodawca nie wskazał dokładnego adresu.,"Bartodzieje, Bydgoszcz, Bydgoszcz",53.12639,18.04929,1/10,Zapytaj,pełna własność,balkon,Zapytaj,brak informacji,2021,blok,tak,brak informacji,brak informacji,silikat,wtórny
1,429 000 zł,57 m²,Mieszkanie na Kapuściskach 57m2,4,do zamieszkania,Nieruchomość znajduje się w zaznaczonym obszarze mapy. Niestety ogłoszeniodawca nie wskazał dokładnego adresu.,"Wyżyny, Bydgoszcz, Bydgoszcz",53.10434,18.03699,3/11,600 zł,pełna własność,balkon,Zapytaj,brak informacji,1980,blok,tak,brak informacji,brak informacji,brak informacji,wtórny
1,458 900 zł,"63,5 m²",Osiedle Leśne,3,do zamieszkania,Nieruchomość znajduje się w zaznaczonym obszarze mapy. Niestety ogłoszeniodawca nie wskazał dokładnego adresu.,"Osiedle Leśne, Bydgoszcz, Bydgoszcz",53.13905,18.02752,2/2,700 zł,pełna własność,balkon,Zapytaj,brak informacji,1965,blok,nie,brak informacji,brak informacji,cegła,wtórny
1,295 000 zł,"46,89 m²",Mieszkanie W Ciekawej Części Kapuścisk,3,Zapytaj,Nieruchomość znajduje się w zaznaczonym obszarze mapy. Niestety ogłoszeniodawca nie wskazał dokładnego adresu.,"Kapuściska, Bydgoszcz, Bydgoszcz",53.10585,18.05483,Zapytaj,530 zł,pełna własność,Zapytaj,Zapytaj,brak informacji,1974,blok,nie,brak informacji,brak informacji,brak informacji,wtórny
1,329 000 zł,38 m²,Apartament idealny na wynajem! Wysoka stopa zwrotu,2,do zamieszkania,Współrzędne dokładne,"Toruń, Bydgoskie Przedmieście, ul. Adama Mickiewicza",53.01178,18.5865,3/4,370 zł,pełna własność,Zapytaj,Zapytaj,2023-03-20,1900,kamienica,nie,brak informacji,domofon / wideofon,cegła,wtórny
1,335 000 zł,"42,2 m²",/OMS,2,do zamieszkania,Współrzędne dokładne,"Glinki, Bydgoszcz, Bydgoszcz",53.102064,18.019638,2/4,Zapytaj,Zapytaj,Zapytaj,Zapytaj,brak informacji,brak informacji,blok,nie,brak informacji,brak informacji,wielka płyta,wtórny
1,411 000 zł,80 m²,Duże przestronne mieszkanie w centrum Bydgoszczy,3,do zamieszkania,Współrzędne dokładne,"Bydgoszcz, Centrum, pl. Józefa Weyssenhoffa",53.130722,18.014936,3/4,280 zł,pełna własność,ogródek,garaż/miejsce parkingowe,brak informacji,1950,kamienica,nie,"telewizja kablowa, internet, telefon","system alarmowy, drzwi / okna antywłamaniowe, domofon / wideofon",cegła,wtórny
1,279 000 zł,"47,4 m²",M4 do wprowadzenia z balkonem - Fordon,3,Zapytaj,Nieruchomość znajduje się w zaznaczonym obszarze mapy. Niestety ogłoszeniodawca nie wskazał dokładnego adresu.,"Stary Fordon, Bydgoszcz, Bydgoszcz",53.14909,18.1736,3/4,800 zł,spółdzielcze własnościowe,Zapytaj,Zapytaj,brak informacji,1976,blok,nie,brak informacji,brak informacji,brak informacji,wtórny
1,375 000 zł,"49,3 m²",Mieszkanie 49.3 m2 Bartodzieje Polecam.,2,do wykończenia,Współrzędne dokładne,"ul. Marii Curie-Skłodowskiej , Bydgoszcz, Bydgoszcz",53.12636,18.035656,parter/3,688 zł,spółdzielcze własnościowe,Zapytaj,garaż/miejsce parkingowe,2023-05-11,1970,blok,nie,brak informacji,domofon / wideofon,cegła,wtórny
1,347 000 zł,59 m²,Dzielnica Muzyczna.,2,Zapytaj,Współrzędne dokładne,"Bydgoszcz, Centrum, ul. Karola Libelta",53.129264,18.01225,4/4,657 zł,pełna własność,Zapytaj,Zapytaj,brak informacji,1970,blok,nie,brak informacji,brak informacji,brak informacji,wtórny
1,490 000 zł,"59,5 m²",Mieszkanie z garażem blisko centrum,3,do zamieszkania,Nieruchomość znajduje się w zaznaczonym obszarze mapy. Niestety ogłoszeniodawca nie wskazał dokładnego adresu.,"Chełmińskie Przedmieście, Toruń, Toruń",53.023842,18.606456,3/3,650 zł,pełna własność,Zapytaj,Zapytaj,brak informacji,2006,brak informacji,nie,"telewizja kablowa, internet, telefon",brak informacji,inne,wtórny
1,470 000 zł,54 m²,M-4 na 1-piętrze w bloku 54m2 na Glinkach.,3,Zapytaj,Nieruchomość znajduje się w zaznaczonym obszarze mapy. Niestety ogłoszeniodawca nie wskazał dokładnego adresu.,"Glinki, Bydgoszcz, Bydgoszcz",53.10055,18.01728,1/5,520 zł,pełna własność,balkon,garaż/miejsce parkingowe,brak informacji,2013,blok,tak,telefon,system alarmowy,silikat,wtórny
1,289 000 zł,"41,5 m²",Zadbane M3 do wprowadzenia!,2,Zapytaj,Nieruchomość znajduje się w zaznaczonym obszarze mapy. Niestety ogłoszeniodawca nie wskazał dokładnego adresu.,"Solec Kujawski, bydgoski, kujawsko-pomorskie",53.07911,18.22321,2/2,Zapytaj,pełna własność,Zapytaj,Zapytaj,brak informacji,brak informacji,blok,nie,brak informacji,brak informacji,brak informacji,wtórny
1,399 000 zł,"56,6 m²",3 pokojowe mieszkanie blisko centrum!,3,Zapytaj,Współrzędne dokładne,"Toruń, Jakubskie Przedmieście, ul. Antoniego Antczaka",53.015552,18.629876,4/4,903 zł,Zapytaj,Zapytaj,garaż/miejsce parkingowe,2023-05-12,1986,blok,nie,brak informacji,brak informacji,cegła,wtórny
1,499 000 zł,"42,86 m²",Nowoczesne mieszkanie -nowy blok- wysoki standard,2,do zamieszkania,Nieruchomość znajduje się w zaznaczonym obszarze mapy. Niestety ogłoszeniodawca nie wskazał dokładnego adresu.,"Centrum, Bydgoszcz, Bydgoszcz",53.12348,18.00844,3/3,380 zł,pełna własność,balkon,garaż/miejsce parkingowe,brak informacji,2022,blok,tak,"telewizja kablowa, internet, telefon","drzwi / okna antywłamaniowe, teren zamknięty, domofon / wideofon, monitoring / ochrona",silikat,wtórny
1,265 000 zł,"54,09 m²",Malickiego. Ładne 3 pokojowe mieszkanie + strych,3,do zamieszkania,Współrzędne dokładne,"ul. Klemensa Malickiego , Brodnica, brodnicki",53.270859,19.398535,3/2,700 zł,spółdzielcze własnościowe,Zapytaj,Zapytaj,brak informacji,1995,blok,nie,brak informacji,domofon / wideofon,pustak,wtórny
1,415 000 zł,73 m²,"73 m2, 4-pokoje, I piętro, blok, ul. Szosa Lubicka",4,do zamieszkania,Współrzędne dokładne,"Rubinkowo, Toruń, Toruń",53.0255,18.67487,1/4,910 zł,pełna własność,balkon,Zapytaj,brak informacji,1980,blok,nie,brak informacji,brak informacji,brak informacji,wtórny
1,389 000 zł,62 m²,Chcesz zamieszkać na Bydgoskim? Film,3,do remontu,Współrzędne dokładne,"Bydgoskie Przedmieście, Toruń, Toruń",53.01269,18.5921,parter/4,670 zł,pełna własność,Zapytaj,Zapytaj,2023-04-04,1955,blok,nie,"telewizja kablowa, internet, telefon",domofon / wideofon,cegła,wtórny
1,329 000 zł,"46,11 m²",3 pokoje Bydgoskie Blisko Umk i Stare Miasto! Film,3,do zamieszkania,Współrzędne dokładne,"Bydgoskie Przedmieście, Toruń, Toruń",53.01193,18.58457,4/4,800 zł,pełna własność,balkon,Zapytaj,2023-04-15,1960,blok,nie,"telewizja kablowa, internet, telefon","drzwi / okna antywłamaniowe, domofon / wideofon",pustak,wtórny
1,1 999 000 zł,170 m²,"Niepowtarzalny apartament 170 m2, Aura Towers,15p.",4,do wykończenia,Współrzędne dokładne,"Bydgoszcz, Brdyujście, ul. Fordońska 4",53.1342,17.99035,> 10/16,1 200 zł,pełna własność,balkon,garaż/miejsce parkingowe,brak informacji,brak informacji,blok,tak,"telewizja kablowa, internet, telefon","system alarmowy, drzwi / okna antywłamaniowe, teren zamknięty, domofon / wideofon, monitoring / ochrona",żelbet,wtórny
1,355 000 zł,"55,2 m²","2 pokoje, miejsce parkingowe, oś. leśne",2,do zamieszkania,Współrzędne dokładne,"Bydgoszcz, Osiedle Leśne, ul. Józefa Sułkowskiego",53.140865,18.030582,3/3,650 zł,pełna własność,Zapytaj,garaż/miejsce parkingowe,brak informacji,1960,blok,nie,"telewizja kablowa, internet, telefon","drzwi / okna antywłamaniowe, domofon / wideofon",cegła,wtórny
1,340 000 zł,"47,4 m²","2 pokoje do wprowadzenia, garaż, świetna cena!",2,do zamieszkania,Nieruchomość znajduje się w zaznaczonym obszarze mapy. Niestety ogłoszeniodawca nie wskazał dokładnego adresu.,"Podgórz, Toruń, Toruń",52.98151,18.572538,parter/3,693 zł,pełna własność,Zapytaj,garaż/miejsce parkingowe,brak informacji,1996,blok,nie,brak informacji,brak informacji,cegła,wtórny
1,250 000 zł,100 m²,Hit ! 100 m2 z ogródkiem i garażem,3,do remontu,Współrzędne dokładne,"Strzelno, mogileński, kujawsko-pomorskie",52.63163,18.17431,parter/2,Zapytaj,pełna własność,ogródek,garaż/miejsce parkingowe,2023-05-11,1940,brak informacji,nie,brak informacji,brak informacji,brak informacji,wtórny
1,230 000 zł,48 m²,Po remoncie 48m2 loggia blisko lasu wolne od zaraz,2,do zamieszkania,Nieruchomość znajduje się w zaznaczonym obszarze mapy. Niestety ogłoszeniodawca nie wskazał dokładnego adresu.,"Grudziądz, Grudziądz, kujawsko-pomorskie",53.46469,18.77287,4/4,500 zł,pełna własność,balkon,Zapytaj,2023-07-17,brak informacji,blok,nie,brak informacji,brak informacji,wielka płyta,wtórny
1,499 000 zł,"55,5 m²",3 pokoje - Centrum,3,do wykończenia,Współrzędne dokładne,"Toruń, Mokre, ul. ks. Stanisława Staszica",53.02332,18.61344,3/4,713 zł,Zapytaj,balkon,Zapytaj,2023-05-15,1993,brak informacji,nie,brak informacji,brak informacji,brak informacji,wtórny
1,279 900 zł,"45,15 m²",Okazja M-2 Wyzyny !,2,do zamieszkania,Współrzędne dokładne,"Siernieczek, Bydgoszcz, Bydgoszcz",53.13006,18.10249,4/4,699 zł,pełna własność,Zapytaj,garaż/miejsce parkingowe,2022-12-29,1980,blok,tak,brak informacji,brak informacji,wielka płyta,wtórny
1,395 000 zł,"48,3 m²","Salon, duża sypialnia + kuchnia - bez pośredników.",2,do zamieszkania,Nieruchomość znajduje się w zaznaczonym obszarze mapy. Niestety ogłoszeniodawca nie wskazał dokładnego adresu.,"Centrum, Toruń, Toruń",53.01245,18.60943,1/2,530 zł,pełna własność,balkon,garaż/miejsce parkingowe,brak informacji,1998,blok,nie,"telewizja kablowa, internet, telefon","domofon / wideofon, monitoring / ochrona",cegła,wtórny
1,275 000 zł,"53,9 m²","Mieszkanie 2-pokojowe (53,90 m2), Osiedle Rąbin",2,do zamieszkania,Nieruchomość znajduje się w zaznaczonym obszarze mapy. Niestety ogłoszeniodawca nie wskazał dokładnego adresu.,"Inowrocław, inowrocławski, kujawsko-pomorskie",52.7935,18.26298,4/4,560 zł,pełna własność,Zapytaj,garaż/miejsce parkingowe,brak informacji,1987,blok,nie,brak informacji,brak informacji,wielka płyta,wtórny
1,225 000 zł,"25,64 m²","2 pokoje, mieszkanie po remoncie, 26 m kw.",2,do wykończenia,Współrzędne dokładne,"ul. Bocianowo 34, Bydgoszcz, Bydgoszcz",53.1342,17.99035,2/3,Zapytaj,pełna własność,Zapytaj,Zapytaj,brak informacji,brak informacji,brak informacji,nie,"telewizja kablowa, internet, telefon","teren zamknięty, domofon / wideofon, monitoring / ochrona",cegła,wtórny
1,255 000 zł,"42,42 m²",Mieszkanie o dużych możliwościach,2,do remontu,Nieruchomość znajduje się w zaznaczonym obszarze mapy. Niestety ogłoszeniodawca nie wskazał dokładnego adresu.,"Wyżyny, Bydgoszcz, Bydgoszcz",53.10434,18.03699,4/4,660 zł,Zapytaj,balkon,Zapytaj,brak informacji,1980,blok,nie,"telewizja kablowa, internet",brak informacji,wielka płyta,wtórny
1,399 000 zł,47 m²,"Mieszkanie 47 m, parter, winda",2,Zapytaj,Nieruchomość znajduje się w zaznaczonym obszarze mapy. Niestety ogłoszeniodawca nie wskazał dokładnego adresu.,"Glinki, Bydgoszcz, Bydgoszcz",53.10055,18.01728,parter/4,Zapytaj,Zapytaj,taras,Zapytaj,brak informacji,2012,blok,tak,brak informacji,brak informacji,brak informacji,wtórny
1,317 000 zł,"52,96 m²",Duże Mieszkanie 2 Pokojowe Na Parterze Do Remontu,2,Zapytaj,Współrzędne dokładne,"Bydgoszcz, Skrzetusko, ul. Marii Curie-Skłodowskiej",53.12527,18.03431,parter/4,610 zł,pełna własność,Zapytaj,Zapytaj,brak informacji,1959,blok,nie,brak informacji,domofon / wideofon,cegła,wtórny
1,263 000 zł,"48,15 m²","2 pokoje, parter z balkonem w Solcu Kujawskim",2,do remontu,Współrzędne dokładne,"ul. Toruńska 54, Solec Kujawski, bydgoski",53.07911,18.22321,parter/4,545 zł,spółdzielcze własnościowe,balkon,Zapytaj,brak informacji,1992,blok,nie,brak informacji,brak informacji,wielka płyta,wtórny
1,304 900 zł,"37,6 m²","Osiedle Młodych, 2 pokoje, 0% prowizji",2,Zapytaj,Współrzędne dokładne,"Toruń, Młodych, ul. Józefa Ignacego Kraszewskiego",53.014809,18.588073,parter/11,Zapytaj,Zapytaj,Zapytaj,Zapytaj,brak informacji,1975,brak informacji,nie,brak informacji,brak informacji,brak informacji,wtórny
1,324 000 zł,"50,45 m²","Oś zamknięte,50m2, 2pokoje,2balkony,parter,gararaż",2,Zapytaj,Nieruchomość znajduje się w zaznaczonym obszarze mapy. Niestety ogłoszeniodawca nie wskazał dokładnego adresu.,"Włocławek, Włocławek, kujawsko-pomorskie",52.65975,19.07799,parter/3,350 zł,pełna własność,balkon,garaż/miejsce parkingowe,brak informacji,2006,apartamentowiec,nie,"telewizja kablowa, internet",brak informacji,cegła,wtórny
1,215 000 zł,"37,5 m²","37,5m2, 1 pokój, parter, loggia, Oś. zamknięte!",1,Zapytaj,Nieruchomość znajduje się w zaznaczonym obszarze mapy. Niestety ogłoszeniodawca nie wskazał dokładnego adresu.,"Kazimierza Wielkiego, Włocławek, Włocławek",52.64719,19.09231,parter/3,560 zł,pełna własność,balkon,garaż/miejsce parkingowe,brak informacji,2009,apartamentowiec,nie,"telewizja kablowa, internet","teren zamknięty, domofon / wideofon",cegła,wtórny
1,450 000 zł,"72,84 m²","Mieszkanie, 72,84 m², Włocławek",3,Zapytaj,Nieruchomość znajduje się w zaznaczonym obszarze mapy. Niestety ogłoszeniodawca nie wskazał dokładnego adresu.,"Zazamcze, Włocławek, Włocławek",52.66872,19.03701,2/4,837 zł,Zapytaj,balkon,Zapytaj,brak informacji,1987,blok,nie,"telewizja kablowa, internet",domofon / wideofon,cegła,wtórny
1,216 197 zł,"20,99 m²",Mikro-apartament z antresolą,1,do wykończenia,Współrzędne dokładne,"Bydgoszcz, Bielawy, ul. Jana Karola Chodkiewicza",53.132647,18.0347,1/6,Zapytaj,Zapytaj,Zapytaj,Zapytaj,2024-03-31,1976,blok,tak,brak informacji,"monitoring / ochrona, domofon / wideofon",beton,wtórny
1,255 000 zł,"45,1 m²","Zazamcze, 2 pokoje, 45,49m2, balkon, parking!",2,Zapytaj,Nieruchomość znajduje się w zaznaczonym obszarze mapy. Niestety ogłoszeniodawca nie wskazał dokładnego adresu.,"Zazamcze, Włocławek, Włocławek",52.66872,19.03701,4/4,404 zł,pełna własność,balkon,garaż/miejsce parkingowe,brak informacji,brak informacji,blok,nie,"telewizja kablowa, internet",brak informacji,brak informacji,wtórny
1,275 000 zł,30 m²,"Dwupokojowe, nowoczesne. Kapuściska",2,Zapytaj,Współrzędne dokładne,"Kapuściska, Bydgoszcz, Bydgoszcz",53.107241,18.05328,2/10,400 zł,Zapytaj,balkon,Zapytaj,brak informacji,brak informacji,brak informacji,tak,brak informacji,brak informacji,brak informacji,wtórny
1,319 000 zł,32 m²,2pok SIM Karolewska super lokalizacja bezpośrednio,2,do zamieszkania,Współrzędne dokładne,"Bydgoszcz, Czyżkówko, ul. Karolewska",53.148801,17.968879,parter/3,260 zł,pełna własność,balkon,garaż/miejsce parkingowe,brak informacji,2008,blok,nie,brak informacji,"drzwi / okna antywłamaniowe, teren zamknięty, domofon / wideofon",cegła,wtórny
1,649 600 zł,58 m²,"Nowe Sosnowy Las 3 pokoje, 2 łazienki 2023",3,do zamieszkania,Współrzędne dokładne,"Toruń, Stawki, ul. Strzałowa",52.9987,18.63329,1/2,580 zł,pełna własność,balkon,garaż/miejsce parkingowe,2023-04-12,2023,blok,tak,internet,"drzwi / okna antywłamaniowe, teren zamknięty, domofon / wideofon, monitoring / ochrona",cegła,wtórny
1,329 000 zł,48 m²,Na parterze | gotowe do zamieszkania,2,Zapytaj,Nieruchomość znajduje się w zaznaczonym obszarze mapy. Niestety ogłoszeniodawca nie wskazał dokładnego adresu.,"Bartodzieje, Bydgoszcz, Bydgoszcz",53.12639,18.04929,parter/10,750 zł,pełna własność,Zapytaj,Zapytaj,brak informacji,brak informacji,blok,tak,"telewizja kablowa, internet, telefon",brak informacji,brak informacji,wtórny
1,246 000 zł,"57,35 m²","Mieszkanie, 57,35 m², Grudziądz",3,Zapytaj,Nieruchomość znajduje się w zaznaczonym obszarze mapy. Niestety ogłoszeniodawca nie wskazał dokładnego adresu.,"Strzemięcin, Grudziądz, Grudziądz",53.4604,18.73121,4,Zapytaj,Zapytaj,Zapytaj,Zapytaj,brak informacji,brak informacji,brak informacji,tak,brak informacji,brak informacji,brak informacji,wtórny
1,299 000 zł,35 m²,Bydgoszcz Błonie 3 Piętro! 2 pokoje! Balkon,2,do zamieszkania,Współrzędne dokładne,"Bydgoszcz, Błonie, ul. Ludwika Waryńskiego",53.119277,17.96924,3/4,Zapytaj,pełna własność,Zapytaj,Zapytaj,brak informacji,1980,blok,nie,brak informacji,brak informacji,brak informacji,wtórny
1,565 000 zł,70 m²,Ekskluzywne mieszkanie/apartament,3,do zamieszkania,Nieruchomość znajduje się w zaznaczonym obszarze mapy. Niestety ogłoszeniodawca nie wskazał dokładnego adresu.,"Włocławek, Włocławek, kujawsko-pomorskie",52.65975,19.07799,1/3,Zapytaj,pełna własność,balkon,garaż/miejsce parkingowe,brak informacji,1999,blok,nie,"telewizja kablowa, internet","teren zamknięty, domofon / wideofon, monitoring / ochrona, rolety antywłamaniowe",beton komórkowy,wtórny
1,329 000 zł,52 m²,"Wyżyny, 3-pokojowe mieszkanie z loggią",3,Zapytaj,Nieruchomość znajduje się w zaznaczonym obszarze mapy. Niestety ogłoszeniodawca nie wskazał dokładnego adresu.,"Wyżyny, Bydgoszcz, Bydgoszcz",53.10434,18.03699,3/4,530 zł,pełna własność,balkon,Zapytaj,brak informacji,1978,blok,nie,telewizja kablowa,brak informacji,brak informacji,wtórny
1,275 000 zł,"48,5 m²",Sprzedam mieszkanie 2 pokojowe po remoncie Rąbin,2,do zamieszkania,Nieruchomość znajduje się w zaznaczonym obszarze mapy. Niestety ogłoszeniodawca nie wskazał dokładnego adresu.,"Inowrocław, inowrocławski, kujawsko-pomorskie",52.7935,18.26298,4/4,490 zł,spółdzielcze wł. z KW,balkon,Zapytaj,brak informacji,brak informacji,blok,nie,brak informacji,brak informacji,brak informacji,wtórny
1,359 000 zł,50 m²,Cegła! Rozkładowe! od zaraz!!,2,do zamieszkania,Nieruchomość znajduje się w zaznaczonym obszarze mapy. Niestety ogłoszeniodawca nie wskazał dokładnego adresu.,"Podgórz, Toruń, Toruń",52.98715,18.58482,1/2,440 zł,Zapytaj,balkon,Zapytaj,2023-03-31,1999,brak informacji,nie,"telewizja kablowa, internet",brak informacji,cegła,wtórny
1,375 000 zł,65 m²,Centrum Torunia !!,3,do zamieszkania,Nieruchomość znajduje się w zaznaczonym obszarze mapy. Niestety ogłoszeniodawca nie wskazał dokładnego adresu.,"Młodych, Toruń, Toruń",53.01556,18.59278,1/2,350 zł,Zapytaj,balkon,Zapytaj,2023-04-12,1931,kamienica,nie,brak informacji,brak informacji,cegła,wtórny
1,505 000 zł,65 m²,Mieszkanie 3 pokoje Ogródek,3,do zamieszkania,Nieruchomość znajduje się w zaznaczonym obszarze mapy. Niestety ogłoszeniodawca nie wskazał dokładnego adresu.,"Niemcz, bydgoski, kujawsko-pomorskie",53.181852,18.044688,parter/2,700 zł,pełna własność,"balkon, ogródek, taras",garaż/miejsce parkingowe,brak informacji,2007,blok,nie,brak informacji,"teren zamknięty, domofon / wideofon",cegła,wtórny
1,329 000 zł,52 m²,"Mieszkanie 52m2, 3 pokoje, balkon, piwnica",3,Zapytaj,Nieruchomość znajduje się w zaznaczonym obszarze mapy. Niestety ogłoszeniodawca nie wskazał dokładnego adresu.,"Wyżyny, Bydgoszcz, Bydgoszcz",53.107198,18.026327,3/4,530 zł,pełna własność,balkon,Zapytaj,brak informacji,1978,blok,nie,"telewizja kablowa, internet, telefon",domofon / wideofon,żelbet,wtórny
1,315 000 zł,48 m²,48m2 - Dobra lokalizacja ! DOBRA CENA !,3,Zapytaj,Współrzędne dokładne,"Toruń, Mokre, ul. Świętopełka",53.030179,18.616418,10/11,400 zł,spółdzielcze własnościowe,balkon,Zapytaj,brak informacji,1973,brak informacji,nie,brak informacji,brak informacji,brak informacji,wtórny
1,228 000 zł,"57,86 m²",58m2 - 4 pokoje - III piętro - POLECAM !,4,Zapytaj,Współrzędne dokładne,"Grudziądz, Strzemięcin, ul. Śniadeckich",53.459555,18.733028,3/4,Zapytaj,Zapytaj,Zapytaj,Zapytaj,brak informacji,brak informacji,blok,nie,brak informacji,brak informacji,brak informacji,wtórny
1,299 000 zł,"71,95 m²",72m2 - 4 pokoje - PIERWSZE PIĘTRO !,4,Zapytaj,Nieruchomość znajduje się w zaznaczonym obszarze mapy. Niestety ogłoszeniodawca nie wskazał dokładnego adresu.,"Chojna-Lotnisko, Grudziądz, Grudziądz",53.465286,18.774116,1/4,Zapytaj,Zapytaj,Zapytaj,Zapytaj,brak informacji,brak informacji,blok,nie,brak informacji,brak informacji,brak informacji,wtórny
1,319 900 zł,"60,5 m²",Mieszkanie na sprzedaż osiedle Lotnisko,3,Zapytaj,Nieruchomość znajduje się w zaznaczonym obszarze mapy. Niestety ogłoszeniodawca nie wskazał dokładnego adresu.,"Chojna-Lotnisko, Grudziądz, Grudziądz",53.465286,18.774116,3/4,720 zł,pełna własność,balkon,Zapytaj,brak informacji,brak informacji,blok,nie,brak informacji,brak informacji,brak informacji,wtórny
1,597 000 zł,"52,85 m²",Kawalerki w kamienicy po remoncie -gotowiec inwest,3,do zamieszkania,Współrzędne dokładne,"ul. Józefa Ignacego Kraszewskiego , Toruń, Toruń",53.014273,18.591273,1/2,270 zł,pełna własność,"balkon, ogródek",Zapytaj,brak informacji,1922,kamienica,nie,internet,domofon / wideofon,cegła,wtórny
1,380 000 zł,"41,16 m²",Mieszkanie dwupokojowe na zamkniętym osiedlu.,2,do zamieszkania,Współrzędne dokładne,"ul. Żwirki i Wigury , Toruń, Toruń",53.028244,18.590549,2/3,650 zł,pełna własność,balkon,garaż/miejsce parkingowe,brak informacji,2000,blok,nie,brak informacji,"monitoring / ochrona, domofon / wideofon",cegła,wtórny
1,599 000 zł,"62,5 m²","Mieszkanie 3-pokojowe z balkonem, garażem i windą",3,do zamieszkania,Współrzędne dokładne,"Koniuchy, Toruń, Toruń",53.034275,18.591981,3/4,Zapytaj,Zapytaj,balkon,garaż/miejsce parkingowe,brak informacji,2011,blok,tak,"telewizja kablowa, internet","drzwi / okna antywłamaniowe, teren zamknięty, domofon / wideofon, monitoring / ochrona, rolety antywłamaniowe",brak informacji,wtórny
1,445 000 zł,"70,7 m²",Mieszkanie M5 - Bydgoszcz Bartodzieje 71 m2,4,Zapytaj,Nieruchomość znajduje się w zaznaczonym obszarze mapy. Niestety ogłoszeniodawca nie wskazał dokładnego adresu.,"Bartodzieje, Bydgoszcz, Bydgoszcz",53.12639,18.04929,4/4,Zapytaj,pełna własność,balkon,Zapytaj,brak informacji,1985,blok,nie,"telewizja kablowa, internet",domofon / wideofon,wielka płyta,wtórny
1,399 000 zł,"48,62 m²","Mieszkanie, nowe, wysoki stand, GOT. POD KLUCZ!",3,do zamieszkania,Współrzędne dokładne,"ul. Kościelna , Aleksandrów Kujawski, aleksandrowski",52.882154,18.693099,4/4,379 zł,pełna własność,"balkon, ogródek, taras",garaż/miejsce parkingowe,brak informacji,2021,blok,tak,"telewizja kablowa, internet, telefon","teren zamknięty, domofon / wideofon, monitoring / ochrona",cegła,wtórny
1,269 000 zł,"57,86 m²",Mieszkanie w pełni umeblowane,3,do zamieszkania,Nieruchomość znajduje się w zaznaczonym obszarze mapy. Niestety ogłoszeniodawca nie wskazał dokładnego adresu.,"Grudziądz, Grudziądz, kujawsko-pomorskie",53.49769,18.82293,4/4,700 zł,spółdzielcze wł. z KW,balkon,Zapytaj,brak informacji,brak informacji,blok,nie,brak informacji,brak informacji,wielka płyta,wtórny
1,200 000 zł,61 m²,Mieszkanie Osowa Góra 61Mkw,2,Zapytaj,Współrzędne dokładne,"Bydgoszcz, Bydgoszcz, kujawsko-pomorskie",53.14443,17.91803,3/3,740 zł,Zapytaj,balkon,Zapytaj,brak informacji,brak informacji,brak informacji,nie,brak informacji,brak informacji,brak informacji,wtórny
1,235 000 zł,30 m²,"2 pokoje, mieszkanie po generalnym remoncie,30m2",2,do wykończenia,Nieruchomość znajduje się w zaznaczonym obszarze mapy. Niestety ogłoszeniodawca nie wskazał dokładnego adresu.,"Bydgoszcz, Bydgoszcz, kujawsko-pomorskie",53.1342,17.99035,1/2,Zapytaj,pełna własność,Zapytaj,Zapytaj,brak informacji,brak informacji,kamienica,nie,"telewizja kablowa, internet, telefon","teren zamknięty, domofon / wideofon, monitoring / ochrona",cegła,wtórny
1,430 000 zł,66 m²,Nowa niższa cena!,3,Zapytaj,Nieruchomość znajduje się w zaznaczonym obszarze mapy. Niestety ogłoszeniodawca nie wskazał dokładnego adresu.,"Osowa Góra, Bydgoszcz, Bydgoszcz",53.16361,17.89917,parter,700 zł,spółdzielcze własnościowe,Zapytaj,Zapytaj,brak informacji,brak informacji,blok,nie,brak informacji,brak informacji,brak informacji,wtórny
1,350 000 zł,"33,8 m²",Apartament inwestycyjny Grey'a - dochodowy biznes,2,do zamieszkania,Współrzędne dokładne,"Toruń, Podgórz, ul. Poznańska",52.981399,18.572109,3/3,200 zł,pełna własność,balkon,garaż/miejsce parkingowe,brak informacji,2014,blok,nie,internet,"drzwi / okna antywłamaniowe, domofon / wideofon, monitoring / ochrona",cegła,wtórny
1,520 000 zł,"61,99 m²",3-pokoje w nowym budownictwie- osiedle zamknięte!,3,do zamieszkania,Współrzędne dokładne,"Toruń, Stawki, ul. Michała Drzymały",52.992295,18.595521,2/3,600 zł,pełna własność,"balkon, taras",garaż/miejsce parkingowe,brak informacji,2016,blok,tak,"telewizja kablowa, internet","teren zamknięty, domofon / wideofon, monitoring / ochrona",silikat,wtórny
1,285 000 zł,"64,5 m²","Mieszkanie 64,5m loggia 3 pokoje oś. Lotnisko",3,do zamieszkania,Współrzędne dokładne,"Grudziądz, Chojna-Lotnisko, ul. Warszawska",53.455499,18.788625,6/10,1 125 zł,spółdzielcze wł. z KW,balkon,Zapytaj,brak informacji,1990,blok,tak,"telewizja kablowa, internet","drzwi / okna antywłamaniowe, domofon / wideofon",żelbet,wtórny
1,600 000 zł,"67,3 m²",Komfortowe M3 na zamkniętym osiedlu,3,do zamieszkania,Współrzędne dokładne,"ul. Elizy Orzeszkowej , Niemcz, bydgoski",53.177633,18.043125,1/3,900 zł,pełna własność,balkon,Zapytaj,brak informacji,2012,blok,nie,"telewizja kablowa, internet, telefon","teren zamknięty, domofon / wideofon, monitoring / ochrona",cegła,wtórny
1,197 000 zł,"35,88 m²",Dwupokojowe mieszkanie z ładnym widokiem,2,do remontu,Współrzędne dokładne,"ul. Bydgoska , Solec Kujawski, bydgoski",53.082994,18.21945,3/4,500 zł,pełna własność,balkon,Zapytaj,brak informacji,brak informacji,blok,nie,telewizja kablowa,domofon / wideofon,brak informacji,wtórny
1,195 000 zł,39 m²,Mieszkanie 2 pokoje 39m2 Rypin,2,do zamieszkania,Współrzędne dokładne,"ul. Nowe Osiedle , Rypin, rypiński",53.067144,19.419354,2/2,550 zł,pełna własność,taras,Zapytaj,brak informacji,1974,blok,nie,telewizja kablowa,brak informacji,cegła,wtórny
1,1 055 000 zł,137 m²,Stylowe mieszkanie w Dzielnicy Muzycznej,4,Zapytaj,Współrzędne dokładne,"Centrum, Bydgoszcz, Bydgoszcz",53.11477,18.00475,2/3,480 zł,Zapytaj,balkon,Zapytaj,brak informacji,1905,kamienica,nie,brak informacji,domofon / wideofon,cegła,wtórny
1,230 823 zł,"24,9 m²","Mikroapratament - ostatnie piętro, wyjątkowy",1,do wykończenia,Współrzędne dokładne,"Bydgoszcz, Bielawy, ul. Jana Karola Chodkiewicza",53.132647,18.0347,6/6,Zapytaj,Zapytaj,Zapytaj,Zapytaj,2024-03-31,1976,blok,tak,brak informacji,"monitoring / ochrona, domofon / wideofon",beton,wtórny
1,495 000 zł,68 m²,"Okole, bardzo przestronne M4 w spokojnej okolicy",3,do zamieszkania,Nieruchomość znajduje się w zaznaczonym obszarze mapy. Niestety ogłoszeniodawca nie wskazał dokładnego adresu.,"Okole, Bydgoszcz, Bydgoszcz",53.3,17.95,3/3,640 zł,pełna własność,balkon,Zapytaj,2023-05-12,2000,blok,nie,"telewizja kablowa, internet, telefon",brak informacji,cegła,wtórny
1,300 000 zł,45 m²,"Błonie, M4 z loggia, własne miejsce parkingowe",3,do zamieszkania,Nieruchomość znajduje się w zaznaczonym obszarze mapy. Niestety ogłoszeniodawca nie wskazał dokładnego adresu.,"Błonie, Bydgoszcz, Bydgoszcz",53.11829,17.96702,5/10,570 zł,pełna własność,balkon,Zapytaj,2023-05-12,1978,blok,tak,"telewizja kablowa, internet",brak informacji,wielka płyta,wtórny
1,343 000 zł,47 m²,"Błonie, M4 bardzo dobry stan, z balkonem",3,do zamieszkania,Nieruchomość znajduje się w zaznaczonym obszarze mapy. Niestety ogłoszeniodawca nie wskazał dokładnego adresu.,"Błonie, Bydgoszcz, Bydgoszcz",53.11829,17.96702,3/4,660 zł,pełna własność,balkon,Zapytaj,2023-05-12,1976,blok,nie,"telewizja kablowa, internet",brak informacji,wielka płyta,wtórny
1,320 000 zł,43 m²,Bartodzieje M4 bardzo blisko Jurasza,3,do zamieszkania,Nieruchomość znajduje się w zaznaczonym obszarze mapy. Niestety ogłoszeniodawca nie wskazał dokładnego adresu.,"Bartodzieje, Bydgoszcz, Bydgoszcz",53.12639,18.04929,parter/10,600 zł,spółdzielcze wł. z KW,Zapytaj,Zapytaj,2023-11-12,1980,blok,tak,"telewizja kablowa, internet, telefon",brak informacji,wielka płyta,wtórny
1,751 366 zł,77 m²,"Osowa Góra, M4 przy lesie w spokojnym miejscu",3,Zapytaj,Nieruchomość znajduje się w zaznaczonym obszarze mapy. Niestety ogłoszeniodawca nie wskazał dokładnego adresu.,"Osowa Góra, Bydgoszcz, Bydgoszcz",53.16361,17.89917,2,Zapytaj,Zapytaj,Zapytaj,Zapytaj,brak informacji,brak informacji,blok,nie,brak informacji,brak informacji,brak informacji,wtórny
1,890 000 zł,80 m²,Nietuzinkowe M4 premium Centrum,3,do zamieszkania,Nieruchomość znajduje się w zaznaczonym obszarze mapy. Niestety ogłoszeniodawca nie wskazał dokładnego adresu.,"Centrum, Bydgoszcz, Bydgoszcz",53.12348,18.00844,5/5,1 000 zł,pełna własność,balkon,garaż/miejsce parkingowe,brak informacji,1999,blok,tak,"telewizja kablowa, internet, telefon",brak informacji,pustak,wtórny
1,629 000 zł,84 m²,Centrum Piękne M5 w kamienicy parter,4,do zamieszkania,Nieruchomość znajduje się w zaznaczonym obszarze mapy. Niestety ogłoszeniodawca nie wskazał dokładnego adresu.,"Centrum, Bydgoszcz, Bydgoszcz",53.12348,18.00844,parter/2,620 zł,pełna własność,Zapytaj,Zapytaj,2023-05-12,1887,kamienica,nie,"telewizja kablowa, internet, telefon",brak informacji,cegła,wtórny
1,470 000 zł,86 m²,Leśne Duże M-4 86m2 z Ogrodem 68m2 i garażem,3,Zapytaj,Nieruchomość znajduje się w zaznaczonym obszarze mapy. Niestety ogłoszeniodawca nie wskazał dokładnego adresu.,"Osiedle Leśne, Bydgoszcz, Bydgoszcz",53.13905,18.02752,parter/2,Zapytaj,pełna własność,balkon,garaż/miejsce parkingowe,2023-05-12,1940,dom wolnostojący,nie,"telewizja kablowa, internet, telefon",brak informacji,cegła,wtórny
1,259 000 zł,36 m²,Bielawy M3 z loggia na parterze koło szpitala,2,Zapytaj,Nieruchomość znajduje się w zaznaczonym obszarze mapy. Niestety ogłoszeniodawca nie wskazał dokładnego adresu.,"Bielawy, Bydgoszcz, Bydgoszcz",53.13187,18.05309,parter,407 zł,Zapytaj,Zapytaj,Zapytaj,brak informacji,brak informacji,blok,nie,brak informacji,brak informacji,brak informacji,wtórny
1,299 000 zł,49 m²,| M-3| Świetna lokalizacja | 50m2 | Bartodzieje |,2,Zapytaj,Nieruchomość znajduje się w zaznaczonym obszarze mapy. Niestety ogłoszeniodawca nie wskazał dokładnego adresu.,"Bartodzieje, Bydgoszcz, Bydgoszcz",53.12639,18.04929,3/4,Zapytaj,spółdzielcze własnościowe,balkon,Zapytaj,2023-05-12,brak informacji,blok,nie,"telewizja kablowa, internet, telefon",brak informacji,wielka płyta,wtórny
1,470 000 zł,"60,23 m²",Wygodne | Doinwestowane | M-4 | Łazienka z oknem,3,Zapytaj,Nieruchomość znajduje się w zaznaczonym obszarze mapy. Niestety ogłoszeniodawca nie wskazał dokładnego adresu.,"Osiedle Leśne, Bydgoszcz, Bydgoszcz",53.13905,18.02752,3/6,Zapytaj,pełna własność,balkon,garaż/miejsce parkingowe,2023-05-12,2023,blok,tak,"telewizja kablowa, internet, telefon",brak informacji,cegła,wtórny
1,275 000 zł,44 m²,M4 | okazja z potencjałem inwestycyjnym | 44m2,3,Zapytaj,Nieruchomość znajduje się w zaznaczonym obszarze mapy. Niestety ogłoszeniodawca nie wskazał dokładnego adresu.,"Bartodzieje, Bydgoszcz, Bydgoszcz",53.12639,18.04929,1/10,Zapytaj,pełna własność,balkon,Zapytaj,brak informacji,brak informacji,blok,tak,"telewizja kablowa, internet, telefon",brak informacji,wielka płyta,wtórny
1,415 000 zł,56 m²,Hit! M-4 Po Remoncie Z Loggią Wyżyny,3,Zapytaj,Nieruchomość znajduje się w zaznaczonym obszarze mapy. Niestety ogłoszeniodawca nie wskazał dokładnego adresu.,"Wyżyny, Bydgoszcz, Bydgoszcz",53.10434,18.03699,3,550 zł,Zapytaj,Zapytaj,Zapytaj,brak informacji,brak informacji,blok,nie,brak informacji,brak informacji,brak informacji,wtórny
1,349 000 zł,47 m²,Hit! M-4 w spokojnej okolicy z balkonem.Kapuściska,3,Zapytaj,Nieruchomość znajduje się w zaznaczonym obszarze mapy. Niestety ogłoszeniodawca nie wskazał dokładnego adresu.,"Kapuściska, Bydgoszcz, Bydgoszcz",53.10585,18.05483,9,600 zł,Zapytaj,Zapytaj,Zapytaj,brak informacji,brak informacji,blok,nie,brak informacji,brak informacji,brak informacji,wtórny
1,629 000 zł,71 m²,Nietuzinkowy apartament Glinki w stylu Boho 72 M,2,Zapytaj,Nieruchomość znajduje się w zaznaczonym obszarze mapy. Niestety ogłoszeniodawca nie wskazał dokładnego adresu.,"Glinki, Bydgoszcz, Bydgoszcz",53.10055,18.01728,2/4,540 zł,pełna własność,balkon,Zapytaj,2023-08-12,2019,apartamentowiec,tak,"telewizja kablowa, internet",brak informacji,cegła,wtórny
1,464 000 zł,103 m²,Obniżka Ceny mieszkanie z ogródkiem pod Bydgoszczą,5,do zamieszkania,Nieruchomość znajduje się w zaznaczonym obszarze mapy. Niestety ogłoszeniodawca nie wskazał dokładnego adresu.,"Czarnowo, toruński, kujawsko-pomorskie",53.10659,18.22743,parter/2,Zapytaj,pełna własność,taras,garaż/miejsce parkingowe,2023-05-12,2009,dom wolnostojący,nie,"telewizja kablowa, internet, telefon",brak informacji,cegła,wtórny
1,400 000 zł,"37,52 m²",Mieszkanie Strzałowa + miejsce postojowe i piwnica,2,do zamieszkania,Nieruchomość znajduje się w zaznaczonym obszarze mapy. Niestety ogłoszeniodawca nie wskazał dokładnego adresu.,"Stawki, Toruń, Toruń",52.997909,18.632169,3/3,500 zł,pełna własność,balkon,garaż/miejsce parkingowe,brak informacji,2017,blok,tak,brak informacji,domofon / wideofon,pustak,wtórny
1,239 000 zł,26 m²,"Hit Kawalerka 26,1 m2 Leśne po remoncie.",1,Zapytaj,Nieruchomość znajduje się w zaznaczonym obszarze mapy. Niestety ogłoszeniodawca nie wskazał dokładnego adresu.,"Osiedle Leśne, Bydgoszcz, Bydgoszcz",53.13905,18.02752,3,250 zł,Zapytaj,Zapytaj,Zapytaj,brak informacji,brak informacji,blok,nie,brak informacji,brak informacji,brak informacji,wtórny
1,569 000 zł,"50,27 m²",Cudowne M-4 z balkonem nowa cegła Czyżkówko,3,do zamieszkania,Nieruchomość znajduje się w zaznaczonym obszarze mapy. Niestety ogłoszeniodawca nie wskazał dokładnego adresu.,"Czyżkówko, Bydgoszcz, Bydgoszcz",53.15,17.96,1/3,450 zł,pełna własność,balkon,Zapytaj,2023-06-12,2018,blok,tak,"telewizja kablowa, internet",brak informacji,wielka płyta,wtórny
1,330 000 zł,64 m²,"Przestronne, 65m2 z balkonem, Fordon, Tatrzańskie",2,Zapytaj,Nieruchomość znajduje się w zaznaczonym obszarze mapy. Niestety ogłoszeniodawca nie wskazał dokładnego adresu.,"Fordon, Bydgoszcz, Bydgoszcz",53.14183,18.16897,3/4,700 zł,spółdzielcze własnościowe,Zapytaj,Zapytaj,2023-05-12,brak informacji,blok,nie,brak informacji,brak informacji,wielka płyta,wtórny
1,339 000 zł,62 m²,"Okazja w Fordonie! 63 m2 z balkonem, od zaraz",3,do zamieszkania,Nieruchomość znajduje się w zaznaczonym obszarze mapy. Niestety ogłoszeniodawca nie wskazał dokładnego adresu.,"Fordon, Bydgoszcz, Bydgoszcz",53.14183,18.16897,3/3,550 zł,pełna własność,balkon,Zapytaj,2023-05-12,1980,blok,nie,brak informacji,brak informacji,wielka płyta,wtórny
1,699 000 zł,"64,6 m²",Mieszkanie z ogródkiem w nowym bloku na Szpitalnej,3,do zamieszkania,Współrzędne dokładne,"Bydgoszcz, Kapuściska, ul. Szpitalna",53.102651,18.044991,parter/5,800 zł,pełna własność,"ogródek, taras",garaż/miejsce parkingowe,brak informacji,2019,apartamentowiec,tak,"telewizja kablowa, internet, telefon","drzwi / okna antywłamaniowe, teren zamknięty, domofon / wideofon, monitoring / ochrona, rolety antywłamaniowe",cegła,wtórny
1,439 000 zł,63 m²,M4 z widokiem na las 1 piętro balkon Kapuściska,3,do zamieszkania,Nieruchomość znajduje się w zaznaczonym obszarze mapy. Niestety ogłoszeniodawca nie wskazał dokładnego adresu.,"Kapuściska, Bydgoszcz, Bydgoszcz",53.10585,18.05483,2/4,533 zł,pełna własność,balkon,Zapytaj,2023-05-12,1980,blok,nie,"telewizja kablowa, internet, telefon",brak informacji,wielka płyta,wtórny
1,813 500 zł,"59,08 m²","Nowe mieszkanie, zamieszkaj jako ten pierwszy",3,do zamieszkania,Nieruchomość znajduje się w zaznaczonym obszarze mapy. Niestety ogłoszeniodawca nie wskazał dokładnego adresu.,"Górzyskowo, Bydgoszcz, Bydgoszcz",53.1119,17.97636,3/3,555 zł,pełna własność,balkon,garaż/miejsce parkingowe,brak informacji,2022,apartamentowiec,tak,"telewizja kablowa, internet, telefon","drzwi / okna antywłamaniowe, teren zamknięty, domofon / wideofon, rolety antywłamaniowe",cegła,wtórny
1,479 000 zł,59 m²,M4 59m2 na parterze blok z cegły 2006r. Czyżkówko,3,do zamieszkania,Nieruchomość znajduje się w zaznaczonym obszarze mapy. Niestety ogłoszeniodawca nie wskazał dokładnego adresu.,"Czyżkówko, Bydgoszcz, Bydgoszcz",53.15,17.96,parter/3,415 zł,pełna własność,balkon,Zapytaj,2023-08-12,2006,blok,nie,"telewizja kablowa, internet, telefon",brak informacji,cegła,wtórny
1,1 390 000 zł,114 m²,"Apartament 114 m2, 4 sypialnie, taras 79 m2 Leśne",5,Zapytaj,Nieruchomość znajduje się w zaznaczonym obszarze mapy. Niestety ogłoszeniodawca nie wskazał dokładnego adresu.,"Osiedle Leśne, Bydgoszcz, Bydgoszcz",53.13905,18.02752,6/6,1 100 zł,pełna własność,balkon,garaż/miejsce parkingowe,2023-05-12,2019,apartamentowiec,tak,"telewizja kablowa, internet, telefon",brak informacji,cegła,wtórny
1,459 000 zł,50 m²,"3 pokoje, bez nakładów, nowe budownictwo, Fordon",3,Zapytaj,Nieruchomość znajduje się w zaznaczonym obszarze mapy. Niestety ogłoszeniodawca nie wskazał dokładnego adresu.,"Fordon, Bydgoszcz, Bydgoszcz",53.14183,18.16897,5,550 zł,Zapytaj,Zapytaj,Zapytaj,brak informacji,brak informacji,blok,nie,brak informacji,brak informacji,brak informacji,wtórny
1,565 000 zł,58 m²,"2017 r., winda, dwa balkony, dwie łazienki Centrum",3,do zamieszkania,Nieruchomość znajduje się w zaznaczonym obszarze mapy. Niestety ogłoszeniodawca nie wskazał dokładnego adresu.,"Centrum, Bydgoszcz, Bydgoszcz",53.12348,18.00844,4/5,Zapytaj,pełna własność,balkon,garaż/miejsce parkingowe,2023-05-12,2017,blok,tak,"telewizja kablowa, internet, telefon",brak informacji,cegła,wtórny
1,480 000 zł,82 m²,Przestronne M-4 z loggią w bloku Bielawy,3,do remontu,Nieruchomość znajduje się w zaznaczonym obszarze mapy. Niestety ogłoszeniodawca nie wskazał dokładnego adresu.,"Centrum, Bydgoszcz, Bydgoszcz",53.12348,18.00844,3/4,670 zł,pełna własność,balkon,Zapytaj,2023-05-12,1960,blok,nie,"telewizja kablowa, internet, telefon",brak informacji,cegła,wtórny
1,869 000 zł,"121,2 m²",Piękne i przestronne mieszkanie z widokiem na park,5,do zamieszkania,Współrzędne dokładne,"Bydgoszcz, Górzyskowo, ul. Stroma",53.13095,18.05265,1/4,1 100 zł,pełna własność,balkon,garaż/miejsce parkingowe,brak informacji,2006,blok,nie,brak informacji,"monitoring / ochrona, domofon / wideofon",cegła,wtórny
1,390 000 zł,"49,54 m²",M3 w Centrum z widokiem na rzekę Brdę,2,Zapytaj,Współrzędne dokładne,"Bydgoszcz, Centrum, ul. Bulwary",53.128083,17.996466,3/4,550 zł,pełna własność,balkon,Zapytaj,brak informacji,1962,blok,nie,"telewizja kablowa, internet",brak informacji,cegła,wtórny
1,440 000 zł,40 m²,"Nowe, 40 m2, balkon, do wprowadzenia",2,Zapytaj,Współrzędne dokładne,"Bydgoszcz, Osiedle Leśne, ul. Leśna",53.137899,18.020332,4/6,250 zł,pełna własność,balkon,Zapytaj,brak informacji,2021,blok,nie,brak informacji,"domofon / wideofon, rolety antywłamaniowe",brak informacji,wtórny
1,191 000 zł,"27,32 m²","Rentowność ponad 8%, słoneczne 2 pokoje w bloku.",2,Zapytaj,Współrzędne dokładne,"ul. Sochaczewska , Bydgoszcz, Bydgoszcz",53.1293,18.10459,parter/4,348 zł,pełna własność,balkon,garaż/miejsce parkingowe,brak informacji,1994,apartamentowiec,nie,"telefon, internet, telewizja kablowa","monitoring / ochrona, drzwi / okna antywłamaniowe, domofon / wideofon, rolety antywłamaniowe",wielka płyta,wtórny
1,299 000 zł,75 m²,Dwupoziomowe mieszkanie w szeregowcu,3,Zapytaj,Współrzędne dokładne,"Gniewkowo, inowrocławski, kujawsko-pomorskie",52.88328,18.38932,1/1,Zapytaj,pełna własność,"ogródek, taras",garaż/miejsce parkingowe,brak informacji,brak informacji,brak informacji,nie,brak informacji,brak informacji,brak informacji,wtórny
1,519 000 zł,"87,69 m²",Apartament w centrum po remoncie,3,do zamieszkania,Współrzędne dokładne,"Bydgoszcz, Centrum, ul. Toruńska",53.123344,18.007987,1/2,500 zł,pełna własność,Zapytaj,Zapytaj,brak informacji,brak informacji,kamienica,nie,brak informacji,domofon / wideofon,cegła,wtórny
1,270 000 zł,"31,98 m²","Słoneczne mieszkanie gotowe do wejścia, loggia",1,Zapytaj,Współrzędne dokładne,"Bydgoszcz, Osowa Góra, ul. Skowronków",53.14256,17.9158,1/2,220 zł,pełna własność,Zapytaj,Zapytaj,2023-02-28,2002,apartamentowiec,nie,brak informacji,"drzwi / okna antywłamaniowe, domofon / wideofon",cegła,wtórny
1,191 101 zł,"19,53 m²",Mikro-apartament - prywatny akademik,1,do wykończenia,Współrzędne dokładne,"Bydgoszcz, Bielawy, ul. Jana Karola Chodkiewicza",53.132647,18.0347,3/6,Zapytaj,Zapytaj,Zapytaj,Zapytaj,2024-03-31,1976,blok,tak,brak informacji,"monitoring / ochrona, domofon / wideofon",beton,wtórny
1,430 000 zł,50 m²,Do sprzedania Loftowe Mieszkanie na Zakątku*****,3,do zamieszkania,Współrzędne dokładne,"ul. Zakątek , Brodnica, brodnicki",53.271393,19.415521,1/1,500 zł,pełna własność,balkon,Zapytaj,brak informacji,2022,blok,nie,brak informacji,"teren zamknięty, domofon / wideofon",pustak,wtórny
1,368 000 zł,"45,5 m²",Mieszkanie 2 pokoje os. Chełmińskie,2,do zamieszkania,Nieruchomość znajduje się w zaznaczonym obszarze mapy. Niestety ogłoszeniodawca nie wskazał dokładnego adresu.,"Chełmińskie Przedmieście, Toruń, Toruń",53.02261,18.59448,3/3,570 zł,pełna własność,balkon,Zapytaj,brak informacji,2001,brak informacji,nie,brak informacji,teren zamknięty,cegła,wtórny
1,315 000 zł,"48,2 m²",Mieszkanie 2 pokoje w bloku na Rubinkowie,2,Zapytaj,Nieruchomość znajduje się w zaznaczonym obszarze mapy. Niestety ogłoszeniodawca nie wskazał dokładnego adresu.,"Rubinkowo, Toruń, Toruń",53.02705,18.66257,4/4,540 zł,Zapytaj,balkon,Zapytaj,brak informacji,brak informacji,blok,nie,brak informacji,brak informacji,wielka płyta,wtórny
1,340 000 zł,"47,44 m²","Mieszkanie 47,5 m2 Bydgoszcz Błonie",3,do zamieszkania,Współrzędne dokładne,"Bydgoszcz, Błonie, ul. Gustawa Morcinka",53.116021,17.963719,4/4,Zapytaj,pełna własność,balkon,Zapytaj,brak informacji,brak informacji,blok,nie,brak informacji,"domofon / wideofon, monitoring / ochrona",wielka płyta,wtórny
1,379 000 zł,"56,8 m²",Sprzedam mieszkanie 3 pokojowe.,3,Zapytaj,Nieruchomość znajduje się w zaznaczonym obszarze mapy. Niestety ogłoszeniodawca nie wskazał dokładnego adresu.,"Mokre, Toruń, Toruń",53.02897,18.62194,4/4,Zapytaj,spółdzielcze własnościowe,balkon,Zapytaj,brak informacji,brak informacji,plomba,nie,brak informacji,brak informacji,cegła,wtórny
1,319 000 zł,37 m²,Dwa Pokoje Na Skarpie Po Remoncie,2,Zapytaj,Nieruchomość znajduje się w zaznaczonym obszarze mapy. Niestety ogłoszeniodawca nie wskazał dokładnego adresu.,"Na Skarpie, Toruń, Toruń",53.0255,18.6883,10/11,380 zł,Zapytaj,Zapytaj,Zapytaj,brak informacji,brak informacji,brak informacji,tak,brak informacji,brak informacji,brak informacji,wtórny
1,359 000 zł,"47,3 m²",3 pokoje po remoncie w niskim bloku!!,3,do zamieszkania,Nieruchomość znajduje się w zaznaczonym obszarze mapy. Niestety ogłoszeniodawca nie wskazał dokładnego adresu.,"Toruń, Toruń, kujawsko-pomorskie",53.00717,18.61052,3,Zapytaj,Zapytaj,balkon,Zapytaj,brak informacji,brak informacji,brak informacji,nie,"telewizja kablowa, internet",brak informacji,brak informacji,wtórny
1,450 000 zł,"61,5 m²",M-4 Górzyskowo w bloku z cegły,3,do zamieszkania,Współrzędne dokładne,"Bydgoszcz, Górzyskowo, ul. Wojciecha Gersona",53.111216,17.979811,parter/4,600 zł,spółdzielcze własnościowe,balkon,Zapytaj,brak informacji,1994,blok,nie,"telewizja kablowa, internet","drzwi / okna antywłamaniowe, domofon / wideofon",cegła,wtórny
1,375 000 zł,"43,8 m²",NOWA CENA 2 pokoje NA 1 piętrze WRZOSY,2,do zamieszkania,Nieruchomość znajduje się w zaznaczonym obszarze mapy. Niestety ogłoszeniodawca nie wskazał dokładnego adresu.,"Wrzosy, Toruń, Toruń",53.05,18.58,1/3,550 zł,pełna własność,balkon,Zapytaj,brak informacji,2009,blok,nie,internet,"teren zamknięty, domofon / wideofon, monitoring / ochrona",cegła,wtórny
1,1 150 000 zł,"134,19 m²",Prawdziwa PERŁA mieszkanie w zabytkowej kamienicy,4,do zamieszkania,Współrzędne dokładne,"Toruń, Stare Miasto, ul. Józefa Poniatowskiego",53.011743,18.615863,3/4,738 zł,Zapytaj,balkon,Zapytaj,brak informacji,1903,kamienica,nie,internet,"domofon / wideofon, monitoring / ochrona",cegła,wtórny
1,335 000 zł,"63,32 m²","Okazja! M-4, 63,32m2, Blok 1 Piętro, Przylesie!",3,do remontu,Nieruchomość znajduje się w zaznaczonym obszarze mapy. Niestety ogłoszeniodawca nie wskazał dokładnego adresu.,"Przylesie, Bydgoszcz, Bydgoszcz",53.15123,18.12663,1/4,700 zł,spółdzielcze własnościowe,balkon,Zapytaj,brak informacji,brak informacji,blok,nie,brak informacji,domofon / wideofon,wielka płyta,wtórny
1,310 000 zł,"57,9 m²",3-pokojowe blok Rubinkowo,3,Zapytaj,Nieruchomość znajduje się w zaznaczonym obszarze mapy. Niestety ogłoszeniodawca nie wskazał dokładnego adresu.,"Rubinkowo, Toruń, Toruń",53.02705,18.66257,4/4,620 zł,pełna własność,balkon,Zapytaj,brak informacji,1977,blok,nie,brak informacji,brak informacji,brak informacji,wtórny
1,1 290 000 zł,"97,84 m²",Apartament z pięknym widokiem na sprzedaż,4,do wykończenia,Współrzędne dokładne,"Bydgoszcz, Okole, ul. Artura Grottgera",53.126468,17.993673,5/15,Zapytaj,pełna własność,balkon,Zapytaj,brak informacji,brak informacji,brak informacji,tak,brak informacji,brak informacji,brak informacji,wtórny
1,299 000 zł,"51,63 m²",Sprzedam lub zamienię na mniejszsze M3,3,do remontu,Współrzędne dokładne,"Inowrocław, Rąbin, ul. gen. Franciszka Kleeberga",52.786837,18.24994,3/4,Zapytaj,spółdzielcze własnościowe,balkon,Zapytaj,brak informacji,brak informacji,blok,nie,"telewizja kablowa, internet",domofon / wideofon,wielka płyta,wtórny
1,170 000 zł,"34,5 m²","Sprzedam mieszkanie 34,5m2 na Osiedlu Wyzwolenia",2,do remontu,Nieruchomość znajduje się w zaznaczonym obszarze mapy. Niestety ogłoszeniodawca nie wskazał dokładnego adresu.,"Grudziądz, Grudziądz, kujawsko-pomorskie",53.46469,18.77287,2/4,Zapytaj,pełna własność,Zapytaj,Zapytaj,brak informacji,brak informacji,blok,nie,brak informacji,domofon / wideofon,wielka płyta,wtórny
1,230 000 zł,"47,55 m²",Na sprzedaż * M4 * CENTRUM,3,Zapytaj,Współrzędne dokładne,"ul. Wojska Polskiego , Świecie, świecki",53.406735,18.428756,4,Zapytaj,Zapytaj,balkon,Zapytaj,brak informacji,brak informacji,blok,nie,"telewizja kablowa, internet, telefon",domofon / wideofon,brak informacji,wtórny
1,460 000 zł,"63,7 m²","Sprzedam mieszkanie - Bydgoszcz, Fordon.",3,do zamieszkania,Nieruchomość znajduje się w zaznaczonym obszarze mapy. Niestety ogłoszeniodawca nie wskazał dokładnego adresu.,"Fordon, Bydgoszcz, Bydgoszcz",53.14183,18.16897,parter/4,770 zł,Zapytaj,balkon,Zapytaj,brak informacji,1988,blok,nie,"telewizja kablowa, internet, telefon","drzwi / okna antywłamaniowe, domofon / wideofon",wielka płyta,wtórny
1,615 000 zł,"57,8 m²","Mieszkanie Sosnowy Las 57,8 m2 z tarasem 25 m2",3,do zamieszkania,Współrzędne dokładne,"Toruń, Stawki, ul. Strzałowa",52.997909,18.632169,3/3,700 zł,pełna własność,taras,garaż/miejsce parkingowe,brak informacji,2020,blok,tak,internet,"drzwi / okna antywłamaniowe, teren zamknięty, domofon / wideofon, monitoring / ochrona, rolety antywłamaniowe",beton komórkowy,wtórny
1,349 000 zł,"48,09 m²",Mieszkanie M4 Bartodzieje Powstańców Wlkp Prywatni,3,do zamieszkania,Współrzędne dokładne,"Bydgoszcz, Bartodzieje, al. Powstańców Wielkopolskich",53.128699,18.025414,parter/10,620 zł,spółdzielcze własnościowe,balkon,garaż/miejsce parkingowe,brak informacji,1975,blok,tak,"telewizja kablowa, internet, telefon","drzwi / okna antywłamaniowe, domofon / wideofon, monitoring / ochrona",brak informacji,wtórny
1,1 099 000 zł,"92,39 m²",Apartament z ogrodem (bezpośrednio),4,do zamieszkania,Współrzędne dokładne,"Bydgoszcz, Wilczak, ul. Czerwonego Krzyża",53.123243,17.962904,parter/2,Zapytaj,pełna własność,"ogródek, taras",garaż/miejsce parkingowe,brak informacji,2019,apartamentowiec,tak,"telewizja kablowa, internet","system alarmowy, drzwi / okna antywłamaniowe, teren zamknięty, domofon / wideofon, monitoring / ochrona, rolety antywłamaniowe",cegła,wtórny
1,325 000 zł,"35,3 m²",2 Pokoje / Wysoki Standard/Osobna Kuchnia/Błonie,2,do zamieszkania,Współrzędne dokładne,"Błonie, Bydgoszcz, Bydgoszcz",53.11857,17.9609,3/4,Zapytaj,Zapytaj,balkon,Zapytaj,brak informacji,brak informacji,blok,nie,brak informacji,"drzwi / okna antywłamaniowe, domofon / wideofon",wielka płyta,wtórny
1,399 000 zł,"40,36 m²","NOWE, wykończone, blisko zieleni, OGRÓDEK i CISZA",2,do zamieszkania,Nieruchomość znajduje się w zaznaczonym obszarze mapy. Niestety ogłoszeniodawca nie wskazał dokładnego adresu.,"Podgórz, Toruń, Toruń",52.98715,18.58482,parter/4,450 zł,pełna własność,"ogródek, taras",garaż/miejsce parkingowe,brak informacji,2023,blok,tak,"telewizja kablowa, internet","drzwi / okna antywłamaniowe, teren zamknięty, domofon / wideofon",silikat,wtórny
1,336 000 zł,57 m²,Piękne 57m kw- 2 piętro - os.Kazimierza Wlk.,4,Zapytaj,Nieruchomość znajduje się w zaznaczonym obszarze mapy. Niestety ogłoszeniodawca nie wskazał dokładnego adresu.,"Kazimierza Wielkiego, Włocławek, Włocławek",52.64719,19.09231,2/4,700 zł,pełna własność,balkon,garaż/miejsce parkingowe,brak informacji,brak informacji,blok,nie,brak informacji,brak informacji,brak informacji,wtórny
1,999 999 zł,180 m²,Gotowiec inwest. 6 kawalerek. Zostań Rentierem!,6,Zapytaj,Współrzędne dokładne,"Bydgoszcz, Miedzyń, ul. Nakielska",53.13274,17.92399,2/2,Zapytaj,udział,"balkon, ogródek",garaż/miejsce parkingowe,2023-01-07,2020,dom wolnostojący,nie,"telefon, telewizja kablowa","system alarmowy, drzwi / okna antywłamaniowe, rolety antywłamaniowe",inne,wtórny
1,312 000 zł,"37,34 m²","7 min pieszo na uniwersytet, 500 M do Umk, balkon",2,do zamieszkania,Współrzędne dokładne,"Bielany, Toruń, Toruń",53.01498,18.56869,3/4,400 zł,pełna własność,balkon,garaż/miejsce parkingowe,brak informacji,1970,blok,nie,"telewizja kablowa, internet, telefon",domofon / wideofon,wielka płyta,wtórny
1,420 000 zł,61 m²,3 pokoje - duża przestrzeń - piękny widok,3,do zamieszkania,Nieruchomość znajduje się w zaznaczonym obszarze mapy. Niestety ogłoszeniodawca nie wskazał dokładnego adresu.,"Rubinkowo, Toruń, Toruń",53.02705,18.66257,9/11,700 zł,spółdzielcze własnościowe,Zapytaj,Zapytaj,brak informacji,1975,brak informacji,tak,brak informacji,brak informacji,wielka płyta,wtórny
1,490 000 zł,"61,09 m²",Mieszkanie z tarasem przy św. Józefa...czeka,3,Zapytaj,Współrzędne dokładne,"ul. św. Józefa , Toruń, Toruń",53.026585,18.585214,parter/7,799 zł,pełna własność,taras,Zapytaj,brak informacji,2009,apartamentowiec,tak,"telewizja kablowa, internet","drzwi / okna antywłamaniowe, teren zamknięty, domofon / wideofon, rolety antywłamaniowe",cegła,wtórny
1,227 000 zł,"48,93 m²",Rąbin/Solanki ~ 2 Pokojowe ~ 49 m2 z panoramą !!!,2,do zamieszkania,Nieruchomość znajduje się w zaznaczonym obszarze mapy. Niestety ogłoszeniodawca nie wskazał dokładnego adresu.,"Inowrocław, inowrocławski, kujawsko-pomorskie",52.7935,18.26298,10/11,500 zł,pełna własność,balkon,Zapytaj,2023-04-06,1980,blok,tak,brak informacji,brak informacji,wielka płyta,wtórny
1,166 400 zł,32 m²,Mieszkanie na osiedlu Mniszek,2,do zamieszkania,Nieruchomość znajduje się w zaznaczonym obszarze mapy. Niestety ogłoszeniodawca nie wskazał dokładnego adresu.,"Mniszek, Grudziądz, Grudziądz",53.43291,18.72522,parter/4,450 zł,pełna własność,Zapytaj,Zapytaj,brak informacji,brak informacji,blok,nie,telewizja kablowa,"domofon / wideofon, rolety antywłamaniowe",wielka płyta,wtórny
1,328 000 zł,62 m²,1 piętro 62m Nowy Rządz - gotowe do wprowadzenia!,3,do zamieszkania,Nieruchomość znajduje się w zaznaczonym obszarze mapy. Niestety ogłoszeniodawca nie wskazał dokładnego adresu.,"Rządz, Grudziądz, Grudziądz",53.44059,18.70674,1/4,800 zł,spółdzielcze wł. z KW,balkon,Zapytaj,2023-04-28,brak informacji,blok,nie,internet,brak informacji,wielka płyta,wtórny
1,255 000 zł,54 m²,Mieszkanie w Fordonie m4 z balkonem,3,Zapytaj,Nieruchomość znajduje się w zaznaczonym obszarze mapy. Niestety ogłoszeniodawca nie wskazał dokładnego adresu.,"Fordon, Bydgoszcz, Bydgoszcz",53.14183,18.16897,4/4,Zapytaj,Zapytaj,balkon,Zapytaj,brak informacji,brak informacji,blok,nie,brak informacji,brak informacji,brak informacji,wtórny
1,320 000 zł,38 m²,Okazja! mieszkanie z wyposażeniem osiedle Eskulapa,2,do zamieszkania,Nieruchomość znajduje się w zaznaczonym obszarze mapy. Niestety ogłoszeniodawca nie wskazał dokładnego adresu.,"Fordon, Bydgoszcz, Bydgoszcz",53.14183,18.16897,1/3,Zapytaj,Zapytaj,balkon,Zapytaj,brak informacji,brak informacji,apartamentowiec,tak,brak informacji,brak informacji,brak informacji,wtórny
1,269 000 zł,42 m²,"Mieszkanie, 42 m², Bydgoszcz",2,Zapytaj,Nieruchomość znajduje się w zaznaczonym obszarze mapy. Niestety ogłoszeniodawca nie wskazał dokładnego adresu.,"Wyżyny, Bydgoszcz, Bydgoszcz",53.10434,18.03699,Zapytaj,Zapytaj,Zapytaj,balkon,Zapytaj,brak informacji,brak informacji,blok,nie,brak informacji,brak informacji,brak informacji,wtórny
1,454 000 zł,57 m²,Przestronne mieszkanie Fordon,3,Zapytaj,Nieruchomość znajduje się w zaznaczonym obszarze mapy. Niestety ogłoszeniodawca nie wskazał dokładnego adresu.,"Fordon, Bydgoszcz, Bydgoszcz",53.14183,18.16897,parter/4,Zapytaj,pełna własność,balkon,Zapytaj,brak informacji,2012,blok,tak,brak informacji,brak informacji,brak informacji,wtórny
1,289 000 zł,29 m²,Pokój + Kuchnia / Jakon / Miejsce Postojowe!,1,do zamieszkania,Współrzędne dokładne,"Bydgoszcz, Fordon, Zenona Frydrychowicza",53.15313,18.11427,3/3,280 zł,pełna własność,balkon,garaż/miejsce parkingowe,brak informacji,2020,blok,nie,brak informacji,brak informacji,inne,wtórny
1,499 900 zł,54 m²,Wykończony apartament! Blok z 2022r! Centrum!,3,do zamieszkania,Współrzędne dokładne,"Centrum, Bydgoszcz, Bydgoszcz",53.123344,18.007987,1/3,450 zł,pełna własność,balkon,Zapytaj,brak informacji,2022,blok,tak,brak informacji,monitoring / ochrona,inne,wtórny
1,204 900 zł,38 m²,2 pokojowe mieszkanie Kruszwica Zagople,2,Zapytaj,Współrzędne dokładne,"ul. Kujawska , Kruszwica, inowrocławski",52.67491,18.33306,3/4,Zapytaj,Zapytaj,Zapytaj,Zapytaj,brak informacji,brak informacji,brak informacji,nie,brak informacji,brak informacji,brak informacji,wtórny
1,429 000 zł,53 m²,M4 - BEZ PROWIZJI - do wprowadzenia!,3,do zamieszkania,Współrzędne dokładne,"Bydgoszcz, Kapuściska, ul. Wojska Polskiego",53.108088,18.037191,3/4,580 zł,spółdzielcze wł. z KW,balkon,Zapytaj,brak informacji,1976,blok,nie,"telewizja kablowa, internet",domofon / wideofon,wielka płyta,wtórny
1,175 000 zł,31 m²,Kawalerka z potencjałem i dużym balkonem,1,do remontu,Współrzędne dokładne,"Bydgoszcz, Siernieczek, ul. Sochaczewska",53.1293,18.10459,1/3,Zapytaj,pełna własność,balkon,garaż/miejsce parkingowe,2023-05-15,1987,brak informacji,nie,brak informacji,brak informacji,brak informacji,wtórny
1,190 000 zł,"27,78 m²",Kawalerka Inwestycyjna w Bydgoszczy,1,do remontu,Nieruchomość znajduje się w zaznaczonym obszarze mapy. Niestety ogłoszeniodawca nie wskazał dokładnego adresu.,"Bocianowo, Bydgoszcz, Bydgoszcz",53.13498,18.00295,parter/2,Zapytaj,pełna własność,Zapytaj,Zapytaj,brak informacji,brak informacji,kamienica,nie,brak informacji,monitoring / ochrona,cegła,wtórny
1,435 000 zł,65 m²,"Mieszkanie, 65 m², Bydgoszcz",4,Zapytaj,Nieruchomość znajduje się w zaznaczonym obszarze mapy. Niestety ogłoszeniodawca nie wskazał dokładnego adresu.,"Fordon, Bydgoszcz, Bydgoszcz",53.14183,18.16897,4/4,700 zł,pełna własność,balkon,Zapytaj,brak informacji,1990,blok,nie,brak informacji,brak informacji,brak informacji,wtórny
1,280 000 zł,"50,9 m²",2 pokoje Nowodworska remont,2,do remontu,Współrzędne dokładne,"Bydgoszcz, Szwederowo, ul. Nowodworska 35",53.117746,17.997017,2/4,358 zł,pełna własność,balkon,Zapytaj,brak informacji,1981,blok,nie,brak informacji,domofon / wideofon,brak informacji,wtórny
1,349 000 zł,"48,09 m²",3 pokoje/Balkon/Bartodzieje,3,Zapytaj,Współrzędne dokładne,"Bielawy, Bydgoszcz, Bydgoszcz",53.12826,18.02504,parter/11,Zapytaj,Zapytaj,Zapytaj,Zapytaj,brak informacji,1980,blok,tak,brak informacji,brak informacji,wielka płyta,wtórny
1,589 000 zł,"55,38 m²",Piękne Mieszkanie Na Jarze !,3,do zamieszkania,Współrzędne dokładne,"Toruń, Wrzosy, ul. Łukasza Watzenrodego",53.04798,18.60413,2/2,666 zł,pełna własność,Zapytaj,garaż/miejsce parkingowe,2023-05-15,2016,brak informacji,nie,brak informacji,brak informacji,brak informacji,wtórny
1,639 000 zł,72 m²,Bydgoszcz Osowa Góra 72 m +16.7m Garaż 2014 r,3,do zamieszkania,Nieruchomość znajduje się w zaznaczonym obszarze mapy. Niestety ogłoszeniodawca nie wskazał dokładnego adresu.,"Osowa Góra, Bydgoszcz, Bydgoszcz",53.16361,17.89917,1/3,480 zł,pełna własność,balkon,garaż/miejsce parkingowe,brak informacji,2014,apartamentowiec,nie,"telewizja kablowa, internet","drzwi / okna antywłamaniowe, teren zamknięty, domofon / wideofon, monitoring / ochrona",cegła,wtórny
1,255 000 zł,"41,99 m²",Bydgoszcz Okole 41.99m2 Dla fana kamienic,2,Zapytaj,Współrzędne dokładne,"Bydgoszcz, Śródmieście, ul. Królowej Jadwigi",53.128821,17.992671,2,Zapytaj,pełna własność,Zapytaj,garaż/miejsce parkingowe,brak informacji,1900,kamienica,nie,brak informacji,brak informacji,brak informacji,wtórny
1,399 000 zł,59 m²,3 pok. mieszkanie 59m2-Blok z 2016r-2 PIĘTRO-Rąbin,3,do zamieszkania,Współrzędne dokładne,"Inowrocław, Rąbin, Arctowskigo",52.78139,18.23,2/3,475 zł,pełna własność,balkon,Zapytaj,2023-04-10,2016,blok,nie,"telewizja kablowa, internet, telefon","drzwi / okna antywłamaniowe, domofon / wideofon",cegła,wtórny
1,369 000 zł,56 m²,"ul. Mickiewicza, nowe budownictwo z garażem, 56m",3,Zapytaj,Nieruchomość znajduje się w zaznaczonym obszarze mapy. Niestety ogłoszeniodawca nie wskazał dokładnego adresu.,"Bydgoskie Przedmieście, Toruń, Toruń",53.0119,18.581239,3/4,550 zł,Zapytaj,balkon,garaż/miejsce parkingowe,brak informacji,1996,brak informacji,nie,brak informacji,brak informacji,cegła,wtórny
1,169 000 zł,"57,95 m²",3-pok. mieszkanie do własnej aranżacji w Lipnie,3,do remontu,Współrzędne dokładne,"Lipno, lipnowski, kujawsko-pomorskie",52.843939,19.181442,2/2,400 zł,pełna własność,Zapytaj,garaż/miejsce parkingowe,brak informacji,brak informacji,kamienica,nie,brak informacji,monitoring / ochrona,cegła,wtórny
1,195 900 zł,"44,51 m²",Rogoźno Zamek Świeżo po remoncie Piękne mieszkanie,2,do zamieszkania,Nieruchomość znajduje się w zaznaczonym obszarze mapy. Niestety ogłoszeniodawca nie wskazał dokładnego adresu.,"Rogóźno-Zamek, grudziądzki, kujawsko-pomorskie",53.52138,18.95987,1/3,Zapytaj,spółdzielcze wł. z KW,ogródek,garaż/miejsce parkingowe,brak informacji,brak informacji,blok,nie,brak informacji,domofon / wideofon,beton,wtórny
1,199 000 zł,"30,2 m²",Kawalerka z możliwością wydzielenia sypialni,1,do zamieszkania,Nieruchomość znajduje się w zaznaczonym obszarze mapy. Niestety ogłoszeniodawca nie wskazał dokładnego adresu.,"Centrum, Bydgoszcz, Bydgoszcz",53.123344,18.007987,2/2,Zapytaj,Zapytaj,Zapytaj,Zapytaj,brak informacji,1960,kamienica,nie,brak informacji,domofon / wideofon,cegła,wtórny
1,269 000 zł,37 m²,Słoneczne 2 pokojowe mieszkanie w Centrum,2,do zamieszkania,Nieruchomość znajduje się w zaznaczonym obszarze mapy. Niestety ogłoszeniodawca nie wskazał dokładnego adresu.,"Centrum, Bydgoszcz, Bydgoszcz",53.123344,18.007987,2/2,Zapytaj,pełna własność,Zapytaj,Zapytaj,brak informacji,1960,kamienica,nie,brak informacji,domofon / wideofon,cegła,wtórny
1,255 000 zł,42 m²,"Królowej Jadwigi 12! Ostatnie! 42 m2, 2 pokoje.",2,do remontu,Współrzędne dokładne,"Bydgoszcz, Okole, ul. Królowej Jadwigi 12",53.1342,17.99035,2/3,Zapytaj,pełna własność,Zapytaj,Zapytaj,brak informacji,brak informacji,kamienica,nie,"telewizja kablowa, internet, telefon","teren zamknięty, domofon / wideofon, monitoring / ochrona",cegła,wtórny
1,309 000 zł,47 m²,Mieszkanie 3 pokoje z wyposażeniem.,3,Zapytaj,Nieruchomość znajduje się w zaznaczonym obszarze mapy. Niestety ogłoszeniodawca nie wskazał dokładnego adresu.,"Kapuściska, Bydgoszcz, Bydgoszcz",53.10585,18.05483,6,Zapytaj,Zapytaj,balkon,Zapytaj,brak informacji,brak informacji,brak informacji,tak,brak informacji,brak informacji,brak informacji,wtórny
1,660 000 zł,69 m²,Apartament w River Tower z miejscem postoj. w hali,3,do wykończenia,Nieruchomość znajduje się w zaznaczonym obszarze mapy. Niestety ogłoszeniodawca nie wskazał dokładnego adresu.,"Centrum, Bydgoszcz, Bydgoszcz",53.1342,17.99035,5,620 zł,pełna własność,taras,garaż/miejsce parkingowe,brak informacji,2021,apartamentowiec,tak,internet,"system alarmowy, drzwi / okna antywłamaniowe, teren zamknięty, domofon / wideofon, monitoring / ochrona",beton,wtórny
1,299 000 zł,"37,06 m²",Dwa pokoje na Os. Eskulapa w Fordonie!,2,Zapytaj,Nieruchomość znajduje się w zaznaczonym obszarze mapy. Niestety ogłoszeniodawca nie wskazał dokładnego adresu.,"Eskulapa, Bydgoszcz, Bydgoszcz",53.15434,18.10932,1/3,Zapytaj,Zapytaj,balkon,garaż/miejsce parkingowe,brak informacji,2012,blok,tak,brak informacji,system alarmowy,brak informacji,wtórny
1,220 000 zł,"51,5 m²",Mieszkanie 1 piętro zadbana kaniennica-Kruszwica,2,Zapytaj,Współrzędne dokładne,"ul. Powstańców Wielkopolskich , Kruszwica, inowrocławski",52.67769,18.32121,1/1,Zapytaj,pełna własność,Zapytaj,Zapytaj,brak informacji,brak informacji,brak informacji,nie,brak informacji,brak informacji,brak informacji,wtórny
1,255 000 zł,"25,64 m²",Gotowa kawalerka z ogródkiem,1,do zamieszkania,Nieruchomość znajduje się w zaznaczonym obszarze mapy. Niestety ogłoszeniodawca nie wskazał dokładnego adresu.,"Niemcz, bydgoski, kujawsko-pomorskie",53.18368,18.03597,parter/2,260 zł,Zapytaj,ogródek,garaż/miejsce parkingowe,brak informacji,2021,brak informacji,tak,brak informacji,system alarmowy,silikat,wtórny
1,260 000 zł,45 m²,Miszkanie Łabiszyn Blisko Centrum!,2,do zamieszkania,Współrzędne dokładne,"ul. Powstańców Wielkopolskich 23, Łabiszyn, żniński",52.95383,17.913544,3/4,800 zł,pełna własność,balkon,Zapytaj,brak informacji,brak informacji,blok,nie,internet,domofon / wideofon,beton,wtórny
1,209 000 zł,35 m²,"Mieszkanie, 35 m², Bydgoszcz",2,Zapytaj,Nieruchomość znajduje się w zaznaczonym obszarze mapy. Niestety ogłoszeniodawca nie wskazał dokładnego adresu.,"Kapuściska, Bydgoszcz, Bydgoszcz",53.10585,18.05483,Zapytaj,Zapytaj,Zapytaj,Zapytaj,Zapytaj,brak informacji,brak informacji,blok,nie,brak informacji,brak informacji,brak informacji,wtórny
1,210 000 zł,"46,68 m²","Mieszkanie 2pokojowe 46,7m2, I piętro, os.Michelin",2,do zamieszkania,Nieruchomość znajduje się w zaznaczonym obszarze mapy. Niestety ogłoszeniodawca nie wskazał dokładnego adresu.,"Michelin, Włocławek, Włocławek",52.617928,19.027311,1,659 zł,pełna własność,Zapytaj,garaż/miejsce parkingowe,brak informacji,brak informacji,blok,nie,"telewizja kablowa, internet",domofon / wideofon,inne,wtórny
1,259 000 zł,"40,9 m²",2 pokoje w rewitalizowanej kamienicy BEZPOŚREDNIO,2,do zamieszkania,Współrzędne dokładne,"Bydgoszcz, Śródmieście, ul. Gdańska",53.132005,18.009602,parter/3,Zapytaj,pełna własność,Zapytaj,Zapytaj,brak informacji,1897,kamienica,nie,"telewizja kablowa, internet, telefon",domofon / wideofon,cegła,wtórny
1,450 000 zł,"94,27 m²",Tylko tu widok na Brde drugie piętro Podwórko,3,Zapytaj,Współrzędne dokładne,"Okole, Bydgoszcz, Bydgoszcz",53.130593,17.988003,2/3,600 zł,pełna własność,balkon,Zapytaj,brak informacji,1900,kamienica,nie,"internet, telefon",system alarmowy,brak informacji,wtórny
1,249 000 zł,42 m²,"Hit !! 10 piętro Loggia, Wyżyny ul.Ku Wiatrakom 11",2,do remontu,Współrzędne dokładne,"Bydgoszcz, Wyżyny, ul. Ku Wiatrakom",53.110108,18.042271,10/10,630 zł,pełna własność,balkon,Zapytaj,brak informacji,1975,brak informacji,tak,"internet, telefon",brak informacji,wielka płyta,wtórny
1,342 000 zł,47 m²,3 pokoje po remoncie +umeblowanie i Agd w cenie,3,Zapytaj,Nieruchomość znajduje się w zaznaczonym obszarze mapy. Niestety ogłoszeniodawca nie wskazał dokładnego adresu.,"Kapuściska, Bydgoszcz, Bydgoszcz",53.10585,18.05483,3/4,650 zł,pełna własność,balkon,Zapytaj,brak informacji,1975,blok,nie,"telewizja kablowa, internet, telefon",brak informacji,brak informacji,wtórny
1,485 000 zł,"50,16 m²","M-4 w Fordonie, Zamieszkaj Od Zaraz!",3,Zapytaj,Współrzędne dokładne,"Bajka, Bydgoszcz, Bydgoszcz",53.14871,18.15617,5/7,Zapytaj,Zapytaj,balkon,Zapytaj,brak informacji,2022,blok,tak,brak informacji,domofon / wideofon,cegła,wtórny
1,469 000 zł,65 m²,Pierwsze mieszkanie dla młodych,3,Zapytaj,Nieruchomość znajduje się w zaznaczonym obszarze mapy. Niestety ogłoszeniodawca nie wskazał dokładnego adresu.,"Osielsko, bydgoski, kujawsko-pomorskie",53.18813,18.07336,Zapytaj,Zapytaj,Zapytaj,"balkon, taras",Zapytaj,brak informacji,2022,brak informacji,nie,brak informacji,brak informacji,cegła,wtórny
1,199 000 zł,30 m²,Klucze w Biurze ! Bez balkonu Blok 1 piętro,2,Zapytaj,Współrzędne dokładne,"Osiedle Leśne, Bydgoszcz, Bydgoszcz",53.142192,18.008989,1/4,400 zł,pełna własność,Zapytaj,Zapytaj,brak informacji,1965,blok,nie,"telewizja kablowa, internet, telefon",brak informacji,brak informacji,wtórny
1,339 000 zł,"49,1 m²",Dwa pokoje na Bartodziejach!,2,Zapytaj,Nieruchomość znajduje się w zaznaczonym obszarze mapy. Niestety ogłoszeniodawca nie wskazał dokładnego adresu.,"Bartodzieje, Bydgoszcz, Bydgoszcz",53.12639,18.04929,9/11,550 zł,Zapytaj,balkon,Zapytaj,brak informacji,1980,brak informacji,tak,brak informacji,brak informacji,brak informacji,wtórny
1,449 000 zł,50 m²,"Trzy pokoje ""do wejścia"" z ogródkiem i garażem!",3,do zamieszkania,Współrzędne dokładne,"Czyżkówko, Bydgoszcz, Bydgoszcz",53.144262,17.95604,1/1,Zapytaj,pełna własność,ogródek,garaż/miejsce parkingowe,brak informacji,2015,brak informacji,nie,brak informacji,monitoring / ochrona,cegła,wtórny
1,188 000 zł,"26,96 m²",Kawalerka w centrum miasta.,1,do remontu,Nieruchomość znajduje się w zaznaczonym obszarze mapy. Niestety ogłoszeniodawca nie wskazał dokładnego adresu.,"Centrum, Bydgoszcz, Bydgoszcz",53.12348,18.00844,2/2,Zapytaj,Zapytaj,Zapytaj,Zapytaj,brak informacji,brak informacji,kamienica,nie,brak informacji,brak informacji,cegła,wtórny
1,499 000 zł,87 m²,"Gotowiec inwestycyjny, 4 pokoje,pełne wyposażenie!",4,Zapytaj,Współrzędne dokładne,"Śródmieście, Bydgoszcz, Bydgoszcz",53.13073,17.99812,2/2,450 zł,Zapytaj,Zapytaj,Zapytaj,brak informacji,1900,blok,nie,brak informacji,brak informacji,cegła,wtórny
1,419 000 zł,"61,84 m²",Gorąca oferta! Piękne mieszkanie w Koronowie!,3,Zapytaj,Nieruchomość znajduje się w zaznaczonym obszarze mapy. Niestety ogłoszeniodawca nie wskazał dokładnego adresu.,"Koronowo, bydgoski, kujawsko-pomorskie",53.31296,17.94148,2/3,500 zł,Zapytaj,taras,Zapytaj,brak informacji,2007,brak informacji,nie,brak informacji,teren zamknięty,cegła,wtórny
1,379 000 zł,39 m²,"W pełni wyposażone, dla wymagającego klienta!",2,do zamieszkania,Współrzędne dokładne,"Czyżkówko, Bydgoszcz, Bydgoszcz",53.1407,17.94919,Zapytaj,400 zł,pełna własność,balkon,garaż/miejsce parkingowe,brak informacji,2014,brak informacji,tak,brak informacji,monitoring / ochrona,cegła,wtórny
1,469 000 zł,93 m²,Przestronne 4 pokoje w dzielnicy muzycznej!,4,do remontu,Współrzędne dokładne,"Centrum, Bydgoszcz, Bydgoszcz",53.130925,18.01311,3/4,950 zł,pełna własność,balkon,Zapytaj,brak informacji,1910,kamienica,nie,brak informacji,brak informacji,cegła,wtórny
1,1 089 000 zł,86 m²,Unikalny apartament w wyjątkowej inwestycji,4,Zapytaj,Współrzędne dokładne,"Centrum, Bydgoszcz, Bydgoszcz",53.124042,17.96877,parter/2,833 zł,pełna własność,"balkon, ogródek, taras",garaż/miejsce parkingowe,brak informacji,2019,apartamentowiec,tak,brak informacji,domofon / wideofon,cegła,wtórny
1,285 000 zł,"32,67 m²",Nowe mieszkanie w Fordonie - w gotowym budynku!,2,Zapytaj,Współrzędne dokładne,"Bajka, Bydgoszcz, Bydgoszcz",53.14871,18.15617,2/7,Zapytaj,pełna własność,balkon,garaż/miejsce parkingowe,brak informacji,2022,blok,tak,brak informacji,domofon / wideofon,cegła,wtórny
1,949 000 zł,124 m²,"Apartament w Centrum, 2 miejsca parkingowe",4,do zamieszkania,Nieruchomość znajduje się w zaznaczonym obszarze mapy. Niestety ogłoszeniodawca nie wskazał dokładnego adresu.,"Centrum, Bydgoszcz, Bydgoszcz",53.12348,18.00844,2/3,793 zł,pełna własność,balkon,garaż/miejsce parkingowe,brak informacji,1920,kamienica,nie,brak informacji,brak informacji,cegła,wtórny
1,315 350 zł,"37,1 m²",2 pokoje 37 m2 na Osiedlu Leśnym - widok na las!,2,Zapytaj,Nieruchomość znajduje się w zaznaczonym obszarze mapy. Niestety ogłoszeniodawca nie wskazał dokładnego adresu.,"Osiedle Leśne, Bydgoszcz, Bydgoszcz",53.13905,18.02752,3/6,Zapytaj,Zapytaj,balkon,Zapytaj,brak informacji,2023,brak informacji,tak,brak informacji,brak informacji,brak informacji,wtórny
1,465 000 zł,73 m²,"M-5 na Szwederowie, do wprowadzenia",4,Zapytaj,Współrzędne dokładne,"Bydgoszcz, Bydgoszcz, kujawsko-pomorskie",53.113446,17.99306,6/11,700 zł,spółdzielcze własnościowe,balkon,Zapytaj,brak informacji,brak informacji,brak informacji,tak,brak informacji,brak informacji,wielka płyta,wtórny
1,267 000 zł,"39,4 m²",M2 Ul. Gdańska 154 - wolne od zaraz,1,Zapytaj,Współrzędne dokładne,"Bydgoszcz, Osiedle Leśne, ul. Gdańska",53.149472,18.027026,2/2,200 zł,pełna własność,Zapytaj,Zapytaj,brak informacji,brak informacji,kamienica,nie,brak informacji,domofon / wideofon,cegła,wtórny
1,299 000 zł,"51,34 m²",Dwupokojowe mieszkanie na 1 piętrze ul.Bełzy,2,do remontu,Współrzędne dokładne,"Bydgoszcz, Wyżyny, ul. Władysława Bełzy",53.109379,18.042855,1/8,400 zł,spółdzielcze własnościowe,Zapytaj,Zapytaj,brak informacji,brak informacji,blok,tak,brak informacji,brak informacji,wielka płyta,wtórny
1,129 000 zł,"51,5 m²",Mieszkanie 2 Pokojowe Cena 129 Tys,2,do zamieszkania,Współrzędne dokładne,"Kruszwica, inowrocławski, kujawsko-pomorskie",52.67624,18.31731,parter/1,14 000 zł,pełna własność,Zapytaj,garaż/miejsce parkingowe,brak informacji,1980,blok,nie,internet,brak informacji,brak informacji,wtórny
1,399 000 zł,"47,9 m²",Centrum. W pobliżu Opery.,2,do zamieszkania,Współrzędne dokładne,"Centrum, Bydgoszcz, Bydgoszcz",53.126572,18.00016,1/3,250 zł,Zapytaj,Zapytaj,Zapytaj,brak informacji,1900,kamienica,nie,"telewizja kablowa, internet",brak informacji,brak informacji,wtórny
1,380 000 zł,"60,69 m²",Trzypokojowe mieszkanie w Fordonie,3,do zamieszkania,Współrzędne dokładne,"Tatrzańskie, Bydgoszcz, Bydgoszcz",53.162208,18.15894,4/4,880 zł,Zapytaj,balkon,Zapytaj,brak informacji,1989,blok,nie,brak informacji,brak informacji,brak informacji,wtórny
1,373 800 zł,42 m²,"Bydgoskie Przedmieście, 3 mieszkania na sprzedaż",2,do zamieszkania,Nieruchomość znajduje się w zaznaczonym obszarze mapy. Niestety ogłoszeniodawca nie wskazał dokładnego adresu.,"Bydgoskie Przedmieście, Toruń, Toruń",53.00947,18.57054,Zapytaj,Zapytaj,pełna własność,Zapytaj,Zapytaj,brak informacji,1908,kamienica,nie,internet,brak informacji,cegła,wtórny
1,359 000 zł,"60,43 m²","M-4 po remoncie na 3-piętrze 60,43m2 w Fordonie.",3,Zapytaj,Nieruchomość znajduje się w zaznaczonym obszarze mapy. Niestety ogłoszeniodawca nie wskazał dokładnego adresu.,"Fordon, Bydgoszcz, Bydgoszcz",53.14183,18.16897,3/4,540 zł,spółdzielcze własnościowe,balkon,garaż/miejsce parkingowe,brak informacji,1986,blok,nie,telefon,brak informacji,wielka płyta,wtórny
1,369 000 zł,"62,36 m²","M-5 na 3-piętrze w bloku 62,36m2 na Kapuściskach.",4,Zapytaj,Nieruchomość znajduje się w zaznaczonym obszarze mapy. Niestety ogłoszeniodawca nie wskazał dokładnego adresu.,"Kapuściska, Bydgoszcz, Bydgoszcz",53.10585,18.05483,3/4,688 zł,pełna własność,balkon,garaż/miejsce parkingowe,brak informacji,1982,blok,nie,"telewizja kablowa, telefon",brak informacji,wielka płyta,wtórny
1,350 000 zł,50 m²,Ładne mieszkanie w Fordonie,2,Zapytaj,Nieruchomość znajduje się w zaznaczonym obszarze mapy. Niestety ogłoszeniodawca nie wskazał dokładnego adresu.,"Fordon, Bydgoszcz, Bydgoszcz",53.14183,18.16897,4,450 zł,Zapytaj,Zapytaj,Zapytaj,2023-05-11,1996,blok,nie,brak informacji,brak informacji,cegła,wtórny
1,389 000 zł,"69,32 m²",Nowa Cena mieszkanie w apartamentowcu os.Zazamcze,3,Zapytaj,Nieruchomość znajduje się w zaznaczonym obszarze mapy. Niestety ogłoszeniodawca nie wskazał dokładnego adresu.,"Zazamcze, Włocławek, Włocławek",52.66872,19.03701,3/3,500 zł,pełna własność,balkon,Zapytaj,brak informacji,brak informacji,apartamentowiec,nie,brak informacji,brak informacji,brak informacji,wtórny
1,315 000 zł,"29,85 m²",Osiedle Strefa Czasu | Szosa Lubicka | 1 Pokój,1,Zapytaj,Nieruchomość znajduje się w zaznaczonym obszarze mapy. Niestety ogłoszeniodawca nie wskazał dokładnego adresu.,"Jakubskie Przedmieście, Toruń, Toruń",53.02009,18.63124,parter/4,274 zł,pełna własność,Zapytaj,Zapytaj,brak informacji,1,blok,tak,brak informacji,monitoring / ochrona,brak informacji,wtórny
