option,prize,surface,offer name,rooms ,standard,localization_info,localization_name,latitude,longitude,floor_number,rental_cost,form_of_property,extras,garage,availability,year_of_construction,type_of_building,elevator,media,security,building_material,market
1,469 000 zł,"53,19 m²",Halo.Zarezerwuj mnie za 469 tys zł. 20min od Rynku,3,do zamieszkania,Nieruchomość znajduje się w zaznaczonym obszarze mapy. Niestety ogłoszeniodawca nie wskazał dokładnego adresu.,"Kraków, Kraków, małopolskie",50.07567,19.93084,parter/2,450 zł,pełna własność,ogródek,Zapytaj,brak informacji,1965,blok,nie,brak informacji,domofon / wideofon,cegła,wtórny
1,528 000 zł,45 m²,"Piaski Nowe.Łużycka,2pok w nowoczesnym Klimacie.",2,do zamieszkania,Współrzędne dokładne,"Kraków, Piaski Wielkie, ul. Łużycka",50.0131,19.968696,4/10,480 zł,pełna własność,balkon,Zapytaj,brak informacji,1986,blok,nie,brak informacji,"drzwi / okna antywłamaniowe, teren zamknięty, domofon / wideofon",brak informacji,wtórny
1,570 000 zł,53 m²,"Prądnik Biały, 3 pokoje + balkon",3,do remontu,Współrzędne dokładne,"Kraków, Prądnik Biały, ul. Białoprądnicka",50.096196,19.936057,4/4,Zapytaj,pełna własność,balkon,Zapytaj,brak informacji,2000,blok,nie,"telewizja kablowa, internet",domofon / wideofon,brak informacji,wtórny
1,999 000 zł,"80,4 m²",Podgórze - Wielicka - 4 Pokoje,4,Zapytaj,Współrzędne dokładne,"Kraków, Bieżanów-Prokocim, ul. Wielicka",50.036854,19.96723,2/4,Zapytaj,pełna własność,Zapytaj,garaż/miejsce parkingowe,brak informacji,2015,blok,tak,brak informacji,brak informacji,brak informacji,wtórny
1,638 000 zł,"70,1 m²",Duże mieszkanie w zielonej okolicy - Lipska,3,do remontu,Współrzędne dokładne,"Kraków, Płaszów, ul. Lipska",50.04217,19.99981,parter/4,400 zł,pełna własność,Zapytaj,Zapytaj,2023-02-23,brak informacji,brak informacji,nie,brak informacji,brak informacji,brak informacji,wtórny
1,970 000 zł,67 m²,"Apartament z 2020 roku, Prądnik Czerwony ",2,do zamieszkania,Współrzędne dokładne,"Kraków, Prądnik Czerwony, ul. Dobrego Pasterza",50.088624,19.978476,2/6,420 zł,pełna własność,balkon,Zapytaj,2023-05-13,2019,apartamentowiec,nie,"internet, telefon",monitoring / ochrona,brak informacji,wtórny
1,320 000 zł,"49,81 m²",2-Pok Mieszkanie Na Sprzedaż Ul. Glinik Kraków,2,do remontu,Współrzędne dokładne,"Kraków, Wzgórza Krzesławickie, ul. Glinik",50.095642,20.129914,parter/1,620 zł,Zapytaj,Zapytaj,Zapytaj,brak informacji,1970,brak informacji,nie,brak informacji,brak informacji,brak informacji,wtórny
1,830 000 zł,63 m²,"Mieszkanie Zakopane - rejon Pardałówki, garaż.",3,do zamieszkania,Nieruchomość znajduje się w zaznaczonym obszarze mapy. Niestety ogłoszeniodawca nie wskazał dokładnego adresu.,"Zakopane, tatrzański, małopolskie",49.29631,19.94747,2/2,920 zł,spółdzielcze własnościowe,taras,garaż/miejsce parkingowe,brak informacji,1992,blok,nie,brak informacji,brak informacji,brak informacji,wtórny
1,499 000 zł,"46,8 m²",3 pokoje osiedle piastów do wejscia lub najmu,3,do zamieszkania,Współrzędne dokładne,"Kraków, Nowa Huta, os. Piastów",50.097404,20.01851,2/4,400 zł,spółdzielcze wł. z KW,balkon,Zapytaj,brak informacji,brak informacji,blok,nie,brak informacji,brak informacji,brak informacji,wtórny
1,687 500 zł,"55,26 m²",Czyżyny - 2 Pokoje - Park Lotników,2,Zapytaj,Współrzędne dokładne,"Czyżyny, Kraków, Kraków",50.072526,20.01244,3/3,500 zł,Zapytaj,balkon,garaż/miejsce parkingowe,brak informacji,2016,apartamentowiec,nie,brak informacji,monitoring / ochrona,brak informacji,wtórny
1,1 155 000 zł,"76,22 m²",Po remoncie | Piękne do wejścia | ul. Kościuszki,3,do zamieszkania,Współrzędne dokładne,"Kraków, Salwator, ul. Bolesława Komorowskiego",50.053792,19.920534,2/4,Zapytaj,pełna własność,balkon,Zapytaj,brak informacji,brak informacji,kamienica,nie,brak informacji,brak informacji,cegła,wtórny
1,863 000 zł,54 m²,✅ BEZPOŚREDNIO | Po remoncie | Salwator | Kred. 2%,3,do zamieszkania,Współrzędne dokładne,"Kraków, Salwator, ul. Juliana Fałata",50.056849,19.915286,parter/4,Zapytaj,pełna własność,Zapytaj,Zapytaj,brak informacji,brak informacji,blok,nie,brak informacji,brak informacji,cegła,wtórny
1,749 000 zł,"51,5 m²",✅ Po remoncie | 52m2 | 3pok | Racławicka | Kred 2%,3,do zamieszkania,Współrzędne dokładne,"Kraków, Stara Krowodrza, ul. Racławicka",50.077002,19.921244,7/8,Zapytaj,pełna własność,balkon,garaż/miejsce parkingowe,brak informacji,brak informacji,blok,tak,brak informacji,brak informacji,beton,wtórny
1,800 000 zł,"86,65 m²","Okazja! 5 pokoi, 2 łazienki, piwnica, balkon",5,do remontu,Współrzędne dokładne,"Kraków, Podgórze, ul. Walerego Sławka",50.02302,19.959454,5/10,650 zł,pełna własność,balkon,Zapytaj,2023-03-08,1980,blok,tak,brak informacji,monitoring / ochrona,brak informacji,wtórny
1,299 000 zł,68 m²,"Mieszkanie 68m2 w systemie TBS, Kraków-Swoszowice",3,do zamieszkania,Współrzędne dokładne,"Kraków, Swoszowice, ul. Borowinowa",49.997747,19.938148,parter/3,Zapytaj,Zapytaj,balkon,garaż/miejsce parkingowe,brak informacji,2002,blok,nie,internet,"drzwi / okna antywłamaniowe, domofon / wideofon",brak informacji,wtórny
1,165 000 zł,32 m²,Sprzedam mieszkanie 32m Nowy Sącz,1,do remontu,Współrzędne dokładne,"ul. Lwowska , Nowy Sącz, Nowy Sącz",49.624051,20.726056,1,160 zł,pełna własność,balkon,Zapytaj,brak informacji,brak informacji,kamienica,nie,brak informacji,brak informacji,cegła,wtórny
1,599 000 zł,80 m²,"80m2, 3pok. + poddasze, 20min do Ronda Matecznego",3,do zamieszkania,Nieruchomość znajduje się w zaznaczonym obszarze mapy. Niestety ogłoszeniodawca nie wskazał dokładnego adresu.,"Czarnochowice, wielicki, małopolskie",50.00622,20.06949,2/2,550 zł,pełna własność,"ogródek, taras",garaż/miejsce parkingowe,brak informacji,2021,blok,nie,internet,"teren zamknięty, domofon / wideofon",brak informacji,wtórny
1,600 000 zł,"91,54 m²","Mieszkanie, 91,54 m², Libiąż",3,do zamieszkania,Współrzędne dokładne,"Libiąż, chrzanowski, małopolskie",50.101813,19.31772,3/3,"753,81 zł",pełna własność,"balkon, taras",garaż/miejsce parkingowe,brak informacji,2007,blok,nie,"telewizja kablowa, internet, telefon",monitoring / ochrona,brak informacji,wtórny
1,750 000 zł,73 m²,Mieszkanie z widokiem na Plac Centralny,3,do zamieszkania,Nieruchomość znajduje się w zaznaczonym obszarze mapy. Niestety ogłoszeniodawca nie wskazał dokładnego adresu.,"Kraków, Kraków, małopolskie",50.072645,20.03466,3/5,900 zł,pełna własność,Zapytaj,Zapytaj,brak informacji,1950,blok,tak,brak informacji,domofon / wideofon,cegła,wtórny
1,750 000 zł,106 m²,"Wyposażone, dwupoziomowe mieszkanie przy parku",4,do zamieszkania,Współrzędne dokładne,"Kraków, Bieżanów-Prokocim, ul. Podłęska",50.00917,20.013007,4/4,570 zł,pełna własność,balkon,garaż/miejsce parkingowe,2023-10-31,2008,blok,nie,"telewizja kablowa, internet, telefon",monitoring / ochrona,brak informacji,wtórny
1,260 000 zł,18 m²,Kawalerka z balkonem bez Pcc,1,Zapytaj,Współrzędne dokładne,"Bronowice Wielkie, Kraków, Kraków",50.099,19.8739,1/2,Zapytaj,udział,balkon,Zapytaj,2023-02-28,brak informacji,apartamentowiec,nie,brak informacji,"teren zamknięty, domofon / wideofon",brak informacji,wtórny
1,499 000 zł,"61,86 m²",Bez Prowizji,4,do wykończenia,Współrzędne dokładne,"ul. Długa , Wieliczka, wielicki",49.998949,20.055404,1/4,Zapytaj,pełna własność,balkon,Zapytaj,2023-01-18,2019,apartamentowiec,tak,"telewizja kablowa, internet","drzwi / okna antywłamaniowe, teren zamknięty, domofon / wideofon, monitoring / ochrona",inne,wtórny
1,339 000 zł,"31,09 m²",Mieszkanie z 2 miejscami parkingowymi,2,do wykończenia,Współrzędne dokładne,"Wieliczka, wielicki, małopolskie",49.987062,20.064797,4/4,Zapytaj,pełna własność,balkon,garaż/miejsce parkingowe,brak informacji,2022,blok,tak,brak informacji,"drzwi / okna antywłamaniowe, teren zamknięty, domofon / wideofon, monitoring / ochrona",inne,wtórny
1,399 000 zł,"47,1 m²",Stare Podgórze | Ul. Lwowska | 47m2 Pod Inwestycje,1,Zapytaj,Współrzędne dokładne,"Kraków, Stare Podgórze, ul. Lwowska",50.046478,19.95557,Zapytaj,230 zł,pełna własność,Zapytaj,Zapytaj,brak informacji,1960,kamienica,tak,telefon,brak informacji,cegła,wtórny
1,880 000 zł,"73,5 m²","Przestronne / 73,5 m2 / blisko Rynku z windą",2,Zapytaj,Współrzędne dokładne,"Kraków, Stare Miasto, Aleja Juliusza Słowackiego",50.072311,19.93094,5/5,500 zł,pełna własność,Zapytaj,Zapytaj,brak informacji,1936,kamienica,tak,brak informacji,brak informacji,cegła,wtórny
1,650 000 zł,"37,71 m²",Grzegórzki-Dąbie - 2 Pokojowe Mieszkanie,2,do zamieszkania,Współrzędne dokładne,"Kraków, Dąbie, ul. Bajeczna",50.058826,19.97768,1/4,297 zł,pełna własność,Zapytaj,Zapytaj,brak informacji,1960,blok,nie,"telewizja kablowa, internet, telefon",monitoring / ochrona,cegła,wtórny
1,1 100 000 zł,"79,79 m²",Nowoczesne 2-poziomowe Zielonki,4,Zapytaj,Współrzędne dokładne,"ul. Lawendowa , Zielonki, krakowski",50.102991,19.91978,1/1,370 zł,pełna własność,balkon,garaż/miejsce parkingowe,brak informacji,2013,brak informacji,nie,telefon,teren zamknięty,brak informacji,wtórny
1,649 000 zł,63 m²,62m2 + klimatyczny ogród- zamieszkaj w Wieliczce,3,do zamieszkania,Współrzędne dokładne,"ul. Zbożowa , Wieliczka, wielicki",50.002209,20.04912,parter/1,120 zł,pełna własność,"ogródek, taras",garaż/miejsce parkingowe,brak informacji,2017,szeregowiec,nie,brak informacji,"teren zamknięty, domofon / wideofon",brak informacji,wtórny
1,594 000 zł,"31,31 m²","Kawalerka,Widok na Wawel ,Wisła,ENG",1,do zamieszkania,Współrzędne dokładne,"Kraków, Kazimierz, ul. Hieronima Wietora",50.046238,19.94125,5/5,300 zł,pełna własność,Zapytaj,garaż/miejsce parkingowe,2023-06-01,1930,kamienica,tak,"telefon, internet, telewizja kablowa","monitoring / ochrona, drzwi / okna antywłamaniowe, domofon / wideofon",cegła,wtórny
1,374 999 zł,42 m²,Mieszkanie z GWARANCJĄ !!!,3,do zamieszkania,Współrzędne dokładne,"Tarnów, Strusina, ul. Ignacego Mościckiego",50.015008,20.956517,2/3,400 zł,Zapytaj,"balkon, ogródek",Zapytaj,brak informacji,1987,blok,nie,"telewizja kablowa, internet, telefon","drzwi / okna antywłamaniowe, domofon / wideofon",cegła,wtórny
1,670 000 zł,50 m²,Sprzedam 3 pok. mieszkanie z ogródkiem Kraków 2022,3,do zamieszkania,Współrzędne dokładne,"Kraków, Prądnik Biały, ul. Zygmunta Glogera",50.101884,19.922228,parter/3,600 zł,pełna własność,"balkon, ogródek, taras",garaż/miejsce parkingowe,brak informacji,2022,blok,nie,"telewizja kablowa, internet",domofon / wideofon,cegła,wtórny
1,1 635 000 zł,"100,22 m²",3 pok. w kamienicy • St. Miasto • 100 m²,3,do zamieszkania,Współrzędne dokładne,"Kraków, Stare Miasto, ul. Jana Sobieskiego",50.068559,19.93099,parter/4,360 zł,pełna własność,balkon,Zapytaj,brak informacji,1910,kamienica,nie,brak informacji,monitoring / ochrona,cegła,wtórny
1,379 000 zł,62 m²,"Wolbrom, Wiejska, parter, 3 pokoje - bezpośrednio",3,do remontu,Współrzędne dokładne,"ul. Wiejska , Wolbrom, olkuski",50.386366,19.768949,parter/4,Zapytaj,spółdzielcze wł. z KW,balkon,Zapytaj,brak informacji,1987,blok,nie,internet,domofon / wideofon,wielka płyta,wtórny
1,1 148 000 zł,"68,5 m²",Mieszkanie 69m² Stare Miasto Prandoty 29 Aleja 3Po,3,do zamieszkania,Współrzędne dokładne,"Kraków, Stare Miasto, ul. bp. Jana Prandoty",50.079352,19.951595,4/6,450 zł,pełna własność,"balkon, taras",garaż/miejsce parkingowe,brak informacji,2022,apartamentowiec,tak,"telewizja kablowa, internet, telefon","drzwi / okna antywłamaniowe, teren zamknięty, domofon / wideofon, monitoring / ochrona",inne,wtórny
1,392 000 zł,"41,58 m²",Sprzedam mieszkanie 2 pokoje 42m duży balkon,2,do zamieszkania,Nieruchomość znajduje się w zaznaczonym obszarze mapy. Niestety ogłoszeniodawca nie wskazał dokładnego adresu.,"Skawina, krakowski, małopolskie",49.97582,19.82095,1/3,160 zł,pełna własność,balkon,Zapytaj,brak informacji,2007,blok,nie,brak informacji,domofon / wideofon,brak informacji,wtórny
1,179 400 zł,26 m²,Mieszkania 26-52 m2 | St. deweloperski | Piaskówka,2,do wykończenia,Współrzędne dokładne,"ul. Romana Brandstaettera , Tarnów, Tarnów",50.025875,20.972255,parter/4,10 zł,Zapytaj,Zapytaj,Zapytaj,brak informacji,brak informacji,blok,nie,"telewizja kablowa, internet, telefon",domofon / wideofon,pustak,wtórny
1,1 140 000 zł,130 m²,Słoneczny apartament 3 pokoje DUŻY TARAS Płaszów,3,do zamieszkania,Współrzędne dokładne,"Kraków, Płaszów, ul. Wiktora Heltmana",50.028767,19.968957,3/4,490 zł,pełna własność,"balkon, taras",garaż/miejsce parkingowe,brak informacji,2007,blok,nie,"telewizja kablowa, internet, telefon",domofon / wideofon,cegła,wtórny
1,1 050 000 zł,48 m²,2 zarabiające apartamenty w pakiecie na Kazimierzu,2,do zamieszkania,Współrzędne dokładne,"Kraków, Kazimierz, ul. Starowiślna",50.055112,19.946742,4/4,400 zł,pełna własność,balkon,Zapytaj,brak informacji,2021,kamienica,nie,"telewizja kablowa, internet, telefon","drzwi / okna antywłamaniowe, domofon / wideofon",cegła,wtórny
1,645 000 zł,"43,5 m²",SŁONECZNE 2-pokojowe 43.5m2 Stare Miasto ŁOBZOWSKA,2,do zamieszkania,Nieruchomość znajduje się w zaznaczonym obszarze mapy. Niestety ogłoszeniodawca nie wskazał dokładnego adresu.,"Stare Miasto, Kraków, Kraków",50.06914,19.932958,1/4,280 zł,pełna własność,Zapytaj,Zapytaj,brak informacji,1930,kamienica,nie,"telewizja kablowa, internet",domofon / wideofon,cegła,wtórny
1,595 000 zł,"59,5 m²",Mieszkanie na sprzedaż 3 pokoje 59 m2 z ogródkiem!,3,do zamieszkania,Współrzędne dokładne,"ul. Różana , Wieliczka, wielicki",49.997574,20.028174,parter/2,211 zł,pełna własność,ogródek,garaż/miejsce parkingowe,2023-06-01,2017,brak informacji,nie,"telewizja kablowa, internet",brak informacji,pustak,wtórny
1,499 900 zł,"61,01 m²","Mieszkanie 61 m2, Kliny-Zacisze. Kredyt 2%",2,do remontu,Współrzędne dokładne,"Kliny-Zacisze, Kraków, Kraków",50.00084,19.89435,parter/4,320 zł,pełna własność,balkon,Zapytaj,brak informacji,2002,brak informacji,tak,telewizja kablowa,"teren zamknięty, domofon / wideofon",cegła,wtórny
1,1 150 000 EUR,228 m²,Penthouse w odrestaurowanej kamienicy - taras 77m2,5,do zamieszkania,Współrzędne dokładne,"Kraków, Stare Miasto, ul. marsz. Józefa Piłsudskiego",50.05949,19.925896,4/5,220 EUR,pełna własność,"balkon, taras",Zapytaj,brak informacji,1906,kamienica,tak,brak informacji,"system alarmowy, monitoring / ochrona",cegła,wtórny
1,339 000 zł,30 m²,"Mieszkanie, 30 m², Kraków",2,Zapytaj,Współrzędne dokładne,"Łagiewniki, Kraków, Kraków",50.014258,19.91733,1/2,515 zł,pełna własność,balkon,Zapytaj,brak informacji,1950,blok,nie,brak informacji,brak informacji,cegła,wtórny
1,555 000 zł,49 m²,Sprzedam mieszkanie - Kraków-Mydlniki - 49 m2,2,do zamieszkania,Nieruchomość znajduje się w zaznaczonym obszarze mapy. Niestety ogłoszeniodawca nie wskazał dokładnego adresu.,"Mydlniki, Kraków, Kraków",50.08529,19.84584,3/3,300 zł,pełna własność,balkon,garaż/miejsce parkingowe,brak informacji,2004,blok,nie,"telewizja kablowa, internet, telefon","teren zamknięty, domofon / wideofon, monitoring / ochrona",cegła,wtórny
1,409 000 zł,48 m²,Piękne Po Generalnym Remoncie 1 Pietro Z Balkonem,3,do zamieszkania,Nieruchomość znajduje się w zaznaczonym obszarze mapy. Niestety ogłoszeniodawca nie wskazał dokładnego adresu.,"Tarnów, Tarnów, małopolskie",50.04567,20.99642,1/4,498 zł,spółdzielcze wł. z KW,balkon,Zapytaj,brak informacji,brak informacji,blok,nie,"telewizja kablowa, internet, telefon","drzwi / okna antywłamaniowe, domofon / wideofon",brak informacji,wtórny
1,510 000 zł,"51,2 m²","ul. BOJKI, Kurdwanów, 2 pokoje",2,do zamieszkania,Współrzędne dokładne,"Kraków, Kurdwanów, ul. Jakuba Bojki",50.006103,19.963683,4/4,520 zł,spółdzielcze własnościowe,balkon,Zapytaj,brak informacji,1985,blok,nie,internet,domofon / wideofon,wielka płyta,wtórny
1,620 000 zł,"38,5 m²",Przytulne dwupokojowe mieszkanie blisko Centrum,2,do zamieszkania,Nieruchomość znajduje się w zaznaczonym obszarze mapy. Niestety ogłoszeniodawca nie wskazał dokładnego adresu.,"Krowodrza, Kraków, Kraków",50.077788,19.924889,parter/10,600 zł,pełna własność,balkon,garaż/miejsce parkingowe,brak informacji,2019,blok,tak,"telewizja kablowa, internet, telefon",monitoring / ochrona,pustak,wtórny
1,950 000 zł,"44,7 m²",Apartament mieszkanie Zakopane z widokiem na Góry,2,Zapytaj,Współrzędne dokładne,"Zakopane, Centrum, ul. Pod Lipkami",49.291939,19.946988,1,Zapytaj,Zapytaj,balkon,Zapytaj,brak informacji,brak informacji,apartamentowiec,nie,brak informacji,brak informacji,brak informacji,wtórny
1,863 000 zł,54 m²,"3 pokoje na Salwatorze |""kredyt 2%"" |Bez prowizji",3,do zamieszkania,Współrzędne dokładne,"Kraków, Salwator, ul. Juliana Fałata",50.056883,19.917131,parter/4,Zapytaj,pełna własność,Zapytaj,Zapytaj,brak informacji,brak informacji,kamienica,nie,"telewizja kablowa, internet, telefon","drzwi / okna antywłamaniowe, domofon / wideofon",pustak,wtórny
1,912 000 zł,38 m²,Apartament z widokiem na Wisłę ul. Nadwiślańska 11,2,do zamieszkania,Współrzędne dokładne,"Kraków, Podgórze, ul. Nadwiślańska 11",50.046981,19.950935,1/6,460 zł,pełna własność,"balkon, taras",Zapytaj,brak informacji,2014,apartamentowiec,tak,internet,"domofon / wideofon, monitoring / ochrona",brak informacji,wtórny
1,899 999 zł,120 m²,2 poziom. PIĘKNE komfortowe do zamieszkania 120m,5,do zamieszkania,Współrzędne dokładne,"Wieliczka, wielicki, małopolskie",49.989888,20.031045,1/2,150 zł,pełna własność,balkon,garaż/miejsce parkingowe,brak informacji,2017,szeregowiec,nie,"telewizja kablowa, internet","drzwi / okna antywłamaniowe, teren zamknięty, domofon / wideofon, rolety antywłamaniowe",cegła,wtórny
1,689 000 zł,63 m²,!Nowoczesne mieszkanie 63m2-WYKOŃCZONE pod klucz!,3,do zamieszkania,Nieruchomość znajduje się w zaznaczonym obszarze mapy. Niestety ogłoszeniodawca nie wskazał dokładnego adresu.,"Mistrzejowice, Kraków, Kraków",50.10361,20.00665,Zapytaj,Zapytaj,pełna własność,balkon,garaż/miejsce parkingowe,brak informacji,brak informacji,brak informacji,nie,"telewizja kablowa, internet","domofon / wideofon, monitoring / ochrona",brak informacji,wtórny
1,569 000 zł,56 m²,"4- pokojowe z balkonem, DO WPROWADZENIA SIĘ!",4,do zamieszkania,Nieruchomość znajduje się w zaznaczonym obszarze mapy. Niestety ogłoszeniodawca nie wskazał dokładnego adresu.,"Wieliczka, wielicki, małopolskie",49.98608,20.06512,2/4,Zapytaj,Zapytaj,balkon,garaż/miejsce parkingowe,brak informacji,brak informacji,blok,nie,brak informacji,"teren zamknięty, domofon / wideofon",brak informacji,wtórny
1,1 299 000 zł,69 m²,Mieszkanie 3-pokojowe Tauron Arena wysoki standard,3,do zamieszkania,Współrzędne dokładne,"Kraków, Grzegórzki, ul. Dąbska",50.066999,19.985291,3/5,600 zł,pełna własność,balkon,garaż/miejsce parkingowe,brak informacji,2016,apartamentowiec,tak,brak informacji,"drzwi / okna antywłamaniowe, teren zamknięty, domofon / wideofon, monitoring / ochrona",żelbet,wtórny
1,246 560 zł,"26,8 m²",Apartament z widokiem na Tatry,2,do wykończenia,Nieruchomość znajduje się w zaznaczonym obszarze mapy. Niestety ogłoszeniodawca nie wskazał dokładnego adresu.,"Kluszkowce, nowotarski, małopolskie",49.45045,20.30438,parter,Zapytaj,udział,"balkon, ogródek, taras",garaż/miejsce parkingowe,brak informacji,brak informacji,apartamentowiec,nie,brak informacji,teren zamknięty,brak informacji,wtórny
1,539 000 zł,49 m²,Atrakcyjne mieszkanie w doskonałej lokalizacji!,2,Zapytaj,Współrzędne dokładne,"Kraków, Olsza, ul. Ułanów",50.07784,19.983576,parter/4,352 zł,pełna własność,balkon,Zapytaj,brak informacji,1962,blok,nie,telewizja kablowa,domofon / wideofon,brak informacji,wtórny
1,950 000 zł,57 m²,Apartament z garażem i tarasem Kraków ul Morelowa,2,do zamieszkania,Współrzędne dokładne,"Kraków, Wola Justowska, ul. Morelowa 8",50.069642,19.871887,2/3,500 zł,pełna własność,"balkon, ogródek, taras",garaż/miejsce parkingowe,brak informacji,2008,blok,tak,"telewizja kablowa, internet","teren zamknięty, domofon / wideofon, monitoring / ochrona",cegła,wtórny
1,749 000 zł,"51,5 m²",3 pokoje | Z kredytem 2% | Bez prowizji,3,do zamieszkania,Współrzędne dokładne,"Kraków, Stara Krowodrza, ul. Mazowiecka",50.075412,19.9248,7/8,Zapytaj,pełna własność,balkon,Zapytaj,brak informacji,brak informacji,blok,tak,"telewizja kablowa, internet, telefon","drzwi / okna antywłamaniowe, domofon / wideofon",pustak,wtórny
1,282 500 zł,"22,6 m²",Kawalerki przy Kampusie UJ z gwarancją najmu.,1,do wykończenia,Współrzędne dokładne,"Kraków, Ruczaj, ul. Kobierzyńska 47",50.022694,19.91003,4/4,380 zł,pełna własność,balkon,garaż/miejsce parkingowe,brak informacji,2007,apartamentowiec,tak,"telewizja kablowa, internet, telefon","system alarmowy, teren zamknięty, domofon / wideofon, monitoring / ochrona",cegła,wtórny
1,579 000 zł,"74,46 m²",Nowoczesne dwupoziomowe mieszkanie Bochnia,3,do zamieszkania,Współrzędne dokładne,"ul. Brzeźnicka, osiedle Panorama , Bochnia, bocheński",49.964868,20.449914,5/5,570 zł,pełna własność,balkon,garaż/miejsce parkingowe,brak informacji,2017,blok,tak,"telewizja kablowa, internet","teren zamknięty, domofon / wideofon, monitoring / ochrona",cegła,wtórny
1,703 200 zł,"59,09 m²",Bezpośrednio od dewelopera brak PCC,3,do zamieszkania,Współrzędne dokładne,"Kraków, Mistrzejowice, ul. Piasta Kołodzieja",50.103471,20.015994,2,Zapytaj,pełna własność,balkon,Zapytaj,brak informacji,2022,blok,tak,"telewizja kablowa, internet","drzwi / okna antywłamaniowe, domofon / wideofon",brak informacji,wtórny
1,465 000 zł,"50,54 m²","Pilnie sprzedam 2 pokojowe, 50,54m2 os. Słoneczne",2,do zamieszkania,Współrzędne dokładne,"Kraków, Nowa Huta, os. Słoneczne",50.076687,20.043883,3/3,518 zł,pełna własność,balkon,Zapytaj,brak informacji,brak informacji,blok,nie,brak informacji,"domofon / wideofon, monitoring / ochrona",brak informacji,wtórny
1,593 900 zł,"48,18 m²",Bezpośrednio od dewelopera brak PCC,2,do zamieszkania,Współrzędne dokładne,"Kraków, Mistrzejowice, ul. Piasta Kołodzieja",50.103405,20.016032,2,Zapytaj,pełna własność,balkon,garaż/miejsce parkingowe,brak informacji,2022,blok,tak,"telewizja kablowa, internet",drzwi / okna antywłamaniowe,brak informacji,wtórny
1,699 000 zł,"77,31 m²",Kliny | 4-pokojowe mieszkanie z dwoma balkonami,4,do zamieszkania,Współrzędne dokładne,"Kraków, Kliny-Zacisze, ul. Soroki",49.999924,19.898157,2/2,450 zł,pełna własność,balkon,Zapytaj,brak informacji,2001,blok,nie,"telewizja kablowa, internet","drzwi / okna antywłamaniowe, domofon / wideofon",cegła,wtórny
1,1 077 777 zł,"90,7 m²",2-poziomowe mieszkanie z tarasem na dachu/2m.parki,5,Zapytaj,Współrzędne dokładne,"ul. Pasternik , Skawina, krakowski",49.975248,19.86096,1/2,255 zł,pełna własność,"balkon, taras",garaż/miejsce parkingowe,brak informacji,2022,brak informacji,nie,"telewizja kablowa, internet",domofon / wideofon,brak informacji,wtórny
1,519 000 zł,"45,5 m²",Bezpośrednio • 2 balkony • Winda • Garaż,2,do zamieszkania,Współrzędne dokładne,"Kraków, Bieżanów-Prokocim, ul. Mariana Domagały",50.026289,20.049632,3/4,416 zł,pełna własność,balkon,garaż/miejsce parkingowe,brak informacji,2020,blok,tak,"telewizja kablowa, internet","drzwi / okna antywłamaniowe, domofon / wideofon",pustak,wtórny
1,1 490 000 zł,"70,88 m²",Jasny i nowoczesny apartament 71m2 w pobliżu Błoni,3,do zamieszkania,Współrzędne dokładne,"Kraków, Wola Justowska, ul. Józefa Korzeniowskiego",50.062141,19.893604,1/2,520 zł,pełna własność,balkon,garaż/miejsce parkingowe,brak informacji,2017,apartamentowiec,tak,"telewizja kablowa, internet, telefon",monitoring / ochrona,brak informacji,wtórny
1,498 500 zł,"30,1 m²",Bezpośrednio | Krowodrza Górka | Obok pętli | Nowe,2,do zamieszkania,Współrzędne dokładne,"Krowodrza Górka, Kraków, Kraków",50.087808,19.934418,4/5,330 zł,pełna własność,balkon,Zapytaj,brak informacji,2005,brak informacji,tak,"telewizja kablowa, internet","drzwi / okna antywłamaniowe, domofon / wideofon",brak informacji,wtórny
1,650 000 zł,63 m²,3 pokoje z garażem i miejscem parkingowym,3,do zamieszkania,Współrzędne dokładne,"Wieliczka, Krzyszkowice, ul. Ochota 4r",49.994219,20.021405,2/2,Zapytaj,pełna własność,balkon,garaż/miejsce parkingowe,brak informacji,2013,blok,nie,"telewizja kablowa, internet, telefon","system alarmowy, teren zamknięty, domofon / wideofon",pustak,wtórny
1,1 299 000 zł,73 m²,Zakopane/Kościelisko stylowy apt. z widokiem na Pa,3,do zamieszkania,Nieruchomość znajduje się w zaznaczonym obszarze mapy. Niestety ogłoszeniodawca nie wskazał dokładnego adresu.,"Kościelisko, tatrzański, małopolskie",49.29076,19.88879,3/3,500 zł,pełna własność,ogródek,garaż/miejsce parkingowe,2023-05-10,2009,apartamentowiec,tak,internet,"domofon / wideofon, monitoring / ochrona, rolety antywłamaniowe",silikat,wtórny
1,709 000 zł,"39,39 m²",Sprzedam 2-pokojowe urządzone mieszkanie ZABŁOCIE,2,do zamieszkania,Współrzędne dokładne,"Kraków, Zabłocie, ul. Wałowa",50.045678,19.96674,3,Zapytaj,pełna własność,Zapytaj,Zapytaj,brak informacji,2021,kamienica,nie,"telewizja kablowa, internet","teren zamknięty, domofon / wideofon",cegła,wtórny
1,500 000 zł,"50,03 m²",Mieszkanie 2 pokoje z osobną kuchnią i piwnicą,3,do zamieszkania,Współrzędne dokładne,"Kraków, Kozłówek, ul. Na Kozłówce",50.019256,19.981398,2/4,Zapytaj,Zapytaj,balkon,garaż/miejsce parkingowe,brak informacji,brak informacji,blok,nie,brak informacji,"drzwi / okna antywłamaniowe, domofon / wideofon, monitoring / ochrona",brak informacji,wtórny
1,290 000 zł,"48,36 m²",Mieszkanie 48m2 Monte Cassino 3 w Tarnowie,2,do remontu,Współrzędne dokładne,"ul. Bitwy pod Monte Cassino 3, Tarnów, Tarnów",50.022643,21.005521,6/11,425 zł,spółdzielcze własnościowe,balkon,Zapytaj,brak informacji,1979,blok,tak,"telewizja kablowa, internet",domofon / wideofon,wielka płyta,wtórny
1,710 000 zł,43 m²,Jerozolimska | 2 pok | okazyjna cena!,2,do zamieszkania,Współrzędne dokładne,"Kraków, Podgórze, ul. Jerozolimska",50.034903,19.966219,2/6,Zapytaj,Zapytaj,balkon,garaż/miejsce parkingowe,brak informacji,brak informacji,blok,tak,"telewizja kablowa, internet, telefon","system alarmowy, drzwi / okna antywłamaniowe, teren zamknięty, domofon / wideofon, monitoring / ochrona, rolety antywłamaniowe",brak informacji,wtórny
1,620 000 zł,51 m²,"Krowodrza/Łobzów 51M2,3 Pok.Po Rem,Balkon,Winda.",3,Zapytaj,Współrzędne dokładne,"Kraków, Łobzów, ul. Racławicka",50.077455,19.920696,4/8,590 zł,spółdzielcze własnościowe,balkon,Zapytaj,brak informacji,1964,blok,tak,internet,domofon / wideofon,cegła,wtórny
1,370 000 zł,42 m²,Przytulne mieszkanie na sprzedaż w Krynicy Zdroju,2,do remontu,Nieruchomość znajduje się w zaznaczonym obszarze mapy. Niestety ogłoszeniodawca nie wskazał dokładnego adresu.,"Krynica-Zdrój, nowosądecki, małopolskie",49.42088,20.96066,2/4,555 zł,pełna własność,balkon,Zapytaj,brak informacji,1967,blok,nie,"telewizja kablowa, internet, telefon",domofon / wideofon,cegła,wtórny
1,690 000 zł,"43,47 m²",Dwa pokoje - taras - Bagry Park - do wejścia!,2,do zamieszkania,Współrzędne dokładne,"Kraków, Płaszów, ul. Bagrowa",50.03789,19.998282,1/4,Zapytaj,pełna własność,"balkon, taras",garaż/miejsce parkingowe,brak informacji,2017,blok,tak,"telewizja kablowa, internet, telefon",monitoring / ochrona,brak informacji,wtórny
1,899 000 zł,"54,41 m²","Nowoczesne, przestronne 2 pokoje - ul. Ślusarska",2,do zamieszkania,Współrzędne dokładne,"Kraków, Zabłocie, ul. Ślusarska",50.049282,19.961823,4/7,500 zł,pełna własność,balkon,garaż/miejsce parkingowe,brak informacji,brak informacji,apartamentowiec,tak,"telewizja kablowa, internet",monitoring / ochrona,brak informacji,wtórny
1,1 150 000 zł,"78,35 m²",4 pok/NOWE WYKOŃCZONE/78m2/Dobrego Pasterza,4,do zamieszkania,Współrzędne dokładne,"Kraków, Prądnik Czerwony, ul. Dobrego Pasterza",50.089637,19.978271,1/4,Zapytaj,pełna własność,balkon,garaż/miejsce parkingowe,brak informacji,2022,apartamentowiec,tak,"telewizja kablowa, internet, telefon","system alarmowy, drzwi / okna antywłamaniowe, teren zamknięty, domofon / wideofon",żelbet,wtórny
1,253 000 zł,"45,27 m²","Mieszkanie, 45,27 m², Kęty",2,do remontu,Nieruchomość znajduje się w zaznaczonym obszarze mapy. Niestety ogłoszeniodawca nie wskazał dokładnego adresu.,"Kęty, oświęcimski, małopolskie",49.882696,19.220993,4/4,500 zł,spółdzielcze własnościowe,balkon,Zapytaj,brak informacji,brak informacji,blok,nie,brak informacji,brak informacji,cegła,wtórny
1,295 000 zł,"20,35 m²",Kraków – Salwator – ul. Salwatorska,1,do remontu,Współrzędne dokładne,"Kraków, Salwator, ul. Salwatorska",50.055451,19.917793,parter/2,Zapytaj,pełna własność,Zapytaj,Zapytaj,brak informacji,1930,kamienica,nie,brak informacji,domofon / wideofon,cegła,wtórny
1,350 000 zł,"45,9 m²",Mieszkanie do sprzedaży,2,do remontu,Nieruchomość znajduje się w zaznaczonym obszarze mapy. Niestety ogłoszeniodawca nie wskazał dokładnego adresu.,"Szczawnica, nowotarski, małopolskie",49.42466,20.47816,2/3,270 zł,spółdzielcze własnościowe,Zapytaj,Zapytaj,brak informacji,1970,blok,nie,brak informacji,domofon / wideofon,cegła,wtórny
1,799 000 zł,53 m²,"Piękne 3 pok., taras, garaż, Krowodrza- Łobzów",3,do zamieszkania,Współrzędne dokładne,"Kraków, Krowodrza, ul. Poznańska",50.080121,19.926055,5/7,500 zł,pełna własność,taras,garaż/miejsce parkingowe,2023-08-30,2016,apartamentowiec,tak,"telewizja kablowa, internet","drzwi / okna antywłamaniowe, domofon / wideofon, monitoring / ochrona",pustak,wtórny
1,879 000 zł,44 m²,Apartament w centrum 44m - Bezpośrednio,2,do zamieszkania,Współrzędne dokładne,"Kraków, Centrum, ul. Zbożowa",50.078248,19.936924,parter/5,760 zł,pełna własność,ogródek,Zapytaj,brak informacji,2022,apartamentowiec,tak,"telewizja kablowa, internet, telefon","drzwi / okna antywłamaniowe, teren zamknięty, domofon / wideofon, monitoring / ochrona",cegła,wtórny
1,375 000 zł,30 m²,Czarnochowice Wieliczka Park,2,do zamieszkania,Nieruchomość znajduje się w zaznaczonym obszarze mapy. Niestety ogłoszeniodawca nie wskazał dokładnego adresu.,"Czarnochowice, wielicki, małopolskie",50.00622,20.06949,1/5,300 zł,pełna własność,Zapytaj,garaż/miejsce parkingowe,brak informacji,2022,blok,nie,"telewizja kablowa, internet","drzwi / okna antywłamaniowe, teren zamknięty, domofon / wideofon, monitoring / ochrona",pustak,wtórny
1,560 000 zł,"39,41 m²",2 pokojowe M. na Banacha,2,Zapytaj,Współrzędne dokładne,"Kraków, Prądnik Biały, ul. abp. Zygmunta Szczęsnego Felińskiego",50.10195,19.9675,parter/5,Zapytaj,Zapytaj,Zapytaj,Zapytaj,brak informacji,brak informacji,brak informacji,nie,brak informacji,brak informacji,brak informacji,wtórny
1,1 950 000 zł,80 m²,Luksusowy Penthouse | okazja cenowa | 2 pok,3,do zamieszkania,Nieruchomość znajduje się w zaznaczonym obszarze mapy. Niestety ogłoszeniodawca nie wskazał dokładnego adresu.,"Krowodrza, Kraków, Kraków",50.08769,19.92467,3/3,Zapytaj,Zapytaj,balkon,garaż/miejsce parkingowe,brak informacji,brak informacji,apartamentowiec,tak,"telewizja kablowa, internet, telefon","domofon / wideofon, monitoring / ochrona",brak informacji,wtórny
1,699 000 zł,"53,9 m²",Inwestycyjne - w super lokalizacji z balkonem,2,do zamieszkania,Współrzędne dokładne,"Kraków, Dębniki, ul. ks. Stefana Pawlickiego",50.044521,19.918716,1/3,570 zł,pełna własność,balkon,Zapytaj,2023-05-02,2005,blok,nie,internet,monitoring / ochrona,cegła,wtórny
1,419 500 zł,"34,58 m²","Nowe,2 pok, wykończne, zdjęcia real, do zamieszkan",2,do zamieszkania,Nieruchomość znajduje się w zaznaczonym obszarze mapy. Niestety ogłoszeniodawca nie wskazał dokładnego adresu.,"Wieliczka, wielicki, małopolskie",49.98608,20.06512,parter/4,280 zł,pełna własność,balkon,Zapytaj,brak informacji,2022,apartamentowiec,tak,"telewizja kablowa, internet","system alarmowy, teren zamknięty, domofon / wideofon, monitoring / ochrona",inne,wtórny
1,1 199 000 zł,92 m²,trzy pokoje + kuchnia z garażem | Wola Justowska,3,do zamieszkania,Współrzędne dokładne,"Kraków, Wola Justowska, ul. Królowej Jadwigi",50.06591,19.87586,1/3,900 zł,pełna własność,balkon,garaż/miejsce parkingowe,brak informacji,2003,blok,nie,brak informacji,"drzwi / okna antywłamaniowe, domofon / wideofon",brak informacji,wtórny
1,645 000 zł,49 m²,2 pok. z komórką i garażem przy Wiśle,2,do zamieszkania,Współrzędne dokładne,"Kraków, Podgórze, ul. Na Zakolu Wisły",50.05357,19.98383,2/7,700 zł,pełna własność,balkon,garaż/miejsce parkingowe,brak informacji,2016,apartamentowiec,tak,internet,"drzwi / okna antywłamaniowe, domofon / wideofon",brak informacji,wtórny
1,1 150 000 zł,"75,58 m²","Apartament 75,58 ZABŁOCIE wysoki standard",3,do zamieszkania,Współrzędne dokładne,"Kraków, Zabłocie, ul. Stanisława Klimeckiego",50.047193,19.970644,5/5,699 zł,pełna własność,"balkon, ogródek",garaż/miejsce parkingowe,brak informacji,2021,apartamentowiec,tak,internet,"domofon / wideofon, monitoring / ochrona",cegła,wtórny
1,617 855 zł,"48,65 m²",3 pok. | Osiedle Oświecenia | zamykany garaż,3,do zamieszkania,Współrzędne dokładne,"Kraków, Mistrzejowice, Osiedle Oświecenia",50.09459,19.99068,1/9,560 zł,pełna własność,balkon,garaż/miejsce parkingowe,brak informacji,2009,blok,tak,brak informacji,brak informacji,brak informacji,wtórny
1,899 000 zł,"69,23 m²",wykończone 3-pok z garażem przy al. Pokoju bez Pcc,3,do zamieszkania,Współrzędne dokładne,"Kraków, Czyżyny, Aleja Pokoju",50.06609,20.00842,1/5,700 zł,pełna własność,balkon,garaż/miejsce parkingowe,brak informacji,2023,apartamentowiec,tak,brak informacji,"drzwi / okna antywłamaniowe, domofon / wideofon",brak informacji,wtórny
1,549 000 zł,"26,76 m²","0% prowizj,kawalerka z ogródkiem,centrum,Rakowicka",1,do zamieszkania,Współrzędne dokładne,"Kraków, Stare Miasto, ul. Rakowicka",50.073665,19.956629,parter/6,390 zł,pełna własność,ogródek,garaż/miejsce parkingowe,2023-05-13,2022,apartamentowiec,tak,"telefon, internet, telewizja kablowa","system alarmowy, monitoring / ochrona, drzwi / okna antywłamaniowe, domofon / wideofon",beton,wtórny
1,1 499 000 zł,"83,82 m²",4 pokoje|2 balkony|widok na zieleń|ul.Grzegórzecka,4,do wykończenia,Współrzędne dokładne,"Kraków, Grzegórzki, ul. Grzegórzecka 79 d",50.05742,19.966653,4/6,950 zł,pełna własność,balkon,garaż/miejsce parkingowe,brak informacji,2022,apartamentowiec,tak,brak informacji,"drzwi / okna antywłamaniowe, teren zamknięty, domofon / wideofon",brak informacji,wtórny
1,1 099 000 zł,67 m²,Bulwary Wiślane | 4 pokoi | 67 m2,4,do zamieszkania,Współrzędne dokładne,"Kraków, Grzegórzki, ul. Bajeczna",50.057282,19.977042,1/6,Zapytaj,Zapytaj,balkon,Zapytaj,brak informacji,brak informacji,apartamentowiec,nie,"telewizja kablowa, internet, telefon",monitoring / ochrona,brak informacji,wtórny
1,797 500 zł,"59,76 m²",60 m2 | Bronowice Residence | wysoki standard |Hit,3,do zamieszkania,Współrzędne dokładne,"Kraków, Bronowice, ul. Józefa Chełmońskiego",50.09846,19.890051,1/3,650 zł,pełna własność,balkon,garaż/miejsce parkingowe,brak informacji,2016,apartamentowiec,tak,brak informacji,monitoring / ochrona,cegła,wtórny
1,380 000 zł,"35,42 m²",35 m2 | oddzielna kuchnia | do wejścia | balkon !,1,do zamieszkania,Współrzędne dokładne,"Kraków, Bieżanów-Prokocim, ul. Aleksandry",50.013788,20.018778,2/4,510 zł,pełna własność,balkon,garaż/miejsce parkingowe,brak informacji,1980,blok,nie,brak informacji,monitoring / ochrona,cegła,wtórny
1,770 000 zł,"29,75 m²",30 m2/ Centrum Krakowa/ wydzielona sypialnia / hit,1,do zamieszkania,Współrzędne dokładne,"Kraków, Grzegórzki, ul. Rakowicka",50.072001,19.952248,2/5,400 zł,pełna własność,Zapytaj,Zapytaj,brak informacji,2020,apartamentowiec,tak,brak informacji,monitoring / ochrona,cegła,wtórny
1,549 000 zł,"54,3 m²",54 m2 | dwa osobne pokoje | budynek ogrodzony |,2,do zamieszkania,Współrzędne dokładne,"Kraków, Krowodrza, ul. Wrocławska",50.078675,19.924644,parter/4,350 zł,pełna własność,Zapytaj,garaż/miejsce parkingowe,brak informacji,1970,blok,nie,brak informacji,brak informacji,cegła,wtórny
1,1 590 000 zł,"122,2 m²",mieszkanie trzypoziomowe | wysoki standard | 122m2,4,do zamieszkania,Współrzędne dokładne,"Kraków, Wola Justowska, ul. Pod Stokiem",50.072343,19.854002,1/3,Zapytaj,pełna własność,Zapytaj,garaż/miejsce parkingowe,2023-05-17,2016,brak informacji,nie,brak informacji,brak informacji,pustak,wtórny
1,999 000 zł,"102,1 m²",Zielonki/102 m2/4 pok/Taras 69 m2/2 msc. postojowe,4,do zamieszkania,Współrzędne dokładne,"ul. Lawendowa , Zielonki, krakowski",50.10511,19.917963,parter/2,Zapytaj,pełna własność,Zapytaj,garaż/miejsce parkingowe,brak informacji,2020,apartamentowiec,nie,brak informacji,brak informacji,pustak,wtórny
1,539 000 zł,37 m²,Świetna lokalizacja |Bosaków (Olsza) | do wejścia,3,do zamieszkania,Współrzędne dokładne,"Kraków, Olsza, ul. Bosaków",50.083833,19.962081,2/8,430 zł,pełna własność,Zapytaj,Zapytaj,brak informacji,brak informacji,blok,tak,brak informacji,brak informacji,brak informacji,wtórny
1,1 109 400 zł,"85,9 m²",4 pokoje/2 łazienki/2 m. postojowe/Do wejścia!,4,do zamieszkania,Współrzędne dokładne,"Kraków, Bielany, ul. Księcia Józefa",50.043956,19.848605,1/2,250 zł,pełna własność,Zapytaj,garaż/miejsce parkingowe,brak informacji,2022,apartamentowiec,nie,brak informacji,brak informacji,cegła,wtórny
1,599 999 zł,"48,82 m²",Stylowe 2 pokoje | Wysoki standard | M. postojowe,2,do zamieszkania,Współrzędne dokładne,"Kraków, Bieżanów, ul. Aleksandry",50.00902,20.015788,1/4,596 zł,pełna własność,balkon,garaż/miejsce parkingowe,brak informacji,2010,blok,tak,brak informacji,"system alarmowy, monitoring / ochrona",cegła,wtórny
1,585 000 zł,"55,7 m²",Majora | Do wejścia | Osobna kuchnia | Loggia,2,do zamieszkania,Współrzędne dokładne,"Kraków, Prądnik Czerwony, ul. Jakuba Majora",50.090221,19.965125,5/10,700 zł,pełna własność,Zapytaj,garaż/miejsce parkingowe,brak informacji,2008,blok,tak,brak informacji,monitoring / ochrona,cegła,wtórny
1,675 000 zł,63 m²,Czyżyny | 3 pokoje + garderoba | Garaż | Taras,3,do zamieszkania,Współrzędne dokładne,"Kraków, Czyżyny, ul. Sołtysowska",50.063716,20.022633,parter/4,696 zł,pełna własność,"balkon, taras",garaż/miejsce parkingowe,brak informacji,2014,blok,tak,brak informacji,"system alarmowy, monitoring / ochrona",cegła,wtórny
1,520 000 zł,"62,5 m²",Mieszkanie z widokiem do remontu | Dywizjonu 303,3,do remontu,Współrzędne dokładne,"Kraków, Czyżyny, os. Dywizjonu 303 303",50.085632,20.002851,8/10,700 zł,spółdzielcze własnościowe,Zapytaj,Zapytaj,brak informacji,1985,blok,tak,brak informacji,brak informacji,wielka płyta,wtórny
1,559 000 zł,65 m²,3 pokoje | Piastów | Balkon | Piwnica | Winda,3,do zamieszkania,Współrzędne dokładne,"Kraków, Mistrzejowice, os. Piastów",50.099787,20.014217,4/10,800 zł,spółdzielcze własnościowe,balkon,Zapytaj,brak informacji,1985,blok,tak,brak informacji,brak informacji,wielka płyta,wtórny
1,850 000 zł,"74,26 m²",Os. zamknięte | taras | miejsce park | komórka,4,do zamieszkania,Współrzędne dokładne,"Kraków, Czyżyny, ul. Sołtysowska",50.064078,20.017588,2/5,1 000 zł,pełna własność,Zapytaj,garaż/miejsce parkingowe,brak informacji,2016,apartamentowiec,tak,brak informacji,system alarmowy,cegła,wtórny
1,539 000 zł,53 m²,Ogródek | 3 pokoje| 53mkw| Mała Góra,3,do zamieszkania,Współrzędne dokładne,"Kraków, Bieżanów-Prokocim, ul. Mała Góra",50.012753,20.026124,parter/4,500 zł,pełna własność,ogródek,garaż/miejsce parkingowe,brak informacji,2011,blok,tak,brak informacji,"system alarmowy, monitoring / ochrona",pustak,wtórny
1,689 000 zł,"64,1 m²",3 Pokoje| Balkon| Mała Góra| M. Postojowe,3,do zamieszkania,Współrzędne dokładne,"Kraków, Bieżanów-Prokocim, ul. Mała Góra",50.015629,20.026922,1/4,600 zł,pełna własność,balkon,garaż/miejsce parkingowe,brak informacji,2018,blok,tak,brak informacji,monitoring / ochrona,pustak,wtórny
1,629 000 zł,"49,92 m²",2 Pokoje| Ogródek| M. Postojowe| Federowicza,2,do zamieszkania,Współrzędne dokładne,"Kraków, Ruczaj, Jana Kantego Federowicza",50.012969,19.880859,parter/4,470 zł,pełna własność,ogródek,garaż/miejsce parkingowe,brak informacji,2018,blok,tak,brak informacji,"system alarmowy, monitoring / ochrona",pustak,wtórny
1,499 000 zł,"44,76 m²","Os. Szkolne | 2 Pokoje| 44,76 m2| do wejścia",2,do zamieszkania,Współrzędne dokładne,"Kraków, Nowa Huta, os. Szkolne",50.076343,20.047306,3/4,623 zł,pełna własność,Zapytaj,Zapytaj,brak informacji,1955,kamienica,nie,brak informacji,brak informacji,cegła,wtórny
1,669 000 zł,"52,47 m²",2 Pokoje/Ogród/Komórka Lokatorska/Parking,2,do zamieszkania,Współrzędne dokładne,"Kraków, Bronowice Wielkie, ul. Stawowa",50.095343,19.8888,parter/3,500 zł,pełna własność,ogródek,garaż/miejsce parkingowe,brak informacji,2017,apartamentowiec,tak,brak informacji,monitoring / ochrona,pustak,wtórny
1,649 000 zł,"65,4 m²",Mieszkanie 3 Pokojowe/Płaszów/Loggia/Piwnica,3,do zamieszkania,Współrzędne dokładne,"Kraków, Płaszów, ul. Lipska",50.042131,19.99966,3/4,770 zł,pełna własność,Zapytaj,Zapytaj,brak informacji,1994,blok,nie,brak informacji,brak informacji,brak informacji,wtórny
1,399 000 zł,"32,5 m²",Kawalerka Do Remontu/Parter/Prądnik Czerwony/,1,do remontu,Współrzędne dokładne,"Kraków, Prądnik Czerwony, ul. Powstańców",50.098263,19.973505,parter/4,390 zł,pełna własność,Zapytaj,Zapytaj,brak informacji,1980,blok,nie,brak informacji,brak informacji,wielka płyta,wtórny
1,734 000 zł,"61,21 m²","Os. Avia | 3 pokoje + kuchnia | loggia |61,21m2",3,do zamieszkania,Współrzędne dokładne,"Kraków, Czyżyny, os. Avia",50.080514,20.003642,4/7,500 zł,pełna własność,Zapytaj,Zapytaj,brak informacji,2016,blok,tak,brak informacji,brak informacji,pustak,wtórny
1,559 000 zł,"61,4 m²","3 Pokoje | Osobna Kuchnia | 61,5m2 | Kurdwanów",3,do zamieszkania,Współrzędne dokładne,"Kraków, Kurdwanów, ul. Stanisława Stojałowskiego",50.004733,19.961246,parter/4,650 zł,Zapytaj,Zapytaj,garaż/miejsce parkingowe,brak informacji,1989,blok,nie,brak informacji,system alarmowy,brak informacji,wtórny
1,739 000 zł,60 m²,os. Oświecenia | 2 pokoje+aneks | garderoba |60m2,2,do zamieszkania,Współrzędne dokładne,"Kraków, Czyżyny, os. Oświecenia",50.088793,19.988561,1/10,500 zł,pełna własność,Zapytaj,Zapytaj,brak informacji,2016,blok,tak,brak informacji,monitoring / ochrona,pustak,wtórny
1,679 000 zł,"59,2 m²",ul. Tomickiego | 3 pokoje+aneks | 2 balkony | 60m2,3,do zamieszkania,Współrzędne dokładne,"Kraków, Czyżyny, ul. bp. Piotra Tomickiego",50.066049,20.022381,2/5,600 zł,pełna własność,balkon,garaż/miejsce parkingowe,brak informacji,2020,blok,tak,brak informacji,monitoring / ochrona,pustak,wtórny
1,679 000 zł,"59,2 m²",ul. Tomickiego | 3 pokoje+aneks | 2 balkony | 60m2,3,do zamieszkania,Współrzędne dokładne,"Kraków, Czyżyny, ul. bp. Piotra Tomickiego",50.066049,20.022381,2/5,600 zł,pełna własność,balkon,garaż/miejsce parkingowe,brak informacji,2020,blok,tak,brak informacji,monitoring / ochrona,pustak,wtórny
1,649 000 zł,"57,16 m²","ul. Małysiaka | 3 pokoje+aneks | balkon | 57,16m2!",3,do zamieszkania,Współrzędne dokładne,"Kraków, Kliny-Zacisze, bpa Albina Małysiaka",49.999048,19.892087,2/4,500 zł,pełna własność,balkon,garaż/miejsce parkingowe,brak informacji,2020,blok,tak,brak informacji,brak informacji,brak informacji,wtórny
1,454 000 zł,40 m²,Centrum | Inwestycyjnie | 2 pokoje | do adaptacji!,2,do remontu,Współrzędne dokładne,"Kraków, Podgórze, ul. Lwowska",50.046478,19.955577,parter/4,Zapytaj,pełna własność,Zapytaj,Zapytaj,brak informacji,brak informacji,kamienica,nie,brak informacji,brak informacji,brak informacji,wtórny
1,549 000 zł,45 m²,ul. Koszykarska | 2 pokoje+ aneks | garaż | 45 m2!,2,do zamieszkania,Współrzędne dokładne,"Kraków, Płaszów, ul. Koszykarska",50.048203,19.985434,3/6,500 zł,pełna własność,Zapytaj,garaż/miejsce parkingowe,2023-08-31,2014,blok,tak,brak informacji,monitoring / ochrona,brak informacji,wtórny
1,1 499 000 zł,52 m²,ul. Kościuszki 22 | 2 pokoje+aneks | taras | 52m2!,2,do wykończenia,Współrzędne dokładne,"Kraków, Salwator, ul. gen. Tadeusza Kościuszki",50.054632,19.926275,1/6,500 zł,pełna własność,taras,garaż/miejsce parkingowe,2023-10-01,2023,apartamentowiec,tak,brak informacji,"system alarmowy, monitoring / ochrona",brak informacji,wtórny
1,639 000 zł,51 m²,ul. Borkowska | 2 pokoje + aneks | taras | 51m2!,3,do zamieszkania,Współrzędne dokładne,"Kraków, Kliny-Zacisze, ul. Borkowska",50.00411,19.905818,1/3,600 zł,pełna własność,taras,garaż/miejsce parkingowe,brak informacji,2007,blok,nie,brak informacji,brak informacji,brak informacji,wtórny
1,545 000 zł,"55,5 m²","Os. Centrum B | 3 pokoje+kuchnia | balkon | 55,5m2",3,do zamieszkania,Współrzędne dokładne,"Kraków, Nowa Huta, os. Centrum B B",50.073944,20.040383,2/4,600 zł,pełna własność,balkon,Zapytaj,2023-11-01,1957,blok,nie,brak informacji,brak informacji,cegła,wtórny
1,695 000 zł,"59,8 m²",2 pokoje | Krowodrza Górka |,2,do zamieszkania,Współrzędne dokładne,"Kraków, Krowodrza, ul. Rusznikarska",50.087303,19.925309,2/7,600 zł,pełna własność,Zapytaj,garaż/miejsce parkingowe,brak informacji,1999,blok,tak,brak informacji,brak informacji,cegła,wtórny
1,669 000 zł,"58,9 m²",3 Pokoje | Żabiniec | Loggia,3,do zamieszkania,Współrzędne dokładne,"Kraków, Żabiniec, ul. Feliksa Konecznego",50.083459,19.94517,2/3,500 zł,pełna własność,balkon,Zapytaj,brak informacji,1999,blok,nie,brak informacji,brak informacji,brak informacji,wtórny
1,649 000 zł,"46,32 m²",Ul. Śliczna | 46 M2 | Balkon |,1,do zamieszkania,Współrzędne dokładne,"Kraków, Grzegórzki, ul. Śliczna",50.074016,19.976794,8/8,350 zł,pełna własność,balkon,garaż/miejsce parkingowe,brak informacji,2008,blok,tak,brak informacji,brak informacji,brak informacji,wtórny
1,739 860 zł,"67,26 m²",Apartament 67.26m2 Borek-Fałęcki/Kraków.,3,do zamieszkania,Współrzędne dokładne,"Kraków, Borek Fałęcki, ul. Zdunów",50.01995,19.92025,5/6,Zapytaj,pełna własność,balkon,garaż/miejsce parkingowe,2023-05-11,2022,brak informacji,nie,brak informacji,brak informacji,brak informacji,wtórny
1,470 000 zł,"54,5 m²",3 Pokoje | Osobna Kuchnia | Cicha okolica,3,do zamieszkania,Współrzędne dokładne,"Kraków, Bieńczyce, os. Wysokie",50.089647,20.017012,3/4,800 zł,pełna własność,Zapytaj,garaż/miejsce parkingowe,brak informacji,1970,blok,nie,brak informacji,monitoring / ochrona,pustak,wtórny
1,279 000 zł,"34,07 m²","Piękne mieszkanie 2 pokojowe po remoncie, nowe AGD",2,do zamieszkania,Współrzędne dokładne,"ul. Słoneczna , Gorlice, gorlicki",49.656043,21.146793,3/4,285 zł,spółdzielcze własnościowe,Zapytaj,Zapytaj,brak informacji,brak informacji,blok,nie,brak informacji,brak informacji,cegła,wtórny
1,525 000 zł,"58,72 m²",2 pokoje + kuchnia | Plac Centralny | Centrum B,2,do zamieszkania,Współrzędne dokładne,"Kraków, Nowa Huta, os. Centrum B B",50.073737,20.039174,4/4,835 zł,pełna własność,Zapytaj,garaż/miejsce parkingowe,brak informacji,1950,kamienica,nie,brak informacji,brak informacji,cegła,wtórny
1,920 000 zł,68 m²,Aleja Pokoju | 3 pok | 13 529zł/m2,3,do zamieszkania,Nieruchomość znajduje się w zaznaczonym obszarze mapy. Niestety ogłoszeniodawca nie wskazał dokładnego adresu.,"Grzegórzki, Kraków, Kraków",50.06439,19.97356,1/5,Zapytaj,Zapytaj,balkon,garaż/miejsce parkingowe,brak informacji,2022,blok,tak,"telewizja kablowa, internet, telefon","system alarmowy, drzwi / okna antywłamaniowe, teren zamknięty, domofon / wideofon, monitoring / ochrona, rolety antywłamaniowe",brak informacji,wtórny
1,650 000 zł,65 m²,"Sprzedamy mieszkanie -Kraków ,ul.Lipska",3,do zamieszkania,Współrzędne dokładne,"Kraków, Dąbie, ul. Lipska",50.040492,19.993438,3/5,600 zł,pełna własność,balkon,Zapytaj,brak informacji,2000,blok,nie,brak informacji,"teren zamknięty, domofon / wideofon",cegła,wtórny
1,520 000 zł,"73,06 m²",Kraków Zwierzyniec Kraszewskiego 73 m2 parter,4,do zamieszkania,Współrzędne dokładne,"Kraków, Półwsie Zwierzynieckie, ul. Józefa Ignacego Kraszewskiego",50.055302,19.919441,parter/4,700 zł,pełna własność,ogródek,Zapytaj,brak informacji,1911,kamienica,tak,internet,brak informacji,cegła,wtórny
1,1 550 000 zł,75 m²,widokowe 3 pok. | Wiślane Tarasy | garaż + k. lok,3,do zamieszkania,Współrzędne dokładne,"Kraków, Grzegórzki, ul. Grzegórzecka",50.05597,19.96194,7/8,880 zł,pełna własność,balkon,garaż/miejsce parkingowe,brak informacji,2013,apartamentowiec,tak,brak informacji,"drzwi / okna antywłamaniowe, domofon / wideofon, monitoring / ochrona",brak informacji,wtórny
1,1 400 000 zł,"111,94 m²","Bezpośrednio, 5 pok. mieszkanie, Prądnik Biały",5,do zamieszkania,Współrzędne dokładne,"Kraków, Prądnik Biały, ul. Piaszczysta 29",50.098539,19.925941,1/4,1 100 zł,pełna własność,balkon,garaż/miejsce parkingowe,brak informacji,2022,blok,tak,"telewizja kablowa, internet","drzwi / okna antywłamaniowe, teren zamknięty, domofon / wideofon, monitoring / ochrona",żelbet,wtórny
1,625 000 zł,59 m²,3-pokojowe z loggią i widokiem na zieleń !,3,do zamieszkania,Współrzędne dokładne,"Kraków, Podgórze, ul. Łużycka",50.011822,19.971931,7/10,740 zł,pełna własność,balkon,garaż/miejsce parkingowe,2023-07-01,1976,blok,tak,internet,brak informacji,wielka płyta,wtórny
1,579 000 zł,55 m²,Przestronne mieszkanie z ogromnym balkonem,2,do zamieszkania,Nieruchomość znajduje się w zaznaczonym obszarze mapy. Niestety ogłoszeniodawca nie wskazał dokładnego adresu.,"Nowa Huta, Kraków, Kraków",50.102689,20.01336,5/8,Zapytaj,pełna własność,balkon,Zapytaj,brak informacji,2009,blok,tak,internet,"drzwi / okna antywłamaniowe, domofon / wideofon, monitoring / ochrona",brak informacji,wtórny
1,653 334 zł,"39,93 m²","Nowe 2-pok, wysoki standard, centrum",2,do wykończenia,Współrzędne dokładne,"Kraków, Prądnik Czerwony, ul. Ładna",50.071479,19.979792,parter/5,Zapytaj,pełna własność,ogródek,Zapytaj,brak informacji,2024,apartamentowiec,tak,"telewizja kablowa, internet, telefon","drzwi / okna antywłamaniowe, domofon / wideofon, monitoring / ochrona",inne,wtórny
1,395 000 zł,"29,06 m²",Słoneczna kawalerka/ Balkon / Bagry / Gotowe,1,do wykończenia,Współrzędne dokładne,"Kraków, Płaszów, ul. Bagrowa",50.03591,20.00075,2/4,Zapytaj,pełna własność,"balkon, taras",garaż/miejsce parkingowe,2023-05-12,2022,apartamentowiec,tak,"telewizja kablowa, internet","drzwi / okna antywłamaniowe, domofon / wideofon, monitoring / ochrona",pustak,wtórny
1,799 000 zł,75 m²,Komfortowy apart. 75 m2 | parking | Niepołomice,2,do zamieszkania,Współrzędne dokładne,"Niepołomice, wielicki, małopolskie",50.03972,20.22174,1/3,240 zł,pełna własność,balkon,garaż/miejsce parkingowe,brak informacji,2018,apartamentowiec,nie,brak informacji,brak informacji,brak informacji,wtórny
1,780 000 zł,"68,85 m²",Mazowiecka | Obok parku | z Lokatorami,3,do remontu,Współrzędne dokładne,"Kraków, Krowodrza, ul. Mazowiecka",50.07505,19.92226,parter/4,Zapytaj,pełna własność,taras,Zapytaj,brak informacji,brak informacji,apartamentowiec,tak,brak informacji,brak informacji,brak informacji,wtórny
1,447 000 zł,45 m²,Trzypokojowe mieszkanie na Kozłówku,3,do zamieszkania,Współrzędne dokładne,"Kraków, Bieżanów-Prokocim, ul. Na Kozłówce",50.01993,19.97995,1/4,Zapytaj,pełna własność,balkon,Zapytaj,brak informacji,1983,blok,nie,brak informacji,brak informacji,brak informacji,wtórny
1,814 000 zł,44 m²,Pielęgniarek| 2 pokoje | Widokowe| z Najemcą,2,do zamieszkania,Współrzędne dokładne,"Kraków, Krowodrza, ul. Pielęgniarek",50.08337,19.9367,5/6,Zapytaj,pełna własność,balkon,Zapytaj,brak informacji,brak informacji,blok,tak,brak informacji,brak informacji,brak informacji,wtórny
1,620 000 zł,52 m²,3 pokoje | Nowe Budownictwo | Wyposażone,3,do zamieszkania,Współrzędne dokładne,"Kraków, Złocień, ul. Mariana Domagały",50.02347,20.05079,1/4,600 zł,pełna własność,balkon,Zapytaj,brak informacji,brak informacji,apartamentowiec,tak,brak informacji,brak informacji,brak informacji,wtórny
1,460 000 zł,"43,6 m²","Kazimierzowskie | 43,6 m2 | 3 pokoje | Po remoncie",3,do zamieszkania,Współrzędne dokładne,"Kraków, Nowa Huta, os. Kazimierzowskie",50.08646,20.02096,parter/4,390 zł,pełna własność,Zapytaj,Zapytaj,2022-08-05,brak informacji,blok,nie,brak informacji,brak informacji,brak informacji,wtórny
1,460 000 zł,"54,24 m²",Na Wzgórzach | 54m2 | 3 osobne pokoje,3,do zamieszkania,Współrzędne dokładne,"Kraków, Wzgórza Krzesławickie, os. Na Wzgórzach",50.09523,20.06459,parter/4,Zapytaj,pełna własność,Zapytaj,Zapytaj,2022-08-01,brak informacji,blok,nie,brak informacji,brak informacji,brak informacji,wtórny
1,1 221 800 zł,"72,3 m²",Bezpośrednio • Do wejścia • Wysoki standard,3,do zamieszkania,Współrzędne dokładne,"Kraków, Salwator, ul. Józefa Ignacego Kraszewskiego",50.054903,19.919747,3/4,350 zł,pełna własność,balkon,Zapytaj,brak informacji,brak informacji,kamienica,nie,"telewizja kablowa, internet","drzwi / okna antywłamaniowe, domofon / wideofon",cegła,wtórny
1,449 000 zł,"37,5 m²","Przestronne mieszkanie do wejścia |2 pok | 37,5m2|",2,do zamieszkania,Współrzędne dokładne,"Kraków, Bieńczyce, os. Józefa Strusia",50.088227,20.009297,7/10,400 zł,pełna własność,Zapytaj,garaż/miejsce parkingowe,brak informacji,brak informacji,blok,tak,"telewizja kablowa, internet, telefon","domofon / wideofon, monitoring / ochrona",wielka płyta,wtórny
1,414 900 zł,"32,31 m²",Pokój+kuchnia | 32m2 | Winda | Balkon,1,do zamieszkania,Nieruchomość znajduje się w zaznaczonym obszarze mapy. Niestety ogłoszeniodawca nie wskazał dokładnego adresu.,"Prądnik Czerwony, Kraków, Kraków",50.090487,19.963175,4/10,370 zł,Zapytaj,Zapytaj,Zapytaj,brak informacji,1980,blok,tak,brak informacji,brak informacji,brak informacji,wtórny
1,469 000 zł,34 m²,Kraków - Krowodrza - ul. Czarnowiejska,1,do zamieszkania,Współrzędne dokładne,"Kraków, Krowodrza, ul. Czarnowiejska",50.066986,19.920502,parter/4,380 zł,pełna własność,Zapytaj,Zapytaj,brak informacji,1962,kamienica,nie,brak informacji,"drzwi / okna antywłamaniowe, domofon / wideofon",cegła,wtórny
1,720 000 zł,"58,4 m²","Dwupokojowe 58,4m2 z ogródkiem i tarasem.",2,do zamieszkania,Współrzędne dokładne,"Kraków, Wola Duchacka, ul. Sebastiana Klonowica",50.020264,19.956944,parter/5,750 zł,pełna własność,"balkon, ogródek, taras",garaż/miejsce parkingowe,2023-03-01,2013,blok,tak,"telewizja kablowa, internet, telefon",monitoring / ochrona,pustak,wtórny
1,619 000 zł,"48,8 m²",Dwupokojowe mieszkanie z antresolą - os. Ruczaj,3,do zamieszkania,Nieruchomość znajduje się w zaznaczonym obszarze mapy. Niestety ogłoszeniodawca nie wskazał dokładnego adresu.,"Dębniki, Kraków, Kraków",50.016455,19.910952,3/3,342 zł,pełna własność,balkon,garaż/miejsce parkingowe,brak informacji,2008,blok,nie,"telewizja kablowa, internet, telefon",monitoring / ochrona,pustak,wtórny
1,450 000 zł,49 m²,Okazja! Nowa Huta - piękne mieszkanie w zieleni,2,Zapytaj,Nieruchomość znajduje się w zaznaczonym obszarze mapy. Niestety ogłoszeniodawca nie wskazał dokładnego adresu.,"Kraków, Kraków, małopolskie",50.0894,20.0285,1/3,Zapytaj,spółdzielcze wł. z KW,balkon,Zapytaj,brak informacji,1960,blok,nie,"telefon, internet, telewizja kablowa",domofon / wideofon,cegła,wtórny
1,352 725 zł,"50,22 m²",Nowoczesne mieszkanie w Wieliczce,3,do zamieszkania,Współrzędne dokładne,"ul. Władysława Jagiełły , Wieliczka, wielicki",49.986501,20.036483,1/5,Zapytaj,pełna własność,balkon,Zapytaj,brak informacji,2019,blok,tak,telewizja kablowa,domofon / wideofon,brak informacji,wtórny
1,1 250 000 zł,"52,63 m²",Apartament w Białce Tatrzańskiej w Aparthotelu,3,do zamieszkania,Nieruchomość znajduje się w zaznaczonym obszarze mapy. Niestety ogłoszeniodawca nie wskazał dokładnego adresu.,"Białka Tatrzańska, tatrzański, małopolskie",49.39347,20.10711,2,Zapytaj,pełna własność,balkon,garaż/miejsce parkingowe,brak informacji,2017,apartamentowiec,tak,"telewizja kablowa, internet","system alarmowy, drzwi / okna antywłamaniowe, domofon / wideofon, monitoring / ochrona",brak informacji,wtórny
1,758 000 zł,46 m²,# Rondo Matecznego # 3 Pokoje # Balkon # Widokowe,3,do zamieszkania,Współrzędne dokładne,"Kraków, Podgórze, ul. Rydlówka",50.034975,19.936234,3/4,500 zł,pełna własność,balkon,garaż/miejsce parkingowe,brak informacji,2017,blok,tak,"telewizja kablowa, internet, telefon","drzwi / okna antywłamaniowe, teren zamknięty, domofon / wideofon, monitoring / ochrona",cegła,wtórny
1,599 000 zł,"55,13 m²",Os. Kolorowe 2 pokoje 55 m2 po generalnym remoncie,2,do zamieszkania,Współrzędne dokładne,"Kraków, Czyżyny, os. Kolorowe",50.073458,20.021858,7/9,553 zł,pełna własność,balkon,Zapytaj,brak informacji,brak informacji,blok,tak,"telewizja kablowa, internet, telefon","drzwi / okna antywłamaniowe, domofon / wideofon",pustak,wtórny
1,673 000 zł,53 m²,"Kraków Złocień, 3 pokoje, 53m2+komórka",3,do zamieszkania,Współrzędne dokładne,"Kraków, Złocień, ul. Mariana Domagały",50.030645,20.051778,1/4,Zapytaj,pełna własność,balkon,Zapytaj,brak informacji,brak informacji,blok,tak,"telewizja kablowa, internet","drzwi / okna antywłamaniowe, domofon / wideofon, monitoring / ochrona",pustak,wtórny
1,519 000 zł,"51,72 m²","Nowe mieszkanie 2-pokojowe z ogródkiem, wykończone",2,do zamieszkania,Współrzędne dokładne,"ul. Zbożowa , Wieliczka, wielicki",50.002092,20.050387,parter/3,400 zł,Zapytaj,ogródek,garaż/miejsce parkingowe,brak informacji,2023,blok,nie,internet,"teren zamknięty, domofon / wideofon",cegła,wtórny
1,919 000 zł,"69,23 m²",Aleja Pokoju | 3 pok + miejsce postojowe | Bez PCC,3,do zamieszkania,Nieruchomość znajduje się w zaznaczonym obszarze mapy. Niestety ogłoszeniodawca nie wskazał dokładnego adresu.,"Grzegórzki, Kraków, Kraków",50.06439,19.97356,1/5,700 zł,pełna własność,balkon,garaż/miejsce parkingowe,brak informacji,2022,blok,tak,internet,"drzwi / okna antywłamaniowe, domofon / wideofon, monitoring / ochrona",brak informacji,wtórny
1,2 000 000 zł,"82,6 m²",wyjątkowy Apartament 83m2 w Garden Lane,2,do zamieszkania,Współrzędne dokładne,"Kraków, Krowodrza, ul. Jana Buszka",50.068076,19.898939,3/3,1 100 zł,pełna własność,balkon,garaż/miejsce parkingowe,brak informacji,2017,apartamentowiec,tak,"telewizja kablowa, internet, telefon","teren zamknięty, domofon / wideofon, monitoring / ochrona",beton komórkowy,wtórny
1,435 000 zł,"45,3 m²","Doskonała komunikacja tramwajowa , autobusowa .",2,Zapytaj,Współrzędne dokładne,"Piaski Wielkie, Kraków, Kraków",50.0142,19.9689,parter/10,490 zł,Zapytaj,Zapytaj,Zapytaj,brak informacji,brak informacji,brak informacji,nie,brak informacji,brak informacji,brak informacji,wtórny
1,1 195 000 zł,85 m²,Kraków - Salwator - ul. Leszczynowa,3,do zamieszkania,Współrzędne dokładne,"Kraków, Salwator, ul. Leszczynowa",50.058703,19.899903,2/3,760 zł,pełna własność,balkon,garaż/miejsce parkingowe,brak informacji,1998,apartamentowiec,nie,brak informacji,"teren zamknięty, domofon / wideofon",brak informacji,wtórny
1,439 999 zł,60 m²,1 PIĘTRO* Bezpośrednio* Wysoki standard* 60m2!,3,do zamieszkania,Współrzędne dokładne,"ul. Do Prochowni , Tarnów, Tarnów",50.020392,21.009972,1/4,590 zł,pełna własność,balkon,garaż/miejsce parkingowe,brak informacji,1985,blok,nie,"telewizja kablowa, internet, telefon",drzwi / okna antywłamaniowe,brak informacji,wtórny
1,545 000 zł,56 m²,"Okazja. Os. Wysokie 56 m2 po remoncie, 3 pokoje.",3,do zamieszkania,Współrzędne dokładne,"Kraków, Nowa Huta, os. Wysokie",50.090191,20.019135,3/4,480 zł,pełna własność,Zapytaj,Zapytaj,brak informacji,brak informacji,blok,nie,"telewizja kablowa, internet, telefon","drzwi / okna antywłamaniowe, domofon / wideofon",wielka płyta,wtórny
1,265 000 zł,32 m²,Sprzedam mieszkanie 32m2,2,Zapytaj,Współrzędne dokładne,"Tarnów, Gumniska, ul. Urwana",50.0073,20.9969,3/4,Zapytaj,Zapytaj,Zapytaj,Zapytaj,brak informacji,brak informacji,blok,nie,brak informacji,brak informacji,brak informacji,wtórny
1,369 000 zł,55 m²,Sprzedam mieszkanie 55m2 (63m2),2,Zapytaj,Współrzędne dokładne,"ul. Marii Dąbrowskiej , Tarnów, Tarnów",50.0207,21.0162,4/4,Zapytaj,pełna własność,Zapytaj,Zapytaj,brak informacji,2002,blok,nie,brak informacji,brak informacji,cegła,wtórny
1,480 000 zł,34 m²,Kraków- Krowodrza- Juliusza Lea- al. Kijowska,1,do zamieszkania,Nieruchomość znajduje się w zaznaczonym obszarze mapy. Niestety ogłoszeniodawca nie wskazał dokładnego adresu.,"Stara Krowodrza, Kraków, Kraków",50.073926,19.91621,1/4,470 zł,pełna własność,Zapytaj,Zapytaj,brak informacji,1960,blok,nie,"telewizja kablowa, internet, telefon","drzwi / okna antywłamaniowe, domofon / wideofon",cegła,wtórny
1,759 000 zł,50 m²,"Kaskada, 2 pok, taras, komórka lok. w cenie",2,do zamieszkania,Współrzędne dokładne,"Kraków, Prądnik Czerwony, ul. Dobrego Pasterza",50.08884,19.97561,6/8,550 zł,pełna własność,balkon,Zapytaj,2023-04-01,2014,blok,nie,"telewizja kablowa, internet, telefon","teren zamknięty, domofon / wideofon",pustak,wtórny
1,759 000 zł,58 m²,"Umeblowane, wysoki standard, garaż + komórka lok.!",3,do zamieszkania,Współrzędne dokładne,"Kraków, Wola Duchacka, ul. Walerego Sławka",50.025382,19.960606,6/6,650 zł,pełna własność,balkon,garaż/miejsce parkingowe,brak informacji,2018,blok,tak,"telewizja kablowa, internet, telefon","drzwi / okna antywłamaniowe, teren zamknięty, domofon / wideofon, monitoring / ochrona",pustak,wtórny
1,950 000 zł,"103,53 m²","4 pok., klimatyzacja, 2 miejsca postojowe w cenie",4,do zamieszkania,Współrzędne dokładne,"ul. Na Piaski , Zielonki, krakowski",50.103875,19.923205,1/2,282 zł,pełna własność,"balkon, taras",garaż/miejsce parkingowe,brak informacji,2020,apartamentowiec,nie,internet,"system alarmowy, drzwi / okna antywłamaniowe, teren zamknięty, domofon / wideofon",cegła,wtórny
1,899 000 zł,72 m²,3 pok. przy Parku Jerzmanowskich • 72 m²,3,do zamieszkania,Współrzędne dokładne,"Podgórze, Kraków, Kraków",50.021319,19.995325,3/3,800 zł,pełna własność,balkon,garaż/miejsce parkingowe,2023-05-31,2014,blok,tak,brak informacji,monitoring / ochrona,brak informacji,wtórny
1,700 000 zł,42 m²,"Mieszkanie inwestycyjne 2 pok, widok na Tatry",2,Zapytaj,Współrzędne dokładne,"Zakopane, tatrzański, małopolskie",49.319416,19.989136,2,480 zł,Zapytaj,balkon,garaż/miejsce parkingowe,brak informacji,brak informacji,apartamentowiec,nie,brak informacji,brak informacji,brak informacji,wtórny
1,519 000 zł,"36,66 m²",Kraków- Krowodrza- al. Kijowska,1,do zamieszkania,Nieruchomość znajduje się w zaznaczonym obszarze mapy. Niestety ogłoszeniodawca nie wskazał dokładnego adresu.,"Stara Krowodrza, Kraków, Kraków",50.073926,19.91621,2/4,400 zł,pełna własność,balkon,Zapytaj,brak informacji,1960,blok,nie,"telewizja kablowa, internet, telefon",domofon / wideofon,cegła,wtórny
1,1 079 000 zł,89 m²,Kraków- Krowodrza- ul. Juliusza Lea,3,do zamieszkania,Nieruchomość znajduje się w zaznaczonym obszarze mapy. Niestety ogłoszeniodawca nie wskazał dokładnego adresu.,"Krowodrza, Kraków, Kraków",50.072152,19.906411,3/2,400 zł,pełna własność,Zapytaj,Zapytaj,brak informacji,1930,kamienica,nie,"telewizja kablowa, internet, telefon",domofon / wideofon,cegła,wtórny
1,420 000 zł,30 m²,Krowodrza Górka | 2 pokoje | Balkon,2,do zamieszkania,Współrzędne dokładne,"Kraków, Krowodrza, ul. Krowoderskich Zuchów",50.08801,19.930404,7/10,350 zł,pełna własność,Zapytaj,garaż/miejsce parkingowe,brak informacji,1972,blok,tak,brak informacji,monitoring / ochrona,wielka płyta,wtórny
1,399 000 zł,37 m²,Kozłówek - mieszkanie z potencjałem,2,Zapytaj,Nieruchomość znajduje się w zaznaczonym obszarze mapy. Niestety ogłoszeniodawca nie wskazał dokładnego adresu.,"Kraków, Kraków, małopolskie",50.0185,19.9815,2/4,Zapytaj,spółdzielcze wł. z KW,Zapytaj,Zapytaj,brak informacji,1970,blok,nie,"telefon, internet, telewizja kablowa",domofon / wideofon,pustak,wtórny
1,595 000 zł,63 m²,Apartament 63 m^2 | 3 sypialnie | Niepołomice,4,do zamieszkania,Współrzędne dokładne,"Niepołomice, wielicki, małopolskie",50.0231,20.20886,2/2,230 zł,pełna własność,balkon,garaż/miejsce parkingowe,2023-05-01,2021,apartamentowiec,nie,brak informacji,brak informacji,brak informacji,wtórny
1,1 218 250 zł,"54,4 m²",Wiślane Tarasy • Bezpośrednio • Do wejścia,2,do zamieszkania,Współrzędne dokładne,"Kraków, Grzegórzki, ul. Grzegórzecka 67D",50.054954,19.962016,3/7,470 zł,pełna własność,balkon,Zapytaj,brak informacji,brak informacji,apartamentowiec,nie,internet,"drzwi / okna antywłamaniowe, domofon / wideofon, monitoring / ochrona",beton,wtórny
1,263 500 zł,31 m²,do remontu | ul. Głowackiego 7 | zielona okolica,1,do remontu,Współrzędne dokładne,"ul. Tadeusza Kościuszki , Skawina, krakowski",49.967746,19.826035,1/4,360 zł,Zapytaj,Zapytaj,Zapytaj,brak informacji,1960,blok,nie,internet,brak informacji,brak informacji,wtórny
1,609 000 zł,48 m²,Bezpośrednio | 3pokoje | Balkon | Pachońskiego,3,do zamieszkania,Współrzędne dokładne,"Kraków, Prądnik Biały, ul. Henryka Pachońskiego",50.094238,19.925149,6/10,450 zł,pełna własność,balkon,Zapytaj,brak informacji,1980,blok,tak,brak informacji,"drzwi / okna antywłamaniowe, domofon / wideofon",wielka płyta,wtórny
1,255 000 zł,14 m²,Sprzedam mieszkanie,1,do zamieszkania,Współrzędne dokładne,"Kraków, Prądnik Biały, ul. Pleszowska",50.093293,19.936615,Zapytaj,Zapytaj,udział,balkon,Zapytaj,brak informacji,2022,blok,nie,"telewizja kablowa, internet","drzwi / okna antywłamaniowe, domofon / wideofon",pustak,wtórny
1,549 000 zł,46 m²,Kraków – Nowa Huta – os. Sportowe– 46 m2,3,do zamieszkania,Nieruchomość znajduje się w zaznaczonym obszarze mapy. Niestety ogłoszeniodawca nie wskazał dokładnego adresu.,"Nowa Huta, Kraków, Kraków",50.07707,20.02289,2/2,570 zł,pełna własność,balkon,garaż/miejsce parkingowe,brak informacji,1950,blok,nie,"telewizja kablowa, internet, telefon",domofon / wideofon,cegła,wtórny
1,1 999 000 zł,132 m²,Wyjątkowy Apartament-5m.postojowych,6,Zapytaj,Współrzędne dokładne,"Kraków, Bronowice, im. Władysława Łokietka",50.0993,19.909,parter/2,Zapytaj,pełna własność,"ogródek, taras",Zapytaj,2022-11-28,2022,apartamentowiec,nie,brak informacji,"teren zamknięty, domofon / wideofon",brak informacji,wtórny
1,1 395 000 zł,93 m²,"Mieszkanie 93 m2, 3 pokoje, Kraków Centrum",3,do zamieszkania,Współrzędne dokładne,"Kraków, Salwator, ul. gen. Tadeusza Kościuszki",50.053998,19.923655,1/3,282 zł,pełna własność,"balkon, ogródek",Zapytaj,brak informacji,1939,kamienica,nie,"telewizja kablowa, internet",monitoring / ochrona,cegła,wtórny
1,439 000 zł,"47,26 m²",Inwestycyjne 3 pokojowe mieszkanie | Bieńczyce,3,do remontu,Współrzędne dokładne,"Bieńczyce, Kraków, Kraków",50.08687,20.01082,3/4,500 zł,pełna własność,Zapytaj,Zapytaj,brak informacji,1970,brak informacji,nie,brak informacji,brak informacji,brak informacji,wtórny
1,247 000 zł,35 m²,"Mieszkanie, 35 m², Olkusz",2,Zapytaj,Współrzędne dokładne,"ul. Skalska , Olkusz, olkuski",50.279239,19.569897,1,450 zł,Zapytaj,balkon,Zapytaj,brak informacji,brak informacji,brak informacji,nie,internet,domofon / wideofon,cegła,wtórny
1,1 399 000 zł,"138,63 m²",Mieszkanie 6-pokojowe z najemcami w Bronowicach.,6,do zamieszkania,Współrzędne dokładne,"Kraków, Bronowice, ul. Wojciecha Halczyna",50.080047,19.905778,2/2,Zapytaj,pełna własność,ogródek,garaż/miejsce parkingowe,brak informacji,1930,kamienica,nie,internet,"teren zamknięty, domofon / wideofon",cegła,wtórny
1,235 000 zł,"20,28 m²",Ustawna kawalerka z balkonem 20m Grębałowska,1,do zamieszkania,Współrzędne dokładne,"Kraków, Grębałów, ul. Grębałowska",50.099426,20.0744,1/2,Zapytaj,Zapytaj,balkon,garaż/miejsce parkingowe,brak informacji,brak informacji,apartamentowiec,nie,"telewizja kablowa, internet","teren zamknięty, domofon / wideofon",pustak,wtórny
1,690 000 zł,75 m²,Mieszkanie w centrum Niepołomic,3,do zamieszkania,Współrzędne dokładne,"Ul. Rotmistrza Witolda Pileckiego , Niepołomice, wielicki",50.029506,20.220624,2/3,300 zł,pełna własność,balkon,garaż/miejsce parkingowe,brak informacji,brak informacji,blok,nie,"telewizja kablowa, internet","drzwi / okna antywłamaniowe, teren zamknięty, domofon / wideofon, monitoring / ochrona",brak informacji,wtórny
1,2 500 000 zł,150 m²,Góralski willa drewniana/ Antałówka /Bez prowizji!,4,do zamieszkania,Współrzędne dokładne,"ul. Droga na Antałówkę , Zakopane, tatrzański",49.288032,19.978079,1/1,1 000 zł,pełna własność,ogródek,garaż/miejsce parkingowe,brak informacji,1958,dom wolnostojący,nie,"telewizja kablowa, internet","system alarmowy, teren zamknięty, monitoring / ochrona",drewno,wtórny
1,728 000 zł,51 m²,"Jasne, pięknie wykończone w świetnej lokalizacji!!",2,do zamieszkania,Współrzędne dokładne,"Kraków, Krowodrza, ul. Wrocławska",50.077788,19.924889,8/9,434 zł,spółdzielcze wł. z KW,balkon,garaż/miejsce parkingowe,brak informacji,1970,blok,tak,brak informacji,domofon / wideofon,wielka płyta,wtórny
1,419 000 zł,"39,5 m²","39,5 m2*jasne z balkonem*parking*ul. Łokietka",1,do zamieszkania,Współrzędne dokładne,"Prądnik Biały, Kraków, Kraków",50.097033,19.91427,2/4,313 zł,Zapytaj,balkon,garaż/miejsce parkingowe,brak informacji,2014,blok,nie,"internet, telefon","teren zamknięty, domofon / wideofon",brak informacji,wtórny
1,1 799 900 zł,"90,5 m²",3 Pokoje Ul.Rakowicka 90m2 balkon parking,3,do zamieszkania,Współrzędne dokładne,"Kraków, Stare Miasto, ul. Rakowicka 20g",50.030386,19.932347,5/5,850 zł,pełna własność,balkon,garaż/miejsce parkingowe,brak informacji,2020,apartamentowiec,tak,"telewizja kablowa, internet, telefon","system alarmowy, drzwi / okna antywłamaniowe, teren zamknięty, domofon / wideofon, monitoring / ochrona, rolety antywłamaniowe",inne,wtórny
1,299 000 zł,"47,59 m²",2 pokoje mieszkanie obok Zamku w Nowym Wiśniczu,2,Zapytaj,Współrzędne dokładne,"Nowy Wiśnicz, bocheński, małopolskie",49.91292,20.461735,parter,280 zł,pełna własność,Zapytaj,Zapytaj,brak informacji,1950,blok,nie,brak informacji,brak informacji,cegła,wtórny
1,558 250 zł,55 m²,"Mieszkanie 3 pokoje, 55 m2, 2 balkony, Zielonki",3,do zamieszkania,Współrzędne dokładne,"ul. Na Popielówkę , Zielonki, krakowski",50.105616,19.917226,1/2,400 zł,pełna własność,balkon,Zapytaj,2023-07-15,2009,blok,nie,internet,brak informacji,cegła,wtórny
1,1 497 600 zł,72 m²,Mieszkanie z ogrodem i tarasem 72 m2 Piłsudskiego,3,do zamieszkania,Współrzędne dokładne,"Kraków, Stare Miasto, ul. marsz. Józefa Piłsudskiego",50.05895,19.926249,1/2,285 zł,pełna własność,"ogródek, taras",Zapytaj,2023-05-01,1990,kamienica,nie,"telewizja kablowa, internet",brak informacji,cegła,wtórny
1,7 350 000 zł,294 m²,"Apartament 300 m2, 1 poziom Stare Miasto!",6,do zamieszkania,Współrzędne dokładne,"Kraków, Stare Miasto, ul. marsz. Józefa Piłsudskiego",50.059164,19.926131,3/4,1 050 zł,pełna własność,balkon,Zapytaj,2023-07-01,1908,kamienica,tak,"telewizja kablowa, internet","system alarmowy, monitoring / ochrona",cegła,wtórny
1,479 000 zł,37 m²,Okazja!Ruczaj!2 Pokoje Z Balkonem! Garaż W Cenie!,2,do zamieszkania,Współrzędne dokładne,"Kraków, Ruczaj, ul. Chmieleniec",50.019178,19.898772,3/3,Zapytaj,Zapytaj,balkon,garaż/miejsce parkingowe,brak informacji,2001,apartamentowiec,nie,brak informacji,brak informacji,brak informacji,wtórny
1,849 300 zł,57 m²,"Krowodrza Wrocławska Friedleina, duży taras, garaż",2,Zapytaj,Współrzędne dokładne,"Kraków, Krowodrza, ul. Wrocławska",50.076064,19.931731,2/5,Zapytaj,pełna własność,taras,garaż/miejsce parkingowe,brak informacji,2014,apartamentowiec,tak,brak informacji,"system alarmowy, monitoring / ochrona",brak informacji,wtórny
1,925 000 zł,"51,09 m²",Jasne i otwarte 2 pokojowe mieszkanie koło parku,2,do zamieszkania,Współrzędne dokładne,"Kraków, Grzegórzki, ul. Stanisława Lema",50.06962,19.98788,4/4,600 zł,pełna własność,balkon,garaż/miejsce parkingowe,2023-03-20,2022,brak informacji,nie,brak informacji,brak informacji,brak informacji,wtórny
1,415 000 zł,28 m²,"Apartament w Zakopanem z widokiem na góry, basen",1,do zamieszkania,Współrzędne dokładne,"ul. Paryskich , Zakopane, tatrzański",49.296158,19.981865,2/3,Zapytaj,pełna własność,Zapytaj,Zapytaj,brak informacji,brak informacji,apartamentowiec,nie,brak informacji,brak informacji,brak informacji,wtórny
1,699 000 zł,"51,28 m²","Mieszkanie, 51,28 m², Kraków",3,do zamieszkania,Współrzędne dokładne,"Kraków, Prądnik Biały, ul. Zygmunta Glogera",50.101554,19.928064,1/4,500 zł,pełna własność,balkon,garaż/miejsce parkingowe,brak informacji,2022,blok,nie,"telewizja kablowa, internet, telefon","drzwi / okna antywłamaniowe, domofon / wideofon, monitoring / ochrona",inne,wtórny
1,890 000 zł,"41,3 m²","KAMERLANE mieszkanie 41,3 m2 ul. PIWNA 24- Kraków",2,do zamieszkania,Współrzędne dokładne,"Kraków, Stare Podgórze, ul. Piwna 24",50.04718,19.953743,2/6,300 zł,pełna własność,balkon,garaż/miejsce parkingowe,brak informacji,2006,apartamentowiec,tak,"telewizja kablowa, internet","domofon / wideofon, monitoring / ochrona",żelbet,wtórny
1,799 000 zł,"56,32 m²",3 pok/NOWE WYKOŃCZONE/56m2/Dobrego Pasterza,3,do zamieszkania,Współrzędne dokładne,"Kraków, Prądnik Czerwony, ul. Dobrego Pasterza",50.089637,19.978271,parter/4,Zapytaj,pełna własność,"ogródek, taras",garaż/miejsce parkingowe,brak informacji,2022,apartamentowiec,tak,"telewizja kablowa, internet","system alarmowy, drzwi / okna antywłamaniowe, teren zamknięty, domofon / wideofon",żelbet,wtórny
1,460 000 zł,38 m²,Kraków – Os. Podwawelskie – ul. Komandosów – 38 m2,2,do zamieszkania,Współrzędne dokładne,"Kraków, Dębniki, ul. Komandosów",50.042338,19.931128,4/4,Zapytaj,pełna własność,balkon,Zapytaj,brak informacji,brak informacji,blok,nie,"telewizja kablowa, internet, telefon","drzwi / okna antywłamaniowe, domofon / wideofon",wielka płyta,wtórny
1,597 000 zł,"46,8 m²",Trzypokojowe po remoncie przy parku,3,do zamieszkania,Współrzędne dokładne,"Kraków, Azory, ul. Tadeusza Makowskiego",50.088475,19.913633,parter/4,650 zł,pełna własność,Zapytaj,Zapytaj,brak informacji,1965,blok,nie,internet,monitoring / ochrona,brak informacji,wtórny
1,1 589 000 zł,73 m²,3-pokojowy Apartament ul. STAROWIŚLNA !KAZIMIERZ!,3,do zamieszkania,Współrzędne dokładne,"Kraków, Kazimierz, ul. Starowiślna 29",50.056075,19.945763,4/5,450 zł,pełna własność,"balkon, ogródek",Zapytaj,brak informacji,1931,kamienica,tak,"telewizja kablowa, internet, telefon","system alarmowy, drzwi / okna antywłamaniowe, domofon / wideofon, monitoring / ochrona, rolety antywłamaniowe",cegła,wtórny
1,890 000 zł,"58,72 m²","3-pokojowe mieszkanie na Zabłociu, brak Pcc",3,do zamieszkania,Nieruchomość znajduje się w zaznaczonym obszarze mapy. Niestety ogłoszeniodawca nie wskazał dokładnego adresu.,"Zabłocie, Kraków, Kraków",50.047193,19.970644,4/5,600 zł,pełna własność,balkon,garaż/miejsce parkingowe,brak informacji,2021,blok,tak,brak informacji,monitoring / ochrona,brak informacji,wtórny
1,740 000 zł,57 m²,Komfortowe mieszkanie - Podgórze ul. Myśliwska,2,do zamieszkania,Współrzędne dokładne,"Kraków, Płaszów, ul. Myśliwska",50.045309,19.992531,1/9,510 zł,pełna własność,balkon,garaż/miejsce parkingowe,brak informacji,2013,apartamentowiec,tak,internet,"teren zamknięty, domofon / wideofon",inne,wtórny
1,539 000 zł,"39,14 m²",Do wejścia/2pok/Prądnik Biały/Budynek2022/Bez PCC!,2,do zamieszkania,Współrzędne dokładne,"Kraków, Prądnik Biały, ul. Zygmunta Glogera",50.101554,19.928064,2/4,350 zł,pełna własność,balkon,Zapytaj,brak informacji,2022,blok,tak,"telewizja kablowa, internet, telefon","drzwi / okna antywłamaniowe, domofon / wideofon, monitoring / ochrona",inne,wtórny
1,559 000 zł,"45,56 m²",Gotowe do zamieszkania jasne mieszkanie 46m bezpoś,2,do zamieszkania,Współrzędne dokładne,"Kraków, Bieżanów-Prokocim, ul. Mariana Domagały",50.030645,20.051778,3/4,450 zł,pełna własność,balkon,Zapytaj,brak informacji,2021,blok,tak,brak informacji,"drzwi / okna antywłamaniowe, domofon / wideofon",brak informacji,wtórny
1,1 000 000 zł,"54,25 m²",Apartament Magnoliowy Ogród,3,do zamieszkania,Współrzędne dokładne,"Kraków, Wola Justowska, Magnoliowy Ogród",50.067402,19.879727,parter/1,Zapytaj,pełna własność,"ogródek, taras",garaż/miejsce parkingowe,brak informacji,brak informacji,dom wolnostojący,nie,brak informacji,domofon / wideofon,brak informacji,wtórny
1,579 000 zł,"39,25 m²",2-pok/Prądnik Biały/Piękne/Pod klucz/BEZ PCC!,2,do zamieszkania,Nieruchomość znajduje się w zaznaczonym obszarze mapy. Niestety ogłoszeniodawca nie wskazał dokładnego adresu.,"Prądnik Biały, Kraków, Kraków",50.09341,19.92886,1/4,350 zł,pełna własność,balkon,Zapytaj,brak informacji,2022,blok,tak,"telewizja kablowa, internet, telefon","drzwi / okna antywłamaniowe, domofon / wideofon",brak informacji,wtórny
1,570 000 zł,"68,19 m²","LOKAL INWESTYCYJNY ul. Chocimska 68 m2, 3 pokoje",3,do zamieszkania,Współrzędne dokładne,"Kraków, Krowodrza, ul. Chocimska",50.07007,19.915569,suterena/4,Zapytaj,pełna własność,ogródek,Zapytaj,2023-03-17,1920,kamienica,nie,internet,brak informacji,cegła,wtórny
1,513 444 zł,75 m²,3 pokojowy apartament Krzeszowice/Paczółtowice,3,do zamieszkania,Nieruchomość znajduje się w zaznaczonym obszarze mapy. Niestety ogłoszeniodawca nie wskazał dokładnego adresu.,"Krzeszowice, krakowski, małopolskie",50.13497,19.63131,1/1,Zapytaj,pełna własność,taras,garaż/miejsce parkingowe,brak informacji,2010,apartamentowiec,nie,internet,monitoring / ochrona,brak informacji,wtórny
1,337 000 zł,"35,5 m²",Mieszkanie po generalnym remoncie- os. Barskie,2,do zamieszkania,Współrzędne dokładne,"Nowy Sącz, Barskie, ul. Armii Krajowej",49.622972,20.714679,2/4,Zapytaj,spółdzielcze wł. z KW,balkon,Zapytaj,brak informacji,brak informacji,blok,nie,"telewizja kablowa, internet",domofon / wideofon,brak informacji,wtórny
1,629 000 zł,38 m²,"OKAZJA - Kazimierz!!! 38m2, 2 pokoje.",2,do zamieszkania,Współrzędne dokładne,"Kraków, Kazimierz, ul. Szeroka",50.052232,19.948125,parter/4,280 zł,pełna własność,Zapytaj,Zapytaj,brak informacji,1930,kamienica,nie,"telewizja kablowa, internet, telefon","drzwi / okna antywłamaniowe, teren zamknięty, domofon / wideofon, monitoring / ochrona, rolety antywłamaniowe",cegła,wtórny
1,1 800 000 zł,100 m²,KAZIMIERZ - najlepsza oferta -GARAZ - 2 mieszkania,5,do zamieszkania,Współrzędne dokładne,"Kraków, Kazimierz, ul. Szeroka",50.051632,19.948099,3/3,1 000 zł,pełna własność,"balkon, ogródek",garaż/miejsce parkingowe,brak informacji,2000,kamienica,nie,"telewizja kablowa, internet, telefon","system alarmowy, drzwi / okna antywłamaniowe, teren zamknięty, domofon / wideofon, monitoring / ochrona",cegła,wtórny
1,820 000 zł,67 m²,"Mieszkanie 3pok. 67m, taras, garaż, Prądnik ENG",3,do zamieszkania,Współrzędne dokładne,"Kraków, Prądnik Czerwony, ul. Dobrego Pasterza",50.089637,19.978271,8/10,Zapytaj,pełna własność,balkon,garaż/miejsce parkingowe,brak informacji,brak informacji,apartamentowiec,tak,"telewizja kablowa, internet, telefon","drzwi / okna antywłamaniowe, domofon / wideofon",brak informacji,wtórny
1,1 250 000 zł,52 m²,"Apartament, 2 sypialnie, spa, restauracja, bar",3,do zamieszkania,Współrzędne dokładne,"ul. Środkowa , Białka Tatrzańska, tatrzański",49.388011,20.105646,1/3,Zapytaj,pełna własność,balkon,garaż/miejsce parkingowe,brak informacji,2018,apartamentowiec,tak,"telewizja kablowa, internet","system alarmowy, drzwi / okna antywłamaniowe, domofon / wideofon, monitoring / ochrona",brak informacji,wtórny
1,719 000 zł,"48,3 m²","Nowe, wysoki standard. 3-pok - Osiedle Oficerskie.",3,do zamieszkania,Współrzędne dokładne,"Kraków, Grzegórzki, al. płk. Władysława Beliny-Prażmowskiego",50.070281,19.959236,3/9,750 zł,pełna własność,Zapytaj,Zapytaj,brak informacji,1965,blok,tak,"telewizja kablowa, internet",brak informacji,brak informacji,wtórny
1,339 000 zł,35 m²,"Dwa pokoje, GOTOWE, 30tys taniej niż deweloper!",2,Zapytaj,Współrzędne dokładne,"Wieliczka, wielicki, małopolskie",49.9964,20.0598,1/4,Zapytaj,pełna własność,balkon,Zapytaj,2022-09-01,2022,apartamentowiec,tak,telefon,"teren zamknięty, domofon / wideofon",pustak,wtórny
1,649 000 zł,"66,5 m²","HIT! 4 pokoje,dwa tarasy, klimatyzacja, bez PCC!!!",4,do zamieszkania,Nieruchomość znajduje się w zaznaczonym obszarze mapy. Niestety ogłoszeniodawca nie wskazał dokładnego adresu.,"Wieliczka, wielicki, małopolskie",49.99831,20.055497,parter/4,350 zł,pełna własność,"balkon, taras",garaż/miejsce parkingowe,brak informacji,2022,blok,tak,"telewizja kablowa, internet, telefon","drzwi / okna antywłamaniowe, teren zamknięty, domofon / wideofon, monitoring / ochrona",pustak,wtórny
1,650 000 zł,"35,2 m²",Apartament w najpiękniejszym zakątku Krakowa!!!,2,do zamieszkania,Współrzędne dokładne,"Kraków, Podgórze, ul. Nadwiślańska",50.046981,19.950935,1/4,360 zł,pełna własność,balkon,Zapytaj,brak informacji,1960,blok,nie,"telewizja kablowa, internet","teren zamknięty, domofon / wideofon",cegła,wtórny
1,899 000 zł,63 m²,"Mieszkanie 3pok, balkon, garaż, komórka lokatorska",3,do zamieszkania,Współrzędne dokładne,"Kraków, Prądnik Biały, ul. Pękowicka 37D",50.097071,19.918355,3/3,800 zł,pełna własność,balkon,garaż/miejsce parkingowe,brak informacji,2015,blok,tak,"telewizja kablowa, internet","drzwi / okna antywłamaniowe, teren zamknięty, domofon / wideofon, monitoring / ochrona",żelbet,wtórny
1,910 000 zł,44 m²,Apartament inwestycyjny idealny pod wynajem.,2,do zamieszkania,Współrzędne dokładne,"Zakopane, Kościelisko, czajki 10",49.29265,19.94067,parter/1,450 zł,pełna własność,balkon,garaż/miejsce parkingowe,brak informacji,brak informacji,apartamentowiec,nie,brak informacji,teren zamknięty,cegła,wtórny
1,699 000 zł,"77,31 m²","Przestronne, do wejścia, spokojna okolica Eng",4,Zapytaj,Współrzędne dokładne,"Kraków, Kliny-Zacisze, ul. Soroki",49.999763,19.898015,2/2,450 zł,pełna własność,balkon,Zapytaj,brak informacji,2001,blok,nie,brak informacji,brak informacji,brak informacji,wtórny
1,160 000 zł,14 m²,Sprzedam 14m2 | Kawalerka | 160 000 zł | Okazja,1,do wykończenia,Współrzędne dokładne,"Kraków, Łagiewniki-Borek Fałęcki, ul. Urocza",50.025224,19.939374,parter/2,50 zł,Zapytaj,ogródek,Zapytaj,brak informacji,2023,kamienica,nie,"telewizja kablowa, internet, telefon","teren zamknięty, domofon / wideofon",cegła,wtórny
1,963 641 zł,"29,29 m²",Luksusowy apartament z garażem Stare Miasto Kraków,1,do zamieszkania,Współrzędne dokładne,"Kraków, Stare Miasto, pl. Juliusza Kossaka",50.056857,19.928021,2/5,250 zł,pełna własność,Zapytaj,garaż/miejsce parkingowe,brak informacji,2021,apartamentowiec,tak,"telewizja kablowa, internet","drzwi / okna antywłamaniowe, teren zamknięty, domofon / wideofon, monitoring / ochrona",beton,wtórny
1,549 000 zł,"43,75 m²",Nowoczesne umeblowane / 2-pokoje / KLINY /,2,do zamieszkania,Współrzędne dokładne,"Kraków, Kliny-Zacisze, ul. Komuny Paryskiej",50.000827,19.891938,2/3,310 zł,pełna własność,Zapytaj,Zapytaj,brak informacji,2014,blok,tak,brak informacji,"drzwi / okna antywłamaniowe, domofon / wideofon",brak informacji,wtórny
1,549 000 zł,"43,75 m²",Nowoczesne umeblowane / 2-pokoje / KLINY /,2,do zamieszkania,Współrzędne dokładne,"Kraków, Kliny-Zacisze, ul. Komuny Paryskiej",50.000827,19.891938,2/3,310 zł,pełna własność,Zapytaj,Zapytaj,brak informacji,2014,blok,tak,brak informacji,"drzwi / okna antywłamaniowe, domofon / wideofon",brak informacji,wtórny
1,769 000 zł,"59,22 m²",Krowodrza / Prądnik Biały / 3 p. + 2 balk / 2010 r,3,do zamieszkania,Współrzędne dokładne,"Kraków, Krowodrza, ul. Pod Fortem",50.082577,19.922659,3/7,570 zł,pełna własność,balkon,garaż/miejsce parkingowe,brak informacji,2010,blok,tak,"telewizja kablowa, internet","drzwi / okna antywłamaniowe, domofon / wideofon",brak informacji,wtórny
1,608 000 zł,39 m²,"STARE MIASTO, ciche 39m2, Po remoncie. ŁOBZOWSKA",1,do zamieszkania,Nieruchomość znajduje się w zaznaczonym obszarze mapy. Niestety ogłoszeniodawca nie wskazał dokładnego adresu.,"Stare Miasto, Kraków, Kraków",50.07567,19.93084,1/4,240 zł,pełna własność,balkon,Zapytaj,brak informacji,1930,kamienica,nie,internet,domofon / wideofon,cegła,wtórny
1,749 000 zł,70 m²,Tajemnicze ogrody- nowa inwestycja w Zielonkach,3,do wykończenia,Współrzędne dokładne,"Zielonki, krakowski, małopolskie",50.118023,19.921007,parter/2,Zapytaj,pełna własność,taras,garaż/miejsce parkingowe,brak informacji,2023,apartamentowiec,nie,telewizja kablowa,"system alarmowy, drzwi / okna antywłamaniowe, teren zamknięty, domofon / wideofon",pustak,wtórny
1,939 000 zł,"120,6 m²",Tajemnicze ogrody- nowa inwestycja w Zielonkach,3,do wykończenia,Współrzędne dokładne,"Zielonki, krakowski, małopolskie",50.118023,19.921007,parter/2,Zapytaj,pełna własność,taras,garaż/miejsce parkingowe,brak informacji,2023,apartamentowiec,nie,telewizja kablowa,"system alarmowy, drzwi / okna antywłamaniowe, teren zamknięty, domofon / wideofon",pustak,wtórny
1,749 900 zł,"59,42 m²",3 pokoje/Ogródek 134 m2/Nowy budynek/Garaż/Hit,3,do zamieszkania,Współrzędne dokładne,"Kraków, Nowa Huta, os. Piastów",50.103355,20.015844,parter/9,600 zł,pełna własność,Zapytaj,garaż/miejsce parkingowe,brak informacji,2022,blok,tak,brak informacji,monitoring / ochrona,brak informacji,wtórny
1,1 460 000 zł,75 m²,Nowy słoneczny cichy kom garaż Eko Park 2022r,3,do zamieszkania,Współrzędne dokładne,"Kraków, Krowodrza, ul. Jana Buszka",50.068413,19.895252,2/4,800 zł,pełna własność,"taras, ogródek",garaż/miejsce parkingowe,brak informacji,2022,apartamentowiec,tak,brak informacji,"system alarmowy, monitoring / ochrona, domofon / wideofon",inne,wtórny
1,830 000 zł,"62,58 m²",Bardzo jasne 3 pok. 63 m2 | 2016 | garaż,3,do zamieszkania,Współrzędne dokładne,"Kraków, Prądnik Biały, ul. Piaskowa",50.093259,19.900422,1/3,740 zł,pełna własność,taras,garaż/miejsce parkingowe,brak informacji,2016,apartamentowiec,tak,brak informacji,domofon / wideofon,inne,wtórny
1,1 200 000 zł,"94,75 m²",Piękny słoneczny 2 poziomy Prądnik Biały Zielonki,4,do zamieszkania,Współrzędne dokładne,"Kraków, Prądnik Biały, Na Popielówkę",50.106438,19.916925,1/2,Zapytaj,pełna własność,"taras, balkon",garaż/miejsce parkingowe,brak informacji,2019,apartamentowiec,nie,brak informacji,domofon / wideofon,pustak,wtórny
1,1 029 000 zł,"93,13 m²",Słoneczny cichy 4pok taras balkon komórka 2xgaraż,4,do zamieszkania,Współrzędne dokładne,"Kraków, Prądnik Czerwony, ul. Chlebowa",50.089628,19.960055,6/6,Zapytaj,pełna własność,"taras, balkon",garaż/miejsce parkingowe,brak informacji,2013,apartamentowiec,tak,brak informacji,domofon / wideofon,inne,wtórny
1,3 799 000 zł,"141,3 m²",5pokojowy zadbany w pięknej kamienicy Plac Biskupi,5,do zamieszkania,Współrzędne dokładne,"Kraków, Stare Miasto, ul. Biskupia",50.067589,19.934996,1/3,Zapytaj,pełna własność,Zapytaj,garaż/miejsce parkingowe,brak informacji,1913,kamienica,nie,brak informacji,domofon / wideofon,cegła,wtórny
1,1 440 000 zł,74 m²,Nowy luksusowy cichy taras kom garaż bez 2%pcc,3,do zamieszkania,Współrzędne dokładne,"Kraków, Krowodrza, ul. Jana Buszka",50.068413,19.895252,parter/4,800 zł,pełna własność,"taras, ogródek",garaż/miejsce parkingowe,brak informacji,2022,apartamentowiec,tak,brak informacji,"system alarmowy, monitoring / ochrona, domofon / wideofon",inne,wtórny
1,859 000 zł,"78,16 m²",Przestronne 3 pok. | garderoba | garaż,3,do zamieszkania,Współrzędne dokładne,"Kraków, Prądnik Biały, ul. Józefa Chełmońskiego",50.090419,19.905789,1/2,630 zł,pełna własność,balkon,garaż/miejsce parkingowe,brak informacji,2008,blok,nie,brak informacji,domofon / wideofon,cegła,wtórny
1,1 440 000 zł,74 m²,Nowy luksusowy cichy taras kom garaż bez 2%pcc,3,do zamieszkania,Współrzędne dokładne,"Kraków, Bronowice, ul. Stanisława Przybyszewskiego",50.0685,19.894221,parter/4,800 zł,Zapytaj,"taras, ogródek",garaż/miejsce parkingowe,brak informacji,2022,apartamentowiec,tak,brak informacji,"system alarmowy, monitoring / ochrona, domofon / wideofon",inne,wtórny
1,1 100 000 zł,"68,5 m²",Nowe wysoki standard garaż komórka Kompozytorów,3,do zamieszkania,Współrzędne dokładne,"ul. Kompozytorów , Kraków, Kraków",50.084469,19.887693,5/6,700 zł,pełna własność,balkon,garaż/miejsce parkingowe,brak informacji,2022,apartamentowiec,tak,brak informacji,"monitoring / ochrona, domofon / wideofon",inne,wtórny
1,719 000 zł,36 m²,Nowoczesny nowy słoneczny garaż bez 2%podatkupcc,1,do zamieszkania,Współrzędne dokładne,"Kraków, Grzegórzki, ul. Cystersów",50.065177,19.967127,1/8,450 zł,pełna własność,balkon,garaż/miejsce parkingowe,brak informacji,2022,apartamentowiec,tak,brak informacji,"monitoring / ochrona, domofon / wideofon",inne,wtórny
1,599 000 zł,53 m²,Jasne 3 pokoje komórka miejsca parkingowe Ruczaj,3,do zamieszkania,Współrzędne dokładne,"Kraków, Dębniki, ul. Czerwone Maki",50.015831,19.887417,1/7,500 zł,pełna własność,balkon,garaż/miejsce parkingowe,brak informacji,2006,blok,tak,brak informacji,domofon / wideofon,inne,wtórny
1,970 000 zł,"58,71 m²","Wyjątkowa panorama, wykończone, 3pok 57,8m tramwaj",3,do wykończenia,Współrzędne dokładne,"Kraków, Bronowice, ul. Stańczyka",50.078303,19.892618,> 10/14,Zapytaj,pełna własność,Zapytaj,garaż/miejsce parkingowe,brak informacji,2022,blok,tak,brak informacji,domofon / wideofon,beton,wtórny
1,795 000 zł,"103,42 m²","Przestronne mieszkanie - Kraków, Piekary",3,do zamieszkania,Nieruchomość znajduje się w zaznaczonym obszarze mapy. Niestety ogłoszeniodawca nie wskazał dokładnego adresu.,"Piekary, krakowski, małopolskie",50.0211,19.79746,Zapytaj,Zapytaj,pełna własność,"balkon, ogródek, taras",garaż/miejsce parkingowe,brak informacji,2018,apartamentowiec,nie,internet,"drzwi / okna antywłamaniowe, teren zamknięty, domofon / wideofon",cegła,wtórny
1,135 000 zł,"14,9 m²",Kawalerka | 2 piętro | Ruczaj | kampus UJ,1,do wykończenia,Współrzędne dokładne,"Kraków, Ruczaj, ul. Pastelowa",50.024628,19.913441,2/2,Zapytaj,Zapytaj,Zapytaj,garaż/miejsce parkingowe,brak informacji,brak informacji,apartamentowiec,nie,"telewizja kablowa, internet, telefon","teren zamknięty, domofon / wideofon",pustak,wtórny
1,169 000 zł,"20,81 m²",Kawalerka | Bronowice | Cicha okolica,1,do wykończenia,Współrzędne dokładne,"Kraków, Bronowice Małe, ul. Na Błonie",50.077182,19.880146,parter/3,Zapytaj,Zapytaj,Zapytaj,garaż/miejsce parkingowe,brak informacji,brak informacji,apartamentowiec,nie,"telewizja kablowa, internet, telefon","teren zamknięty, domofon / wideofon",pustak,wtórny
1,199 000 zł,"19,7 m²",Ustawna kawalerka | Ruczaj | inwestycja| NOWA CENA,1,do wykończenia,Współrzędne dokładne,"Kraków, Ruczaj, ul. Podhalańska",50.021735,19.917285,parter/2,Zapytaj,Zapytaj,Zapytaj,Zapytaj,brak informacji,brak informacji,apartamentowiec,nie,"telewizja kablowa, internet, telefon","teren zamknięty, domofon / wideofon",pustak,wtórny
1,320 000 zł,25 m²,Mieszkanie kawalerka w Krynicy -Zdroju 25m2,1,do zamieszkania,Współrzędne dokładne,"ul. Czarny Potok , Krynica-Zdrój, nowosądecki",49.413254,20.929047,3/3,130 zł,pełna własność,balkon,garaż/miejsce parkingowe,brak informacji,brak informacji,blok,nie,"telewizja kablowa, internet","teren zamknięty, domofon / wideofon",cegła,wtórny
1,339 000 zł,"29,75 m²","Mieszkanie, 29,75 m², Kraków",2,Zapytaj,Współrzędne dokładne,"Borek Fałęcki, Kraków, Kraków",50.014258,19.91733,1/2,515 zł,pełna własność,balkon,Zapytaj,brak informacji,1950,blok,nie,brak informacji,brak informacji,cegła,wtórny
1,529 000 zł,70 m²,Mieszkanie z Ogródkiem Bezczynszowe 70 m2,3,do zamieszkania,Nieruchomość znajduje się w zaznaczonym obszarze mapy. Niestety ogłoszeniodawca nie wskazał dokładnego adresu.,"Tarnów, Tarnów, małopolskie",50.04567,20.99642,parter/1,Zapytaj,pełna własność,"ogródek, taras",garaż/miejsce parkingowe,brak informacji,brak informacji,szeregowiec,nie,"telewizja kablowa, internet","drzwi / okna antywłamaniowe, domofon / wideofon, rolety antywłamaniowe",brak informacji,wtórny
1,960 000 zł,"70,73 m²",MIeszkanie do wejścia 3 lub 4 pokoje,3,do zamieszkania,Współrzędne dokładne,"Kraków, Prądnik Biały, ul. Stefana Banacha",50.101812,19.961217,parter/5,757 zł,pełna własność,"ogródek, taras",garaż/miejsce parkingowe,brak informacji,2021,blok,tak,"telewizja kablowa, internet","drzwi / okna antywłamaniowe, domofon / wideofon, rolety antywłamaniowe",beton komórkowy,wtórny
1,520 000 zł,43 m²,Mieszkanie 2 pokojowe z ogródkiem-Prądnik Czerwony,2,do zamieszkania,Współrzędne dokładne,"Kraków, Prądnik Czerwony, ul. Józefa Łepkowskiego",50.088204,19.96357,parter/6,400 zł,Zapytaj,ogródek,garaż/miejsce parkingowe,brak informacji,2014,blok,tak,brak informacji,brak informacji,cegła,wtórny
1,345 000 zł,"74,71 m²","Mieszkanie rodzinne 4-pokojowe Bukowno 74,71m2",4,do zamieszkania,Współrzędne dokładne,"ul. Szkolna , Bukowno, olkuski",50.267078,19.467576,3/4,800 zł,pełna własność,balkon,Zapytaj,brak informacji,brak informacji,blok,nie,"telewizja kablowa, internet",brak informacji,wielka płyta,wtórny
1,773 000 zł,63 m²,Mieszkanie 3 pokojowe-Podgórze Duchackie,3,do zamieszkania,Współrzędne dokładne,"Kraków, Podgórze Duchackie, ul. Adama Bochenka",50.010927,19.974232,7/8,580 zł,pełna własność,balkon,garaż/miejsce parkingowe,brak informacji,2015,blok,tak,brak informacji,monitoring / ochrona,cegła,wtórny
1,690 000 zł,63 m²,Mieszkanie 3 pokojowe -Płaszów ul. Lipska,3,do zamieszkania,Współrzędne dokładne,"Kraków, Podgórze, ul. Lipska",50.039855,19.999962,4/4,600 zł,pełna własność,Zapytaj,Zapytaj,brak informacji,1994,brak informacji,nie,brak informacji,brak informacji,brak informacji,wtórny
1,775 000 zł,"86,01 m²",Mieszkanie 4 pokojowe-Wieliczka,4,do zamieszkania,Współrzędne dokładne,"os. Tadeusza Kościuszki , Wieliczka, wielicki",49.993856,20.041857,3/3,550 zł,pełna własność,balkon,garaż/miejsce parkingowe,brak informacji,2012,blok,nie,brak informacji,brak informacji,brak informacji,wtórny
1,570 000 zł,52 m²,Mieszkanie 2 pokojowe Śródmieście,2,do zamieszkania,Współrzędne dokładne,"Kraków, Prądnik Czerwony, ul. Macieja Miechowity",50.08364,19.96976,3/4,450 zł,pełna własność,Zapytaj,Zapytaj,brak informacji,1974,blok,nie,brak informacji,brak informacji,brak informacji,wtórny
1,500 000 zł,48 m²,Mieszkanie 2 pokojowe-Prokocim,2,do zamieszkania,Współrzędne dokładne,"Kraków, Bieżanów-Prokocim, ul. Podłęska",50.008717,20.013196,parter/4,450 zł,pełna własność,balkon,garaż/miejsce parkingowe,brak informacji,2004,blok,nie,brak informacji,brak informacji,brak informacji,wtórny
1,379 000 zł,"55,58 m²","Piękne duże ustawne ,po remoncie w centrum Tarnowa",2,do zamieszkania,Nieruchomość znajduje się w zaznaczonym obszarze mapy. Niestety ogłoszeniodawca nie wskazał dokładnego adresu.,"Tarnów, Tarnów, małopolskie",50.04567,20.99642,1/2,263 zł,pełna własność,balkon,Zapytaj,brak informacji,brak informacji,kamienica,nie,brak informacji,domofon / wideofon,cegła,wtórny
1,399 000 zł,48 m²,"Najpiękniejsze mieszkanie w Chrzanowie, 48 m2",3,do zamieszkania,Nieruchomość znajduje się w zaznaczonym obszarze mapy. Niestety ogłoszeniodawca nie wskazał dokładnego adresu.,"Chrzanów, chrzanowski, małopolskie",50.13958,19.40482,2/2,Zapytaj,spółdzielcze własnościowe,balkon,Zapytaj,brak informacji,1956,blok,nie,brak informacji,domofon / wideofon,cegła,wtórny
1,719 000 zł,"48,3 m²","⭐ Mieszkanie 3 pok. 48,3m2 Osiedle Oficerskie",3,do zamieszkania,Współrzędne dokładne,"Kraków, Grzegórzki, al. płk. Władysława Beliny-Prażmowskiego",50.07374,19.95921,3/9,600 zł,pełna własność,Zapytaj,Zapytaj,brak informacji,1968,blok,tak,"telewizja kablowa, internet, telefon",domofon / wideofon,inne,wtórny
1,954 000 zł,66 m²,3 pokojowe mieszkanie z ogródkiem ! Bronowice!,3,do zamieszkania,Współrzędne dokładne,"Kraków, Bronowice Wielkie, ul. Stawowa",50.095695,19.888897,parter/3,860 zł,pełna własność,ogródek,garaż/miejsce parkingowe,brak informacji,2016,blok,tak,"telewizja kablowa, internet","drzwi / okna antywłamaniowe, teren zamknięty, domofon / wideofon, rolety antywłamaniowe",pustak,wtórny
1,555 000 zł,48 m²,"Kraków, Płaszów, Przewóz, 48m2, 2 pokoje,urządzone",2,do zamieszkania,Współrzędne dokładne,"Kraków, Podgórze, ul. Przewóz",50.042421,19.990743,parter/6,Zapytaj,pełna własność,Zapytaj,garaż/miejsce parkingowe,brak informacji,2012,apartamentowiec,tak,"telewizja kablowa, internet","drzwi / okna antywłamaniowe, teren zamknięty, domofon / wideofon",cegła,wtórny
1,449 000 zł,46 m²,"Mieszkanie, 46m², Skawina",2,do zamieszkania,Współrzędne dokładne,"ul. Słoneczna , Skawina, krakowski",49.970296,19.831625,parter/4,700 zł,spółdzielcze własnościowe,balkon,Zapytaj,brak informacji,1972,blok,nie,"telewizja kablowa, internet","drzwi / okna antywłamaniowe, domofon / wideofon",brak informacji,wtórny
1,480 000 zł,"41,03 m²",Nowoczesne mieszkanie na spokojnym osiedlu,2,do zamieszkania,Nieruchomość znajduje się w zaznaczonym obszarze mapy. Niestety ogłoszeniodawca nie wskazał dokładnego adresu.,"Wieliczka, wielicki, małopolskie",49.987363,20.041264,4/4,120 zł,pełna własność,balkon,Zapytaj,brak informacji,2017,blok,tak,"telewizja kablowa, internet, telefon","teren zamknięty, domofon / wideofon, monitoring / ochrona",cegła,wtórny
1,557 000 zł,"39,54 m²","Ugorek , 2 pokoje , jasna kuchnia , balkon , I p",2,do zamieszkania,Współrzędne dokładne,"Kraków, Grzegórzki, ul. Ułanów",50.081608,19.978324,1/3,540 zł,pełna własność,balkon,Zapytaj,brak informacji,2001,blok,nie,"telewizja kablowa, internet","drzwi / okna antywłamaniowe, teren zamknięty, domofon / wideofon",inne,wtórny
1,399 000 zł,"37,1 m²","2 pokoje plus kuchnia, Kozłówek do remontu,ustawne",2,do wykończenia,Współrzędne dokładne,"Kraków, Podgórze, ul. Na Kozłówce",50.017697,19.984082,2/4,350 zł,spółdzielcze wł. z KW,Zapytaj,garaż/miejsce parkingowe,2023-05-12,1969,blok,nie,brak informacji,"monitoring / ochrona, domofon / wideofon",wielka płyta,wtórny
1,479 000 zł,"45,15 m²","mieszkanie z 2 osobnymi pokojami, stacja Płaszów",2,do zamieszkania,Współrzędne dokładne,"Kraków, Podgórze, ul. Wielicka",50.03319,19.97464,parter/4,550 zł,pełna własność,Zapytaj,Zapytaj,brak informacji,1980,blok,nie,brak informacji,brak informacji,brak informacji,wtórny
1,519 000 zł,"40,09 m²","Mieszkanie na sprzedaż,Kraków-Grzegórzki,ul.Dąbska",1,Zapytaj,Współrzędne dokładne,"Kraków, Dąbie, ul. Dąbska",50.0691,19.9839,2/5,Zapytaj,pełna własność,Zapytaj,Zapytaj,2022-09-21,2012,blok,tak,brak informacji,domofon / wideofon,cegła,wtórny
1,740 000 zł,56 m²,Sprzedaż mieszkania,3,do zamieszkania,Współrzędne dokładne,"Kraków, Krowodrza, ul. Krowoderskich Zuchów",50.08893,19.926615,4/4,600 zł,pełna własność,balkon,garaż/miejsce parkingowe,brak informacji,1990,blok,nie,"telewizja kablowa, internet","teren zamknięty, domofon / wideofon, monitoring / ochrona",inne,wtórny
1,650 000 zł,"52,4 m²",3 pokoje 52m2 Prądnik Biały pewny najem przez rok,3,do zamieszkania,Współrzędne dokładne,"Kraków, Prądnik Biały, ul. Henryka Pachońskiego",50.093439,19.924044,3/11,Zapytaj,pełna własność,balkon,Zapytaj,brak informacji,1971,blok,tak,"telewizja kablowa, internet",domofon / wideofon,wielka płyta,wtórny
1,239 000 zł,"46,49 m²",Sobieskiego / 2 pokoje / niski blok,2,do remontu,Współrzędne dokładne,"ul. Jana III Sobieskiego , Oświęcim, oświęcimski",50.031131,19.237897,2/2,450 zł,pełna własność,Zapytaj,Zapytaj,brak informacji,brak informacji,blok,nie,brak informacji,domofon / wideofon,brak informacji,wtórny
1,699 000 zł,56 m²,"Nowe, przestronne mieszkanie na Prądniku Białym",2,do zamieszkania,Współrzędne dokładne,"Kraków, Prądnik Biały, ul. Bociana",50.093964,19.957038,6/7,360 zł,spółdzielcze własnościowe,balkon,Zapytaj,2023-05-08,2017,apartamentowiec,tak,"telewizja kablowa, internet, telefon",brak informacji,brak informacji,wtórny
1,1 195 000 zł,"62,13 m²",Dwupak inwestycyjny z najemcami Starowiślna 62 m²,2,do zamieszkania,Współrzędne dokładne,"Kazimierz, Kraków, Kraków",50.051,19.945,4/4,550 zł,pełna własność,Zapytaj,Zapytaj,2023-05-31,2022,apartamentowiec,tak,brak informacji,monitoring / ochrona,cegła,wtórny
1,1 440 000 zł,81 m²,Piękne funkcjonalne mieszkanie z widokiem na park,4,do zamieszkania,Współrzędne dokładne,"Kraków, Prądnik Czerwony, ul. Dobrego Pasterza",50.089637,19.978271,1/3,900 zł,pełna własność,balkon,garaż/miejsce parkingowe,brak informacji,2022,apartamentowiec,tak,"telewizja kablowa, internet, telefon",domofon / wideofon,brak informacji,wtórny
1,509 000 zł,38 m²,Mieszkanie 2 pokoje | 38 mkw | idealne dla młodych,2,do zamieszkania,Nieruchomość znajduje się w zaznaczonym obszarze mapy. Niestety ogłoszeniodawca nie wskazał dokładnego adresu.,"Kozłówek, Kraków, Kraków",50.017434,19.979488,6/10,500 zł,spółdzielcze wł. z KW,Zapytaj,Zapytaj,brak informacji,1980,blok,tak,brak informacji,brak informacji,brak informacji,wtórny
1,795 000 zł,65 m²,3 Pokoje/Oddzielna Kuchnia / Widokowe / Bagry,3,do wykończenia,Współrzędne dokładne,"Kraków, Płaszów, ul. Bagrowa",50.03591,20.00075,4/4,Zapytaj,pełna własność,"balkon, taras",garaż/miejsce parkingowe,2023-04-15,2022,apartamentowiec,tak,"telewizja kablowa, internet","drzwi / okna antywłamaniowe, domofon / wideofon, monitoring / ochrona",pustak,wtórny
1,610 000 zł,"54,22 m²",Bezpośrednio al. Jana Pawła II - mieszkanie,2,do zamieszkania,Współrzędne dokładne,"Kraków, Czyżyny, al. Jana Pawła II",50.073738,20.006326,1/7,"556,63 zł",pełna własność,balkon,garaż/miejsce parkingowe,brak informacji,2012,blok,tak,"telewizja kablowa, internet","drzwi / okna antywłamaniowe, domofon / wideofon",cegła,wtórny
