option,prize,surface,offer name,rooms ,standard,localization_info,localization_name,latitude,longitude,floor_number,rental_cost,form_of_property,extras,garage,availability,year_of_construction,type_of_building,elevator,media,security,building_material,market
1,570 000 zł,"38,39 m²",Sokolska 30 Towers Katowice NOWE WYPOSAŻONE 38m2,2,do zamieszkania,Współrzędne dokładne,"Katowice, Śródmieście, ul. Sokolska",50.265389,19.018756,9/17,Zapytaj,pełna własność,balkon,Zapytaj,brak informacji,2021,apartamentowiec,tak,brak informacji,"drzwi / okna antywłamaniowe, domofon / wideofon, monitoring / ochrona",brak informacji,wtórny
1,279 000 zł,56 m²,K-ce Zadole 3 niezależne p. osobno kuchnia balkon,3,do remontu,Współrzędne dokładne,"Katowice, Ligota, ul. Zadole",50.21926,18.976105,6/10,600 zł,spółdzielcze własnościowe,balkon,Zapytaj,brak informacji,brak informacji,blok,tak,brak informacji,domofon / wideofon,wielka płyta,wtórny
1,199 000 zł,38 m²,"Mieszkanie do remontu 2 pokoje, 2p. - bezpośrednio",2,do remontu,Współrzędne dokładne,"Gliwice, Zatorze, ul. Chorzowska 17",50.298308,18.697656,2/11,515 zł,pełna własność,Zapytaj,Zapytaj,brak informacji,1970,blok,tak,"telewizja kablowa, internet, telefon","domofon / wideofon, monitoring / ochrona",wielka płyta,wtórny
1,315 000 zł,"44,8 m²",Katowice Brynów Ul. Brynowska. 2 Pokoje + Kuchnia!,2,do zamieszkania,Współrzędne dokładne,"Katowice, Brynów, ul. Brynowska",50.232567,18.99501,> 10/11,702 zł,pełna własność,balkon,Zapytaj,brak informacji,1975,blok,tak,"telewizja kablowa, internet, telefon",brak informacji,brak informacji,wtórny
1,299 000 zł,48 m²,"Po remoncie z kuchnią, piękny widok, 3 pokoje",3,do zamieszkania,Współrzędne dokładne,"ul. Chałupki , Chorzów, Chorzów",50.298226,18.94067,10/10,560 zł,spółdzielcze wł. z KW,balkon,Zapytaj,brak informacji,brak informacji,blok,tak,telewizja kablowa,domofon / wideofon,wielka płyta,wtórny
1,119 900 zł,"50,03 m²","Mieszkanie, 50,03 m², Świętochłowice Chropaczów",1,do remontu,Współrzędne dokładne,"Chropaczów, Świętochłowice, Świętochłowice",50.31435,18.915146,2/2,592 zł,pełna własność,Zapytaj,Zapytaj,brak informacji,1902,kamienica,nie,brak informacji,"drzwi / okna antywłamaniowe, domofon / wideofon",cegła,wtórny
1,299 000 zł,"31,67 m²","Mieszkanie, 31,67 m², Bielsko-Biała",2,do wykończenia,Nieruchomość znajduje się w zaznaczonym obszarze mapy. Niestety ogłoszeniodawca nie wskazał dokładnego adresu.,"Centrum, Bielsko-Biała, Bielsko-Biała",49.82238,19.05838,2/2,Zapytaj,pełna własność,balkon,garaż/miejsce parkingowe,brak informacji,2021,apartamentowiec,nie,"internet, telefon",brak informacji,cegła,wtórny
1,520 000 zł,"49,2 m²","Mieszkanie, 49,20 m², Bielsko-Biała",2,do zamieszkania,Nieruchomość znajduje się w zaznaczonym obszarze mapy. Niestety ogłoszeniodawca nie wskazał dokładnego adresu.,"Bielsko-Biała, Bielsko-Biała, śląskie",49.82198,19.05043,1/4,460 zł,Zapytaj,balkon,garaż/miejsce parkingowe,brak informacji,2017,apartamentowiec,tak,"telewizja kablowa, internet",brak informacji,cegła,wtórny
1,359 000 zł,60 m²,3pokoje po remoncie,3,Zapytaj,Nieruchomość znajduje się w zaznaczonym obszarze mapy. Niestety ogłoszeniodawca nie wskazał dokładnego adresu.,"Błeszno, Częstochowa, Częstochowa",50.76,19.15,4/4,900 zł,Zapytaj,balkon,Zapytaj,brak informacji,brak informacji,blok,nie,brak informacji,brak informacji,brak informacji,wtórny
1,370 000 zł,65 m²,3 pokoje na Parkitce,3,Zapytaj,Nieruchomość znajduje się w zaznaczonym obszarze mapy. Niestety ogłoszeniodawca nie wskazał dokładnego adresu.,"Parkitka, Częstochowa, Częstochowa",50.82584,19.10368,3/4,600 zł,pełna własność,balkon,Zapytaj,brak informacji,brak informacji,blok,nie,brak informacji,brak informacji,brak informacji,wtórny
1,735 300 zł,110 m²,Nowe mieszkania w stanie deweloperskim z windą,4,do wykończenia,Nieruchomość znajduje się w zaznaczonym obszarze mapy. Niestety ogłoszeniodawca nie wskazał dokładnego adresu.,"Raków, Częstochowa, Częstochowa",50.77786,19.15843,poddasze/3,520 zł,pełna własność,balkon,Zapytaj,brak informacji,2024,blok,tak,brak informacji,brak informacji,brak informacji,wtórny
1,398 000 zł,71 m²,"Mieszkanie, 71 m², Częstochowa",3,do zamieszkania,Nieruchomość znajduje się w zaznaczonym obszarze mapy. Niestety ogłoszeniodawca nie wskazał dokładnego adresu.,"Centrum, Częstochowa, Częstochowa",50.81193,19.10778,3/3,Zapytaj,Zapytaj,Zapytaj,Zapytaj,brak informacji,brak informacji,kamienica,nie,brak informacji,brak informacji,brak informacji,wtórny
1,398 000 zł,71 m²,"Mieszkanie, 71 m², Częstochowa",3,do zamieszkania,Nieruchomość znajduje się w zaznaczonym obszarze mapy. Niestety ogłoszeniodawca nie wskazał dokładnego adresu.,"Centrum, Częstochowa, Częstochowa",50.81193,19.10778,3/3,Zapytaj,Zapytaj,Zapytaj,Zapytaj,brak informacji,brak informacji,kamienica,nie,brak informacji,brak informacji,brak informacji,wtórny
1,249 000 zł,36 m²,"niespotykane ,dwupokojowe do wprowadzenia",2,Zapytaj,Nieruchomość znajduje się w zaznaczonym obszarze mapy. Niestety ogłoszeniodawca nie wskazał dokładnego adresu.,"Zawodzie - Dąbie, Częstochowa, Częstochowa",50.71579,19.17093,1/4,520 zł,pełna własność,balkon,Zapytaj,brak informacji,brak informacji,blok,nie,brak informacji,brak informacji,brak informacji,wtórny
1,385 000 zł,"60,5 m²",3 pokoje z widokiem,3,Zapytaj,Nieruchomość znajduje się w zaznaczonym obszarze mapy. Niestety ogłoszeniodawca nie wskazał dokładnego adresu.,"Wrzosowiak, Częstochowa, Częstochowa",50.7775,19.13818,9/10,650 zł,pełna własność,balkon,Zapytaj,brak informacji,brak informacji,brak informacji,nie,brak informacji,brak informacji,brak informacji,wtórny
1,345 000 zł,"45,8 m²",2 pokojowe po Remoncie,2,do zamieszkania,Nieruchomość znajduje się w zaznaczonym obszarze mapy. Niestety ogłoszeniodawca nie wskazał dokładnego adresu.,"Tychy, Tychy, śląskie",50.12707,18.9824,4/4,Zapytaj,pełna własność,balkon,Zapytaj,brak informacji,brak informacji,blok,nie,brak informacji,brak informacji,brak informacji,wtórny
1,99 000 zł,20 m²,Wiele mieszkań różne metraże Nowa Inwestycja,2,do remontu,Współrzędne dokładne,"Chorzów, Chorzów, śląskie",50.303677,18.95138,2/2,Zapytaj,pełna własność,Zapytaj,Zapytaj,brak informacji,1970,blok,tak,"telewizja kablowa, internet",monitoring / ochrona,cegła,wtórny
1,290 000 zł,36 m²,2 pok Po Remoncie Nowa Kuchnia+Sprzęty AGD Balkon,2,do zamieszkania,Współrzędne dokładne,"Katowice, Osiedle Witosa, ul. Stanisława Kossutha",50.264523,18.976574,1,490 zł,pełna własność,balkon,garaż/miejsce parkingowe,brak informacji,brak informacji,blok,tak,"telewizja kablowa, internet, telefon","drzwi / okna antywłamaniowe, domofon / wideofon, monitoring / ochrona",brak informacji,wtórny
1,253 000 zł,48 m²,Po generalnym remoncie - gotowe do wprowadzenia,2,do zamieszkania,Nieruchomość znajduje się w zaznaczonym obszarze mapy. Niestety ogłoszeniodawca nie wskazał dokładnego adresu.,"Chorzów, Chorzów, śląskie",50.29512,18.95103,3/3,250 zł,Zapytaj,balkon,Zapytaj,brak informacji,brak informacji,blok,nie,brak informacji,brak informacji,brak informacji,wtórny
1,379 987 zł,61 m²,Gotowe do wprowadzenia 3 pokojowe na Bytkowie,3,do zamieszkania,Nieruchomość znajduje się w zaznaczonym obszarze mapy. Niestety ogłoszeniodawca nie wskazał dokładnego adresu.,"Siemianowice Śląskie, Siemianowice Śląskie, śląskie",50.33012,19.03136,3/4,800 zł,Zapytaj,balkon,garaż/miejsce parkingowe,brak informacji,brak informacji,blok,nie,brak informacji,brak informacji,brak informacji,wtórny
1,599 000 zł,"82,3 m²","Bez pośredników, sprzedam mieszkanie 82,3 m2",3,do zamieszkania,Współrzędne dokładne,"Bielsko-Biała, Górne Przedmieście, ul. Grunwaldzka",49.823008,19.033633,3/3,600 zł,pełna własność,balkon,garaż/miejsce parkingowe,brak informacji,brak informacji,kamienica,nie,"telewizja kablowa, internet","drzwi / okna antywłamaniowe, domofon / wideofon",cegła,wtórny
1,289 900 zł,"53,37 m²",Klimatyczne mieszkanie w centrum Żor!,2,Zapytaj,Współrzędne dokładne,"Żory, Żory, śląskie",50.04814,18.69661,2/2,200 zł,pełna własność,ogródek,garaż/miejsce parkingowe,2023-03-02,brak informacji,brak informacji,nie,brak informacji,brak informacji,brak informacji,wtórny
1,249 000 zł,"56,39 m²",Sprzedam Mieszkanie Knurów - Szczygłowice,2,do zamieszkania,Współrzędne dokładne,"ul. Hugo Kołłątaja, Szczygłowice , Knurów, gliwicki",50.190304,18.628485,2/3,Zapytaj,pełna własność,Zapytaj,Zapytaj,brak informacji,brak informacji,blok,nie,brak informacji,"drzwi / okna antywłamaniowe, domofon / wideofon",brak informacji,wtórny
1,200 000 zł,"47,4 m²","2 pokoje z wyposażeniem 47 m2, balkon, 0% prowizji",2,do zamieszkania,Nieruchomość znajduje się w zaznaczonym obszarze mapy. Niestety ogłoszeniodawca nie wskazał dokładnego adresu.,"Centrum, Bytom, Bytom",50.344679,18.918528,2/3,250 zł,pełna własność,balkon,Zapytaj,brak informacji,1910,kamienica,nie,brak informacji,domofon / wideofon,brak informacji,wtórny
1,349 000 zł,57 m²,"Mieszkanie, 57 m², Częstochowa",3,Zapytaj,Nieruchomość znajduje się w zaznaczonym obszarze mapy. Niestety ogłoszeniodawca nie wskazał dokładnego adresu.,"Raków, Częstochowa, Częstochowa",50.77786,19.15843,3/4,680 zł,spółdzielcze własnościowe,balkon,Zapytaj,brak informacji,brak informacji,blok,nie,brak informacji,brak informacji,brak informacji,wtórny
1,324 000 zł,49 m²,"Mieszkanie, 49 m², Częstochowa",3,do zamieszkania,Nieruchomość znajduje się w zaznaczonym obszarze mapy. Niestety ogłoszeniodawca nie wskazał dokładnego adresu.,"Ostatni Grosz, Częstochowa, Częstochowa",50.78706,19.13458,parter/4,Zapytaj,Zapytaj,balkon,Zapytaj,brak informacji,brak informacji,blok,nie,brak informacji,brak informacji,brak informacji,wtórny
1,239 000 zł,30 m²,Dwa pokoje na Tysiącleciu w doskonałej lokalizacji,1,Zapytaj,Nieruchomość znajduje się w zaznaczonym obszarze mapy. Niestety ogłoszeniodawca nie wskazał dokładnego adresu.,"Tysiąclecie, Częstochowa, Częstochowa",50.82757,19.11896,4/4,350 zł,pełna własność,Zapytaj,Zapytaj,brak informacji,brak informacji,blok,nie,brak informacji,brak informacji,brak informacji,wtórny
1,259 000 zł,51 m²,"Mieszkanie, 51 m², Częstochowa",2,Zapytaj,Nieruchomość znajduje się w zaznaczonym obszarze mapy. Niestety ogłoszeniodawca nie wskazał dokładnego adresu.,"Wrzosowiak, Częstochowa, Częstochowa",50.7775,19.13818,8/10,Zapytaj,Zapytaj,balkon,Zapytaj,brak informacji,brak informacji,blok,tak,brak informacji,brak informacji,brak informacji,wtórny
1,210 000 zł,33 m²,Kawalerka na Tysiącleciu,1,Zapytaj,Nieruchomość znajduje się w zaznaczonym obszarze mapy. Niestety ogłoszeniodawca nie wskazał dokładnego adresu.,"Tysiąclecie, Częstochowa, Częstochowa",50.82757,19.11896,parter/4,300 zł,Zapytaj,balkon,Zapytaj,brak informacji,brak informacji,blok,nie,brak informacji,brak informacji,brak informacji,wtórny
1,538 929 zł,"78,01 m²",Nowe mieszkania w stanie deweloperskim z windą,3,do wykończenia,Nieruchomość znajduje się w zaznaczonym obszarze mapy. Niestety ogłoszeniodawca nie wskazał dokładnego adresu.,"Raków, Częstochowa, Częstochowa",50.77786,19.15843,poddasze/3,367 zł,Zapytaj,balkon,Zapytaj,brak informacji,2024,blok,tak,brak informacji,brak informacji,brak informacji,wtórny
1,230 000 zł,34 m²,Przestronna kawalerka na Północy na sprzedaż!,1,Zapytaj,Nieruchomość znajduje się w zaznaczonym obszarze mapy. Niestety ogłoszeniodawca nie wskazał dokładnego adresu.,"Północ, Częstochowa, Częstochowa",50.85392,19.14095,2/4,340 zł,pełna własność,balkon,Zapytaj,brak informacji,brak informacji,blok,nie,brak informacji,brak informacji,brak informacji,wtórny
1,449 000 zł,51 m²,"Mieszkanie 2 pokoje, Ligota, Śum.",2,do zamieszkania,Nieruchomość znajduje się w zaznaczonym obszarze mapy. Niestety ogłoszeniodawca nie wskazał dokładnego adresu.,"Ligota, Katowice, Katowice",50.2242,18.97347,1/3,350 zł,Zapytaj,balkon,garaż/miejsce parkingowe,brak informacji,2011,apartamentowiec,tak,"telewizja kablowa, internet, telefon",monitoring / ochrona,inne,wtórny
1,329 000 zł,50 m²,Mieszkanie do remontu-ogródek-parter-niski blok!,3,Zapytaj,Nieruchomość znajduje się w zaznaczonym obszarze mapy. Niestety ogłoszeniodawca nie wskazał dokładnego adresu.,"Śródmieście, Tychy, Tychy",50.11704,18.99112,parter/3,Zapytaj,Zapytaj,Zapytaj,Zapytaj,brak informacji,brak informacji,blok,nie,brak informacji,brak informacji,brak informacji,wtórny
1,300 000 zł,"48,55 m²","3 pokoje, super lokalizacja, zielone osiedle",3,do zamieszkania,Współrzędne dokładne,"Bytom, Rozbark, ul. Juliana Tuwima",50.339754,18.931068,2/3,320 zł,pełna własność,Zapytaj,Zapytaj,brak informacji,brak informacji,blok,nie,"telewizja kablowa, internet","domofon / wideofon, monitoring / ochrona",cegła,wtórny
1,420 000 zł,50 m²,"Mieszkanie, 50 m², Katowice",2,do zamieszkania,Nieruchomość znajduje się w zaznaczonym obszarze mapy. Niestety ogłoszeniodawca nie wskazał dokładnego adresu.,"Dąb, Katowice, Katowice",50.274873,19.000218,1/4,400 zł,spółdzielcze własnościowe,balkon,Zapytaj,brak informacji,1970,blok,nie,brak informacji,brak informacji,cegła,wtórny
1,355 000 zł,"51,8 m²","Centrum -Ok Awf-U, Idealne Pod Wynajem",2,do zamieszkania,Nieruchomość znajduje się w zaznaczonym obszarze mapy. Niestety ogłoszeniodawca nie wskazał dokładnego adresu.,"Centrum, Katowice, Katowice",50.251072,19.003907,10/11,Zapytaj,spółdzielcze własnościowe,Zapytaj,Zapytaj,brak informacji,1965,brak informacji,tak,brak informacji,brak informacji,cegła,wtórny
1,315 000 zł,"57,8 m²",M-4 - 1 piętro - ul. Chabrowa/ miejsce parkingowe,3,do zamieszkania,Nieruchomość znajduje się w zaznaczonym obszarze mapy. Niestety ogłoszeniodawca nie wskazał dokładnego adresu.,"Maroko-Nowiny, Rybnik, Rybnik",50.10441,18.5246,1/10,620 zł,pełna własność,balkon,garaż/miejsce parkingowe,brak informacji,brak informacji,blok,tak,telewizja kablowa,brak informacji,brak informacji,wtórny
1,279 500 zł,42 m²,M2 w Częstochowie ! Po remoncie ! Bez prowizji !,2,do zamieszkania,Nieruchomość znajduje się w zaznaczonym obszarze mapy. Niestety ogłoszeniodawca nie wskazał dokładnego adresu.,"Częstochowa, Częstochowa, śląskie",50.785925,19.144212,3/10,450 zł,Zapytaj,Zapytaj,Zapytaj,brak informacji,brak informacji,brak informacji,nie,brak informacji,domofon / wideofon,wielka płyta,wtórny
1,249 000 zł,"52,68 m²",OSIEDLE STAŁE / 2 pokoje / balkon,2,Zapytaj,Nieruchomość znajduje się w zaznaczonym obszarze mapy. Niestety ogłoszeniodawca nie wskazał dokładnego adresu.,"Jaworzno, Jaworzno, śląskie",50.21052,19.26565,3/4,550 zł,pełna własność,balkon,Zapytaj,brak informacji,brak informacji,blok,nie,brak informacji,domofon / wideofon,brak informacji,wtórny
1,550 000 zł,71 m²,Sprzedam mieszkanie na Osiedlu Tysiąclecia,4,Zapytaj,Współrzędne dokładne,"Katowice, Osiedle Tysiąclecia, ul. Tysiąclecia",50.28231,18.96975,parter/14,Zapytaj,pełna własność,balkon,Zapytaj,brak informacji,brak informacji,blok,tak,internet,domofon / wideofon,brak informacji,wtórny
1,260 000 zł,"51,07 m²",Stroszek 2 pokoje,2,Zapytaj,Współrzędne dokładne,"Bytom, Stroszek, ul. Stanisława Wojciechowskiego",50.395227,18.875702,2/2,Zapytaj,Zapytaj,Zapytaj,Zapytaj,brak informacji,brak informacji,blok,nie,brak informacji,brak informacji,brak informacji,wtórny
1,449 000 zł,"74,2 m²","Mieszkanie, 74,20 m², Częstochowa",3,Zapytaj,Nieruchomość znajduje się w zaznaczonym obszarze mapy. Niestety ogłoszeniodawca nie wskazał dokładnego adresu.,"Wrzosowiak, Częstochowa, Częstochowa",50.7775,19.13818,1/4,Zapytaj,spółdzielcze własnościowe,balkon,Zapytaj,brak informacji,brak informacji,blok,nie,brak informacji,brak informacji,brak informacji,wtórny
1,339 000 zł,59 m²,"Mieszkanie, 59 m², Częstochowa",3,Zapytaj,Nieruchomość znajduje się w zaznaczonym obszarze mapy. Niestety ogłoszeniodawca nie wskazał dokładnego adresu.,"Wrzosowiak, Częstochowa, Częstochowa",50.7775,19.13818,3/4,470 zł,spółdzielcze własnościowe,balkon,Zapytaj,brak informacji,brak informacji,blok,nie,brak informacji,brak informacji,brak informacji,wtórny
1,260 000 zł,"48,5 m²",Mieszkanie na sprzedaż 2 pokoje Ostatni Grosz,2,Zapytaj,Nieruchomość znajduje się w zaznaczonym obszarze mapy. Niestety ogłoszeniodawca nie wskazał dokładnego adresu.,"Ostatni Grosz, Częstochowa, Częstochowa",50.78706,19.13458,2/4,Zapytaj,Zapytaj,balkon,Zapytaj,brak informacji,brak informacji,blok,nie,brak informacji,brak informacji,brak informacji,wtórny
1,309 000 zł,"49,6 m²",Mieszkanie 2 pokojowe po remoncie na Wrzosowiaku,2,Zapytaj,Nieruchomość znajduje się w zaznaczonym obszarze mapy. Niestety ogłoszeniodawca nie wskazał dokładnego adresu.,"Wrzosowiak, Częstochowa, Częstochowa",50.7775,19.13818,8/10,450 zł,Zapytaj,balkon,Zapytaj,brak informacji,brak informacji,brak informacji,tak,brak informacji,brak informacji,brak informacji,wtórny
1,249 000 zł,"52,3 m²","Przestronne M-3 z wnęką / 52,30m2 / Tysiąclecie",2,do remontu,Nieruchomość znajduje się w zaznaczonym obszarze mapy. Niestety ogłoszeniodawca nie wskazał dokładnego adresu.,"Tysiąclecie, Częstochowa, Częstochowa",50.82757,19.11896,5/10,Zapytaj,spółdzielcze wł. z KW,balkon,Zapytaj,brak informacji,brak informacji,brak informacji,tak,brak informacji,brak informacji,brak informacji,wtórny
1,289 000 zł,"33,3 m²","Mieszkanie, 33,30 m², Częstochowa",2,Zapytaj,Nieruchomość znajduje się w zaznaczonym obszarze mapy. Niestety ogłoszeniodawca nie wskazał dokładnego adresu.,"Północ, Częstochowa, Częstochowa",50.85392,19.14095,3/4,470 zł,spółdzielcze własnościowe,balkon,Zapytaj,brak informacji,brak informacji,blok,nie,brak informacji,brak informacji,brak informacji,wtórny
1,260 000 zł,38 m²,Atrakcyjne 2 pokoje idealne pod inwestycję,2,do zamieszkania,Nieruchomość znajduje się w zaznaczonym obszarze mapy. Niestety ogłoszeniodawca nie wskazał dokładnego adresu.,"Wrzosowiak, Częstochowa, Częstochowa",50.7775,19.13818,6/10,550 zł,Zapytaj,balkon,Zapytaj,brak informacji,brak informacji,brak informacji,tak,brak informacji,brak informacji,brak informacji,wtórny
1,149 000 zł,46 m²,2 pokoje w niskim bloku,2,Zapytaj,Nieruchomość znajduje się w zaznaczonym obszarze mapy. Niestety ogłoszeniodawca nie wskazał dokładnego adresu.,"Huta Stara B, częstochowski, śląskie",50.7399,19.13407,2/2,250 zł,pełna własność,Zapytaj,Zapytaj,brak informacji,brak informacji,blok,nie,brak informacji,brak informacji,cegła,wtórny
1,379 000 zł,85 m²,3 pokoje z dwoma balkonami,3,Zapytaj,Nieruchomość znajduje się w zaznaczonym obszarze mapy. Niestety ogłoszeniodawca nie wskazał dokładnego adresu.,"Wyczerpy Dolne, Częstochowa, Częstochowa",50.83639,19.15371,3/3,670 zł,Zapytaj,balkon,Zapytaj,brak informacji,1996,blok,nie,brak informacji,brak informacji,brak informacji,wtórny
1,399 000 zł,"75,3 m²",Dwupoziomowe mieszkanie w doskonałej lokalizacji,3,Zapytaj,Nieruchomość znajduje się w zaznaczonym obszarze mapy. Niestety ogłoszeniodawca nie wskazał dokładnego adresu.,"Parkitka, Częstochowa, Częstochowa",50.82584,19.10368,4/4,390 zł,pełna własność,balkon,Zapytaj,brak informacji,brak informacji,blok,nie,brak informacji,brak informacji,brak informacji,wtórny
1,284 500 zł,37 m²,widokowe / z dużym balkonem - blisko Park Śląski,1,do zamieszkania,Nieruchomość znajduje się w zaznaczonym obszarze mapy. Niestety ogłoszeniodawca nie wskazał dokładnego adresu.,"Osiedle Tysiąclecia, Katowice, Katowice",50.28125,18.96662,8/15,385 zł,spółdzielcze własnościowe,balkon,Zapytaj,brak informacji,brak informacji,blok,tak,"telewizja kablowa, internet",domofon / wideofon,brak informacji,wtórny
1,309 000 zł,"48,56 m²",Jasne ustawne mieszkanie Centrum ul.Szymanowskiego,2,do zamieszkania,Współrzędne dokładne,"Częstochowa, Śródmieście, ul. Szymanowskiego",50.810876,19.108918,4/4,550 zł,pełna własność,Zapytaj,Zapytaj,brak informacji,1950,blok,nie,brak informacji,brak informacji,cegła,wtórny
1,550 000 zł,51 m²,Piękne mieszkanie w cichej widokowej okolicy!,3,do zamieszkania,Nieruchomość znajduje się w zaznaczonym obszarze mapy. Niestety ogłoszeniodawca nie wskazał dokładnego adresu.,"Ustroń, cieszyński, śląskie",49.711227,18.82602,2/2,Zapytaj,Zapytaj,Zapytaj,garaż/miejsce parkingowe,brak informacji,2011,brak informacji,nie,brak informacji,brak informacji,brak informacji,wtórny
1,212 451 zł,"30,79 m²",Atrakcyjne mieszkanie - 0 % prowizji !!!!,2,do wykończenia,Nieruchomość znajduje się w zaznaczonym obszarze mapy. Niestety ogłoszeniodawca nie wskazał dokładnego adresu.,"Piekary Śląskie, Piekary Śląskie, śląskie",50.36864,18.97699,1/3,Zapytaj,pełna własność,"balkon, ogródek, taras",garaż/miejsce parkingowe,brak informacji,2023,apartamentowiec,nie,brak informacji,drzwi / okna antywłamaniowe,pustak,wtórny
1,239 000 zł,41 m²,NOWA CENA!!!/PILNA SPRZEDAŻ/M3/Parter/Balkon,2,do zamieszkania,Nieruchomość znajduje się w zaznaczonym obszarze mapy. Niestety ogłoszeniodawca nie wskazał dokładnego adresu.,"Wrzosowiak, Częstochowa, Częstochowa",50.792342,19.12842,parter/4,360 zł,spółdzielcze wł. z KW,balkon,garaż/miejsce parkingowe,brak informacji,brak informacji,blok,nie,brak informacji,brak informacji,wielka płyta,wtórny
1,269 000 zł,58 m²,"3 pokoje z balkonem, super lokalizacja!",3,Zapytaj,Nieruchomość znajduje się w zaznaczonym obszarze mapy. Niestety ogłoszeniodawca nie wskazał dokładnego adresu.,"Zagórze, Sosnowiec, Sosnowiec",50.294405,19.17899,parter/10,Zapytaj,spółdzielcze własnościowe,balkon,Zapytaj,brak informacji,brak informacji,blok,nie,"telewizja kablowa, internet, telefon",brak informacji,brak informacji,wtórny
1,315 000 zł,"57,48 m²",zamieszkaj na ul. Rewolucjonistów!,3,do zamieszkania,Współrzędne dokładne,"ul. Rewolucjonistów , Będzin, będziński",50.31828,19.11208,3/4,548 zł,pełna własność,balkon,Zapytaj,brak informacji,brak informacji,blok,nie,"telewizja kablowa, internet",brak informacji,wielka płyta,wtórny
1,220 000 zł,"46,4 m²",Nowa Cena ! Rozkładowe mieszkanie blisko centrum!,3,do remontu,Współrzędne dokładne,"Chorzów, Chorzów II, ul. ks. Antoniego Stabika",50.310241,18.950233,3/4,530 zł,pełna własność,balkon,Zapytaj,brak informacji,1970,blok,nie,"telewizja kablowa, internet, telefon",brak informacji,cegła,wtórny
1,139 000 zł,29 m²,Sprzedam M-2 . Super lokalizacja. Możliwa zamiana.,1,Zapytaj,Nieruchomość znajduje się w zaznaczonym obszarze mapy. Niestety ogłoszeniodawca nie wskazał dokładnego adresu.,"Zagórze, Sosnowiec, Sosnowiec",50.29957,19.1989,parter/2,Zapytaj,spółdzielcze wł. z KW,Zapytaj,Zapytaj,brak informacji,brak informacji,kamienica,nie,brak informacji,brak informacji,brak informacji,wtórny
1,230 000 zł,"54,4 m²","Mieszkanie 54,40m2 w Śródmieściu Bytomia",2,Zapytaj,Nieruchomość znajduje się w zaznaczonym obszarze mapy. Niestety ogłoszeniodawca nie wskazał dokładnego adresu.,"Śródmieście, Bytom, Bytom",50.35454,18.90616,1/3,740 zł,spółdzielcze własnościowe,balkon,garaż/miejsce parkingowe,brak informacji,brak informacji,blok,nie,"telewizja kablowa, internet, telefon",domofon / wideofon,brak informacji,wtórny
1,219 900 zł,28 m²,Piękna kawalerka po remoncie idealna pod wynajem!,1,do zamieszkania,Współrzędne dokładne,"Zabrze, Centrum, ul. Juliana Tuwima",50.296927,18.78543,1/10,Zapytaj,Zapytaj,Zapytaj,Zapytaj,brak informacji,1980,blok,tak,"telewizja kablowa, internet, telefon","drzwi / okna antywłamaniowe, domofon / wideofon",wielka płyta,wtórny
1,259 000 zł,"42,3 m²",Ładne Mieszkanie Szombierki ul. Mochnackiego,2,do zamieszkania,Współrzędne dokładne,"Bytom, Szombierki, ul. Maurycego Mochnackiego",50.34196,18.898638,3/4,430 zł,pełna własność,balkon,Zapytaj,brak informacji,brak informacji,blok,nie,brak informacji,"drzwi / okna antywłamaniowe, domofon / wideofon, monitoring / ochrona",wielka płyta,wtórny
1,235 000 zł,48 m²,3 pok mieszkanie Chorzów C.O miejskie niski blok,3,do remontu,Współrzędne dokładne,"Chorzów, Batory, ul. Jurija Gagarina",50.273864,18.929573,3/4,480 zł,pełna własność,balkon,Zapytaj,2023-04-28,brak informacji,blok,nie,"telewizja kablowa, internet, telefon","drzwi / okna antywłamaniowe, domofon / wideofon",brak informacji,wtórny
1,299 900 zł,"32,2 m²","32m2 po remoncie, osiedle Wojska Polskiego",1,do zamieszkania,Współrzędne dokładne,"ul. Podchorążych , Bielsko-Biała, Bielsko-Biała",49.813454,19.009307,1/10,370 zł,pełna własność,Zapytaj,garaż/miejsce parkingowe,brak informacji,1978,blok,tak,telewizja kablowa,"drzwi / okna antywłamaniowe, domofon / wideofon",brak informacji,wtórny
1,255 000 zł,56 m²,M-4 Pawlikowskiego układ Nrd ,3,Zapytaj,Nieruchomość znajduje się w zaznaczonym obszarze mapy. Niestety ogłoszeniodawca nie wskazał dokładnego adresu.,"Pawlikowskiego, Żory, Żory",50.032127,18.680806,3/4,Zapytaj,Zapytaj,balkon,Zapytaj,brak informacji,brak informacji,blok,nie,brak informacji,brak informacji,brak informacji,wtórny
1,257 000 zł,"38,07 m²","Mieszkanie, 38,07 m², Bielsko-Biała",2,do remontu,Nieruchomość znajduje się w zaznaczonym obszarze mapy. Niestety ogłoszeniodawca nie wskazał dokładnego adresu.,"Osiedle Grunwaldzkie, Bielsko-Biała, Bielsko-Biała",49.815245,19.052346,1/3,Zapytaj,Zapytaj,Zapytaj,Zapytaj,brak informacji,brak informacji,blok,nie,brak informacji,brak informacji,brak informacji,wtórny
1,195 000 zł,46 m²,Czeladź Piaski Mieszkanie Bezczynszowe z Ogrodem,1,do zamieszkania,Nieruchomość znajduje się w zaznaczonym obszarze mapy. Niestety ogłoszeniodawca nie wskazał dokładnego adresu.,"Piaski, Czeladź, będziński",50.30022,19.08902,1/2,Zapytaj,Zapytaj,"balkon, ogródek",garaż/miejsce parkingowe,brak informacji,brak informacji,blok,nie,brak informacji,drzwi / okna antywłamaniowe,cegła,wtórny
1,325 000 zł,73 m²,M-5 Czeladź Oś. Piłsudskiego,4,do zamieszkania,Nieruchomość znajduje się w zaznaczonym obszarze mapy. Niestety ogłoszeniodawca nie wskazał dokładnego adresu.,"Czeladź, będziński, śląskie",50.31377,19.07778,4/4,870 zł,Zapytaj,balkon,Zapytaj,brak informacji,brak informacji,blok,nie,"telewizja kablowa, internet",drzwi / okna antywłamaniowe,wielka płyta,wtórny
1,215 000 zł,"26,7 m²",Kawalerka z balkonem - os. Tysiąclecia ul. Piastów,1,do remontu,Nieruchomość znajduje się w zaznaczonym obszarze mapy. Niestety ogłoszeniodawca nie wskazał dokładnego adresu.,"Osiedle Tysiąclecia, Katowice, Katowice",50.273618,18.981204,1/13,Zapytaj,Zapytaj,balkon,Zapytaj,brak informacji,brak informacji,blok,tak,brak informacji,brak informacji,brak informacji,wtórny
1,396 000 zł,"99,25 m²","4 pokojowe mieszkanie na 1 piętrze, 99,25 m2 BYTOM",4,do zamieszkania,Współrzędne dokładne,"Bytom, Śródmieście, ul. Orląt Lwowskich",50.354816,18.925747,1/3,"480,05 zł",pełna własność,Zapytaj,garaż/miejsce parkingowe,brak informacji,brak informacji,kamienica,nie,"telewizja kablowa, internet, telefon","drzwi / okna antywłamaniowe, domofon / wideofon",cegła,wtórny
1,369 000 zł,"138,58 m²","4 pokoje, 138,58 m2, 2 piętro - BYTOM - Dworcowa 3",4,do zamieszkania,Współrzędne dokładne,"Bytom, Centrum, ul. Dworcowa",50.345164,18.917142,2/3,"419,90 zł",pełna własność,Zapytaj,Zapytaj,brak informacji,brak informacji,kamienica,nie,"telewizja kablowa, internet, telefon",domofon / wideofon,cegła,wtórny
1,379 000 zł,"73,5 m²",⭐ Słoneczne 3-pokojowe mieszkanie na Parkitce ⭐,3,do zamieszkania,Współrzędne dokładne,"Częstochowa, Parkitka, ul. Wawrzynowicza",50.826762,19.101671,3/3,360 zł,pełna własność,balkon,Zapytaj,brak informacji,2000,blok,nie,brak informacji,brak informacji,pustak,wtórny
1,269 000 zł,42 m²,Gotowiec Inwestycyjny - 3 pokoje z Antresolą,3,do zamieszkania,Współrzędne dokładne,"ul. 3 Maja , Zabrze, Zabrze",50.298893,18.786477,parter/4,280 zł,pełna własność,Zapytaj,Zapytaj,2023-03-31,2018,kamienica,nie,internet,"drzwi / okna antywłamaniowe, domofon / wideofon, rolety antywłamaniowe",cegła,wtórny
1,99 000 zł,"27,99 m²","Ustawna, dwupokojowa kawalerka z CO i wodą miejską",2,do remontu,Współrzędne dokładne,"ul. Mikołaja Reja , Bytom, Bytom",50.349377,18.8879,parter/5,400 zł,pełna własność,Zapytaj,Zapytaj,brak informacji,brak informacji,blok,nie,"telewizja kablowa, internet, telefon",domofon / wideofon,wielka płyta,wtórny
1,310 000 zł,"46,21 m²",Piękne M3/M4 46m2!Zieleń!Balkon!Co Miejskie!,2,do zamieszkania,Nieruchomość znajduje się w zaznaczonym obszarze mapy. Niestety ogłoszeniodawca nie wskazał dokładnego adresu.,"Sikornik, Gliwice, Gliwice",50.27472,18.65554,4/4,590 zł,pełna własność,balkon,Zapytaj,brak informacji,1980,blok,nie,"telewizja kablowa, internet",brak informacji,brak informacji,wtórny
1,590 000 zł,"72,9 m²",Wyjątkowe i nowoczesne mieszkanie,3,do zamieszkania,Nieruchomość znajduje się w zaznaczonym obszarze mapy. Niestety ogłoszeniodawca nie wskazał dokładnego adresu.,"Kopernika, Gliwice, Gliwice",50.324144,18.655968,5/7,843 zł,pełna własność,balkon,Zapytaj,brak informacji,brak informacji,blok,tak,"telewizja kablowa, internet",domofon / wideofon,wielka płyta,wtórny
1,575 000 zł,"64,33 m²",Mieszkanie Katowice Brynów 3 pokoje,3,Zapytaj,Nieruchomość znajduje się w zaznaczonym obszarze mapy. Niestety ogłoszeniodawca nie wskazał dokładnego adresu.,"Brynów, Katowice, Katowice",50.26288,19.02276,1/3,Zapytaj,spółdzielcze własnościowe,balkon,Zapytaj,brak informacji,1999,blok,nie,"telewizja kablowa, internet","teren zamknięty, domofon / wideofon, rolety antywłamaniowe",cegła,wtórny
1,225 000 zł,35 m²,Atrakcyjne mieszkanie 2 pokojowe,2,do zamieszkania,Współrzędne dokładne,"Żywiec, żywiecki, śląskie",49.677989,19.18924,parter/1,280 zł,Zapytaj,Zapytaj,Zapytaj,brak informacji,1920,brak informacji,nie,brak informacji,brak informacji,cegła,wtórny
1,227 000 zł,36 m²,Duża kawalerka!,1,Zapytaj,Nieruchomość znajduje się w zaznaczonym obszarze mapy. Niestety ogłoszeniodawca nie wskazał dokładnego adresu.,"Biała Krakowska, Bielsko-Biała, Bielsko-Biała",49.823856,19.062833,parter/2,118 zł,pełna własność,Zapytaj,Zapytaj,brak informacji,1918,kamienica,nie,"telewizja kablowa, internet, telefon",brak informacji,brak informacji,wtórny
1,235 000 zł,53 m²,***Słoneczne mieszkanie -Sosnowiec- Dworska ****,4,do remontu,Nieruchomość znajduje się w zaznaczonym obszarze mapy. Niestety ogłoszeniodawca nie wskazał dokładnego adresu.,"Mec, Sosnowiec, Sosnowiec",50.29696,19.17614,4/4,Zapytaj,Zapytaj,balkon,Zapytaj,brak informacji,brak informacji,blok,nie,brak informacji,brak informacji,brak informacji,wtórny
1,430 000 zł,118 m²,"Mieszkanie, 118 m², Gliwice",4,do remontu,Nieruchomość znajduje się w zaznaczonym obszarze mapy. Niestety ogłoszeniodawca nie wskazał dokładnego adresu.,"Centrum, Gliwice, Gliwice",50.29449,18.67138,3/4,Zapytaj,Zapytaj,balkon,Zapytaj,brak informacji,brak informacji,kamienica,nie,brak informacji,brak informacji,brak informacji,wtórny
1,289 000 zł,38 m²,Kawalerka lub 2 pokoje DĄBRÓWKA MAŁA niski CZYNSZ,1,do zamieszkania,Współrzędne dokładne,"Katowice, Dąbrówka Mała, ul. gen. Józefa Hallera",50.27191,19.074194,4/4,350 zł,spółdzielcze własnościowe,balkon,Zapytaj,brak informacji,1980,blok,nie,"telewizja kablowa, internet, telefon",domofon / wideofon,brak informacji,wtórny
1,370 000 zł,64 m²,Mieszkanie - Racibórz,3,do zamieszkania,Nieruchomość znajduje się w zaznaczonym obszarze mapy. Niestety ogłoszeniodawca nie wskazał dokładnego adresu.,"Racibórz, raciborski, śląskie",50.088499,18.225469,4/4,Zapytaj,Zapytaj,balkon,Zapytaj,brak informacji,brak informacji,blok,nie,brak informacji,"drzwi / okna antywłamaniowe, domofon / wideofon, rolety antywłamaniowe",brak informacji,wtórny
1,399 000 zł,"73,8 m²","4 pokoje niedaleko parku - Bytom, śródmieście",4,Zapytaj,Współrzędne dokładne,"Centrum, Bytom, Bytom",50.34515,18.917098,2/3,760 zł,pełna własność,Zapytaj,Zapytaj,brak informacji,brak informacji,brak informacji,nie,brak informacji,brak informacji,cegła,wtórny
1,315 000 zł,"62,8 m²",Słoneczne i wygodne 3 pok. mieszkanie -ul.Żorska.,3,do zamieszkania,Współrzędne dokładne,"Racibórz, raciborski, śląskie",50.080516,18.1962,4/4,900 zł,pełna własność,balkon,Zapytaj,brak informacji,1988,blok,nie,brak informacji,brak informacji,brak informacji,wtórny
1,315 000 zł,"62,8 m²",Słoneczne i wygodne 3 pok. mieszkanie -ul.Żorska.,3,do zamieszkania,Współrzędne dokładne,"Racibórz, raciborski, śląskie",50.080516,18.1962,4/4,900 zł,pełna własność,balkon,Zapytaj,brak informacji,1988,blok,nie,brak informacji,brak informacji,brak informacji,wtórny
1,165 000 zł,"34,5 m²",Chorzów Centrum 2 pokojowe,2,do remontu,Współrzędne dokładne,"Chorzów, Centrum, ul. Tadeusza Kościuszki",50.297914,18.962067,3/4,Zapytaj,spółdzielcze własnościowe,balkon,Zapytaj,brak informacji,brak informacji,blok,nie,brak informacji,brak informacji,cegła,wtórny
1,189 000 zł,"52,17 m²","3 pokoje, osobna kuchnia, C.O. miejskie! Polecam!",3,do remontu,Współrzędne dokładne,"Bytom, Szombierki, ul. Orzegowska",50.332789,18.886108,parter/10,600 zł,pełna własność,Zapytaj,Zapytaj,brak informacji,brak informacji,blok,nie,"telewizja kablowa, internet, telefon",domofon / wideofon,brak informacji,wtórny
1,120 000 zł,"67,43 m²",Okazja! Przetarg pustego mieszkania z CO miejskim,2,do remontu,Współrzędne dokładne,"ul. Racjonalizatorów , Bytom, Bytom",50.354524,18.848243,2/2,Zapytaj,pełna własność,Zapytaj,Zapytaj,brak informacji,brak informacji,kamienica,nie,brak informacji,domofon / wideofon,cegła,wtórny
1,249 000 zł,"39,6 m²",Klimatyczne mieszkanie w miasteczku Siewierz Jezio,2,do wykończenia,Współrzędne dokładne,"Nowomiejska , Siewierz, będziński",50.444653,19.215238,poddasze/2,120 zł,pełna własność,Zapytaj,Zapytaj,2022-01-01,2022,apartamentowiec,nie,"telewizja kablowa, internet","drzwi / okna antywłamaniowe, domofon / wideofon",pustak,wtórny
1,285 000 zł,64 m²,3 pokoje Centrum ul. Sienkiewicza,3,Zapytaj,Nieruchomość znajduje się w zaznaczonym obszarze mapy. Niestety ogłoszeniodawca nie wskazał dokładnego adresu.,"Centrum, Dąbrowa Górnicza, Dąbrowa Górnicza",50.323389,19.180836,parter/10,Zapytaj,pełna własność,balkon,Zapytaj,brak informacji,brak informacji,brak informacji,tak,brak informacji,brak informacji,brak informacji,wtórny
1,799 000 zł,"88,8 m²",Zamiana. Apartament. Ogródek. 2 garaże.,4,do zamieszkania,Nieruchomość znajduje się w zaznaczonym obszarze mapy. Niestety ogłoszeniodawca nie wskazał dokładnego adresu.,"Centrum, Zabrze, Zabrze",50.307193,18.769556,parter/4,400 zł,pełna własność,"balkon, ogródek, taras",garaż/miejsce parkingowe,brak informacji,2017,apartamentowiec,tak,"telewizja kablowa, internet","system alarmowy, teren zamknięty, domofon / wideofon, rolety antywłamaniowe",inne,wtórny
1,179 000 zł,"42,34 m²","RezerwacjA Dąbrówka Wielka Sikorskiego 1p 42,34m2",2,do zamieszkania,Współrzędne dokładne,"Piekary Śląskie, Dąbrówka Wielka, ul. Władysława Sikorskiego",50.340803,19.017632,1/4,Zapytaj,pełna własność,Zapytaj,Zapytaj,brak informacji,2008,blok,nie,"telewizja kablowa, internet, telefon","drzwi / okna antywłamaniowe, teren zamknięty, domofon / wideofon",wielka płyta,wtórny
1,259 000 zł,"75,83 m²","Bezczynszowe 75m Ciekawe dla Górnika, bez pośred.",3,Zapytaj,Nieruchomość znajduje się w zaznaczonym obszarze mapy. Niestety ogłoszeniodawca nie wskazał dokładnego adresu.,"Rybnik, Rybnik, śląskie",50.1021,18.5462,parter,1 zł,pełna własność,balkon,garaż/miejsce parkingowe,brak informacji,brak informacji,brak informacji,nie,brak informacji,rolety antywłamaniowe,cegła,wtórny
1,239 000 zł,54 m²,Sprzedam mieszkanie w centrum Częstochowy,2,do remontu,Nieruchomość znajduje się w zaznaczonym obszarze mapy. Niestety ogłoszeniodawca nie wskazał dokładnego adresu.,"Częstochowa, Częstochowa, śląskie",50.808644,19.11227,3/3,460 zł,pełna własność,Zapytaj,Zapytaj,brak informacji,1968,blok,nie,brak informacji,brak informacji,cegła,wtórny
1,229 000 zł,"37,12 m²",2 pokojowe mieszkanie na poddaszu Katowice Dąb,2,do remontu,Współrzędne dokładne,"Katowice, Dąb, ul. Dębowa",50.274873,19.000218,4/4,350 zł,pełna własność,Zapytaj,Zapytaj,brak informacji,1900,kamienica,nie,brak informacji,brak informacji,cegła,wtórny
1,469 500 zł,68 m²,"Górki Małobądzkie ul. Topolowa, z wyposażeniem",3,do zamieszkania,Współrzędne dokładne,"Będzin, Małobądz, ul. Topolowa",50.313301,19.119188,1/4,380 zł,pełna własność,balkon,Zapytaj,brak informacji,2011,blok,nie,"telewizja kablowa, internet",domofon / wideofon,cegła,wtórny
1,469 500 zł,68 m²,"Górki Małobądzkie ul. Topolowa, z wyposażeniem",3,do zamieszkania,Współrzędne dokładne,"Będzin, Małobądz, ul. Topolowa",50.313301,19.119188,1/4,380 zł,pełna własność,balkon,Zapytaj,brak informacji,2011,blok,nie,"telewizja kablowa, internet",domofon / wideofon,cegła,wtórny
1,635 000 zł,"68,31 m²","Mieszkanie, 68,31 m², Bielsko-Biała",3,do zamieszkania,Nieruchomość znajduje się w zaznaczonym obszarze mapy. Niestety ogłoszeniodawca nie wskazał dokładnego adresu.,"Lipnik, Bielsko-Biała, Bielsko-Biała",49.82629,19.08869,parter/3,Zapytaj,Zapytaj,balkon,Zapytaj,brak informacji,brak informacji,apartamentowiec,nie,brak informacji,brak informacji,brak informacji,wtórny
1,275 000 zł,"58,06 m²",*** Tylko 290 zł czynszu! ***,2,Zapytaj,Współrzędne dokładne,"ul. ks. Stanisława Staszica , Racibórz, raciborski",50.087,18.2185,4/4,Zapytaj,pełna własność,Zapytaj,Zapytaj,brak informacji,brak informacji,kamienica,nie,brak informacji,domofon / wideofon,brak informacji,wtórny
1,660 000 zł,95 m²,"Inwestycyjne, dla studentów lub pracowników",6,do zamieszkania,Współrzędne dokładne,"Katowice, Dąbrówka Mała, ul. Strzelców Bytomskich",50.275958,19.069293,2/4,Zapytaj,pełna własność,balkon,Zapytaj,brak informacji,brak informacji,kamienica,nie,"telewizja kablowa, internet",domofon / wideofon,cegła,wtórny
1,299 000 zł,"50,4 m²",Mieszkanie 3 pokojowe w Tychach na osiedlu M,3,do zamieszkania,Współrzędne dokładne,"ul. Moniuszki 8, Tychy, Tychy",50.112562,18.980705,3/4,"664,50 zł",spółdzielcze własnościowe,balkon,Zapytaj,brak informacji,brak informacji,blok,nie,brak informacji,domofon / wideofon,brak informacji,wtórny
1,245 000 zł,"48,7 m²",Mieszkanie z balkonem w cichej i zielonej okolicy,2,do wykończenia,Współrzędne dokładne,"ul. Marii Curie-Skłodowskiej , Piekary Śląskie, Piekary Śląskie",50.36582,19.00044,6/10,Zapytaj,spółdzielcze własnościowe,balkon,Zapytaj,brak informacji,1981,blok,tak,brak informacji,domofon / wideofon,brak informacji,wtórny
1,650 000 zł,"91,2 m²","Wykończony apartament, ogród, poddasze do adaptacj",4,do zamieszkania,Nieruchomość znajduje się w zaznaczonym obszarze mapy. Niestety ogłoszeniodawca nie wskazał dokładnego adresu.,"Rybna, Tarnowskie Góry, tarnogórski",50.46627,18.79738,1/1,Zapytaj,pełna własność,"balkon, ogródek, taras",garaż/miejsce parkingowe,2023-05-01,2021,apartamentowiec,nie,"telewizja kablowa, internet, telefon","drzwi / okna antywłamaniowe, domofon / wideofon, rolety antywłamaniowe",pustak,wtórny
1,365 000 zł,64 m²,"Świetny układ, duży balkon, po remoncie!",3,do remontu,Współrzędne dokładne,"Dąbrowa Górnicza, Gołonóg, ul. Gustawa Morcinka",50.332539,19.212561,5/8,386 zł,spółdzielcze wł. z KW,balkon,Zapytaj,brak informacji,1970,blok,tak,"telewizja kablowa, internet",domofon / wideofon,wielka płyta,wtórny
1,395 000 zł,47 m²,Mieszkanie 3 pokojowe 47m2 Osiedle Tysiąclecia,3,Zapytaj,Współrzędne dokładne,"Katowice, Osiedle Tysiąclecia, Osiedle Tysiąclecia",50.26288,19.02276,Zapytaj,"523,92 zł",Zapytaj,balkon,Zapytaj,brak informacji,brak informacji,brak informacji,nie,brak informacji,brak informacji,brak informacji,wtórny
1,390 000 zł,"97,51 m²","Sprzedam mieszkanie, już dostępne, 4 pok, miejskie",4,Zapytaj,Współrzędne dokładne,"ul. Henryka Siemiradzkiego , Bytom, Bytom",50.348382,18.915718,parter/3,900 zł,pełna własność,Zapytaj,Zapytaj,brak informacji,brak informacji,kamienica,nie,"telewizja kablowa, internet","system alarmowy, domofon / wideofon",cegła,wtórny
1,390 000 zł,43 m²,"Nowe, klimatyzowane, ścisłe centrum",1,do zamieszkania,Współrzędne dokładne,"Katowice, Centrum, ul. Tadeusza Kościuszki",50.25315,19.016507,4,300 zł,pełna własność,Zapytaj,Zapytaj,brak informacji,1935,kamienica,nie,internet,"teren zamknięty, domofon / wideofon",cegła,wtórny
1,768 000 zł,86 m²,Gotowiec Inwestycyjny 4 kawalerki ROI 10%,4,do zamieszkania,Współrzędne dokładne,"Gliwice, Zatorze, ul. Jarosława Dąbrowskiego",50.29898,18.689611,3/4,500 zł,pełna własność,Zapytaj,Zapytaj,brak informacji,brak informacji,kamienica,nie,internet,domofon / wideofon,cegła,wtórny
1,389 000 zł,53 m²,Mieszkanie 3-pokojowe Korczoka,3,do zamieszkania,Współrzędne dokładne,"Gliwice, Sośnica, ul. ks. dr. Antoniego Korczoka",50.292308,18.730785,1/2,837 zł,pełna własność,Zapytaj,garaż/miejsce parkingowe,brak informacji,brak informacji,blok,nie,"telewizja kablowa, internet, telefon",domofon / wideofon,cegła,wtórny
1,716 500 zł,"78,9 m²",Sprzedam pracujący gotowiec inwestycyjny! ROI 10%,4,Zapytaj,Współrzędne dokładne,"Gliwice, Centrum, ul. Jana Kochanowskiego",50.286825,18.666265,1/3,Zapytaj,pełna własność,Zapytaj,Zapytaj,brak informacji,brak informacji,kamienica,nie,"internet, telefon","drzwi / okna antywłamaniowe, domofon / wideofon",cegła,wtórny
1,199 999 zł,"42,3 m²",MEGA OKAZJA Mieszkanie 2 pokoje po remoncie,2,do zamieszkania,Współrzędne dokładne,"ul. Jana Rymarkiewicza , Zabrze, Zabrze",50.302392,18.769151,2/2,230 zł,pełna własność,Zapytaj,Zapytaj,brak informacji,brak informacji,blok,nie,"telewizja kablowa, internet, telefon","drzwi / okna antywłamaniowe, domofon / wideofon",cegła,wtórny
1,340 000 zł,"90,15 m²",Sprzedam mieszkanie dwu-pokojowe Bytom Centrum,2,do zamieszkania,Nieruchomość znajduje się w zaznaczonym obszarze mapy. Niestety ogłoszeniodawca nie wskazał dokładnego adresu.,"Centrum, Bytom, Bytom",50.34652,18.92207,parter/3,Zapytaj,pełna własność,balkon,garaż/miejsce parkingowe,brak informacji,brak informacji,kamienica,nie,brak informacji,domofon / wideofon,cegła,wtórny
1,315 000 zł,35 m²,"Nowe, klimatyzowane, ścisłe centrum",1,do zamieszkania,Współrzędne dokładne,"Katowice, Centrum, ul. Tadeusza Kościuszki",50.253184,19.016571,4,300 zł,pełna własność,Zapytaj,Zapytaj,brak informacji,1935,kamienica,nie,internet,"teren zamknięty, domofon / wideofon",cegła,wtórny
1,650 000 zł,"70,65 m²",Apartament PO REMONCIE Bulwary Straceńskie,3,do zamieszkania,Nieruchomość znajduje się w zaznaczonym obszarze mapy. Niestety ogłoszeniodawca nie wskazał dokładnego adresu.,"Straconka, Bielsko-Biała, Bielsko-Biała",49.79811,19.09544,2/2,Zapytaj,pełna własność,balkon,garaż/miejsce parkingowe,brak informacji,2011,apartamentowiec,nie,brak informacji,brak informacji,brak informacji,wtórny
1,209 000 zł,"42,19 m²","Mieszkanie, 42,19 m², 2 pok. Zabrze Zaborze Północ",2,do remontu,Współrzędne dokładne,"Zaborze, Zabrze, Zabrze",50.298251,18.822571,parter/4,390 zł,pełna własność,Zapytaj,Zapytaj,brak informacji,1979,blok,nie,brak informacji,"drzwi / okna antywłamaniowe, domofon / wideofon",wielka płyta,wtórny
1,235 000 zł,53 m²,Atrakcyjne 4 Pokoje! Znakomita Lokalizacja - Zagór,4,Zapytaj,Współrzędne dokładne,"Sosnowiec, Zagórze, ul. Dworska",50.2979,19.18,4/4,Zapytaj,pełna własność,balkon,Zapytaj,2023-05-09,brak informacji,blok,nie,brak informacji,domofon / wideofon,cegła,wtórny
1,350 000 zł,65 m²,M 65 m^ 3 pok 350 000 PLN Kontkiewicza Wyczerpy Cz,3,do remontu,Współrzędne dokładne,"Częstochowa, Wyczerpy Dolne, ul. Kontkiewicza",50.838186,19.165873,parter/3,650 zł,spółdzielcze własnościowe,balkon,Zapytaj,brak informacji,1997,blok,nie,"telewizja kablowa, internet, telefon",domofon / wideofon,inne,wtórny
1,447 000 zł,56 m²,"Mieszkanie w świetnej lokalizacji, 56m2 (video)",3,do zamieszkania,Nieruchomość znajduje się w zaznaczonym obszarze mapy. Niestety ogłoszeniodawca nie wskazał dokładnego adresu.,"Bielsko-Biała, Bielsko-Biała, śląskie",49.82198,19.05043,2/4,570 zł,spółdzielcze własnościowe,balkon,Zapytaj,brak informacji,1980,blok,nie,"telewizja kablowa, internet",domofon / wideofon,cegła,wtórny
1,215 000 zł,"36,5 m²",Przytulne mieszkanie. Świetna lokalizacja.,2,do zamieszkania,Współrzędne dokładne,"Mysłowice, Centrum, ul. Adama Mickiewicza",50.236177,19.132729,7/10,460 zł,pełna własność,balkon,Zapytaj,brak informacji,1980,blok,tak,"telewizja kablowa, internet","domofon / wideofon, monitoring / ochrona",wielka płyta,wtórny
1,349 000 zł,84 m²,4 Pokojowe Mieszkanie Genialny Układ Przy Parku!!!,4,do zamieszkania,Współrzędne dokładne,"Bytom, Centrum, ul. Tarnogórska",50.354422,18.907465,2,600 zł,pełna własność,balkon,Zapytaj,brak informacji,brak informacji,blok,nie,"telewizja kablowa, internet, telefon",brak informacji,brak informacji,wtórny
1,234 900 zł,45 m²,Mieszkanie - Bytom Szombierki,2,do zamieszkania,Współrzędne dokładne,"Bytom, Szombierki, Generała Grota-Roweckiego",50.33319,18.88952,3/4,300 zł,pełna własność,balkon,Zapytaj,brak informacji,brak informacji,brak informacji,nie,brak informacji,brak informacji,brak informacji,wtórny
1,418 000 zł,"52,94 m²",Wyremontowane 3 pokoje na os.Grunwaldzkim,3,do zamieszkania,Nieruchomość znajduje się w zaznaczonym obszarze mapy. Niestety ogłoszeniodawca nie wskazał dokładnego adresu.,"Osiedle Grunwaldzkie, Bielsko-Biała, Bielsko-Biała",49.815245,19.052346,2/2,Zapytaj,Zapytaj,balkon,Zapytaj,brak informacji,brak informacji,blok,nie,brak informacji,brak informacji,brak informacji,wtórny
1,381 000 zł,43 m²,Widokowe 3 pokoje z balkonem po remoncie,3,do zamieszkania,Nieruchomość znajduje się w zaznaczonym obszarze mapy. Niestety ogłoszeniodawca nie wskazał dokładnego adresu.,"Złote Łany, Bielsko-Biała, Bielsko-Biała",49.81163,19.06278,9/10,Zapytaj,Zapytaj,balkon,Zapytaj,brak informacji,brak informacji,brak informacji,nie,brak informacji,brak informacji,brak informacji,wtórny
1,198 800 zł,"40,15 m²","Bezpośrednio, przestronne i jasne, po remoncie",2,do zamieszkania,Nieruchomość znajduje się w zaznaczonym obszarze mapy. Niestety ogłoszeniodawca nie wskazał dokładnego adresu.,"Rybnik, Rybnik, śląskie",50.061058,18.491138,1,340 zł,pełna własność,Zapytaj,garaż/miejsce parkingowe,brak informacji,brak informacji,kamienica,nie,brak informacji,brak informacji,brak informacji,wtórny
1,310 000 zł,"66,4 m²",Starówka z wew. podwórkiem,3,do remontu,Nieruchomość znajduje się w zaznaczonym obszarze mapy. Niestety ogłoszeniodawca nie wskazał dokładnego adresu.,"Gliwice, Gliwice, śląskie",50.293126,18.666382,1/1,600 zł,pełna własność,Zapytaj,garaż/miejsce parkingowe,brak informacji,brak informacji,kamienica,nie,brak informacji,teren zamknięty,cegła,wtórny
1,239 800 zł,"39,1 m²",Super lokalizacja przyDTŚ po remoncie BEZ PROWIZJI,2,do zamieszkania,Nieruchomość znajduje się w zaznaczonym obszarze mapy. Niestety ogłoszeniodawca nie wskazał dokładnego adresu.,"Chorzów, Chorzów, śląskie",50.29512,18.95103,2/3,235 zł,pełna własność,ogródek,Zapytaj,brak informacji,brak informacji,kamienica,nie,brak informacji,domofon / wideofon,cegła,wtórny
1,279 000 zł,"49,7 m²","15 km od Gliwic, 2 pokoje |Balkon|Garaż|Ogródek",2,do zamieszkania,Współrzędne dokładne,"ul. Kozielska , Gliwice, Gliwice",50.269333,18.436594,1/4,684 zł,Zapytaj,"balkon, ogródek",garaż/miejsce parkingowe,brak informacji,1970,blok,nie,internet,brak informacji,brak informacji,wtórny
1,193 800 zł,"40,16 m²","Bezpośrednio, przestronne, po generalnym remoncie",2,do zamieszkania,Nieruchomość znajduje się w zaznaczonym obszarze mapy. Niestety ogłoszeniodawca nie wskazał dokładnego adresu.,"Niedobczyce, Rybnik, Rybnik",50.061058,18.491138,1,340 zł,pełna własność,Zapytaj,garaż/miejsce parkingowe,brak informacji,brak informacji,kamienica,nie,brak informacji,brak informacji,brak informacji,wtórny
1,239 000 zł,47 m²,Ustawne mieszkanie 3 pokojowe z potencjałem.,3,do remontu,Nieruchomość znajduje się w zaznaczonym obszarze mapy. Niestety ogłoszeniodawca nie wskazał dokładnego adresu.,"Raków, Częstochowa, Częstochowa",50.77786,19.15843,3/4,560 zł,spółdzielcze własnościowe,balkon,Zapytaj,brak informacji,1970,blok,nie,"telewizja kablowa, telefon",brak informacji,cegła,wtórny
1,299 000 zł,48 m²,"Mieszkanie, 48 m², Dąbrowa Górnicza",2,Zapytaj,Nieruchomość znajduje się w zaznaczonym obszarze mapy. Niestety ogłoszeniodawca nie wskazał dokładnego adresu.,"Mydlice, Dąbrowa Górnicza, Dąbrowa Górnicza",50.31679,19.16739,4/6,680 zł,Zapytaj,balkon,Zapytaj,brak informacji,brak informacji,blok,tak,"internet, telefon",brak informacji,brak informacji,wtórny
1,245 000 zł,42 m²,"Bardzo dobra lokalizacja, niskie koszty utrzymania",2,do zamieszkania,Nieruchomość znajduje się w zaznaczonym obszarze mapy. Niestety ogłoszeniodawca nie wskazał dokładnego adresu.,"Centrum, Zabrze, Zabrze",50.312084,18.778738,parter/4,377 zł,pełna własność,Zapytaj,Zapytaj,brak informacji,brak informacji,blok,nie,"telewizja kablowa, internet",domofon / wideofon,brak informacji,wtórny
1,320 000 zł,55 m²,Nowe mieszkanie do wprowadzenia ! Nie przegap !,3,do zamieszkania,Nieruchomość znajduje się w zaznaczonym obszarze mapy. Niestety ogłoszeniodawca nie wskazał dokładnego adresu.,"Reden, Dąbrowa Górnicza, Dąbrowa Górnicza",50.32048,19.20345,4/4,Zapytaj,Zapytaj,balkon,Zapytaj,brak informacji,1970,blok,nie,"telewizja kablowa, internet, telefon",brak informacji,cegła,wtórny
1,277 000 zł,70 m²,m-5 Układ 2/2 Powstańców Śląskich!,4,Zapytaj,Nieruchomość znajduje się w zaznaczonym obszarze mapy. Niestety ogłoszeniodawca nie wskazał dokładnego adresu.,"Powstańców Śląskich, Żory, Żory",50.037744,18.678082,Zapytaj,Zapytaj,Zapytaj,balkon,Zapytaj,brak informacji,brak informacji,brak informacji,tak,brak informacji,brak informacji,brak informacji,wtórny
1,285 000 zł,48 m²,Wyremontowane M-3 Z Dwoma Balkonami,2,Zapytaj,Nieruchomość znajduje się w zaznaczonym obszarze mapy. Niestety ogłoszeniodawca nie wskazał dokładnego adresu.,"Pawlikowskiego, Żory, Żory",50.032127,18.680806,Zapytaj,Zapytaj,Zapytaj,balkon,Zapytaj,brak informacji,brak informacji,brak informacji,tak,brak informacji,brak informacji,brak informacji,wtórny
1,199 000 zł,35 m²,Kawalerka - Powstańców Śląskich  VI Piętro! ,1,Zapytaj,Nieruchomość znajduje się w zaznaczonym obszarze mapy. Niestety ogłoszeniodawca nie wskazał dokładnego adresu.,"Powstańców Śląskich, Żory, Żory",50.037744,18.678082,6,Zapytaj,Zapytaj,balkon,Zapytaj,brak informacji,brak informacji,brak informacji,nie,brak informacji,brak informacji,brak informacji,wtórny
1,578 000 zł,54 m²,"Bażantowo Planty, 2 pokoje, 54 m2, 1. piętro",2,do zamieszkania,Współrzędne dokładne,"Katowice, Kostuchna, ul. Franciszka Zabłockiego",50.195377,18.984793,1/5,610 zł,pełna własność,balkon,garaż/miejsce parkingowe,brak informacji,2022,apartamentowiec,tak,brak informacji,monitoring / ochrona,brak informacji,wtórny
1,410 000 zł,"85,6 m²",Przestronne M5 - Sosnowiec Os. Kalinowa .,4,Zapytaj,Współrzędne dokładne,"Dańdówka, Sosnowiec, Sosnowiec",50.259142,19.17599,4/4,1 000 zł,spółdzielcze własnościowe,balkon,Zapytaj,brak informacji,1980,blok,nie,"internet, telefon",brak informacji,inne,wtórny
1,299 500 zł,40 m²,Po generalnym remoncie - 2 pokoje - widok na park,2,do zamieszkania,Współrzędne dokładne,"ul. Dębowa , Tychy, Tychy",50.114061,18.991763,5/9,385 zł,spółdzielcze własnościowe,Zapytaj,Zapytaj,brak informacji,brak informacji,blok,tak,"telewizja kablowa, internet, telefon",domofon / wideofon,brak informacji,wtórny
1,599 000 zł,"68,46 m²",Nowe osiedle! Mieszkanie gotowe do wprowadzenia!,3,do zamieszkania,Współrzędne dokładne,"ul. Juliusza Słowackiego , Zabrze, Zabrze",50.30512,18.7519,4/4,470 zł,pełna własność,balkon,garaż/miejsce parkingowe,2022-11-07,2019,blok,tak,brak informacji,"teren zamknięty, domofon / wideofon",brak informacji,wtórny
1,899 000 zł,151 m²,"Apartament 4 pok., 2 poziomy, podwyższony standard",4,do zamieszkania,Współrzędne dokładne,"ul. Kolumnowa , Bielsko-Biała, Bielsko-Biała",49.831035,19.031965,2/3,700 zł,pełna własność,balkon,garaż/miejsce parkingowe,brak informacji,2016,apartamentowiec,tak,brak informacji,"drzwi / okna antywłamaniowe, teren zamknięty, domofon / wideofon",brak informacji,wtórny
1,300 000 zł,50 m²,Dwu pokojowe mieszkanie na Złotych Łanach,2,Zapytaj,Współrzędne dokładne,"Bielsko-Biała, Bielsko-Biała, śląskie",49.808865,19.075145,4/4,Zapytaj,Zapytaj,balkon,Zapytaj,brak informacji,1985,brak informacji,nie,brak informacji,brak informacji,brak informacji,wtórny
1,649 000 zł,"74,44 m²",Mieszkanie 3 POKOJE Gilów PTASIE,3,Zapytaj,Współrzędne dokładne,"Katowice, Brynów-Zgrzebnioka, ul. Gilów",50.230655,19.003775,1/2,390 zł,pełna własność,"balkon, ogródek",Zapytaj,brak informacji,1968,dom wolnostojący,nie,brak informacji,"teren zamknięty, domofon / wideofon",cegła,wtórny
1,267 800 zł,55 m²,M4 z ładnym widokiem.,3,do remontu,Nieruchomość znajduje się w zaznaczonym obszarze mapy. Niestety ogłoszeniodawca nie wskazał dokładnego adresu.,"Maroko-Nowiny, Rybnik, Rybnik",50.10441,18.5246,1/10,600 zł,Zapytaj,balkon,Zapytaj,brak informacji,brak informacji,blok,tak,"telewizja kablowa, internet, telefon",brak informacji,brak informacji,wtórny
1,209 000 zł,47 m²,Mieszkanie w Centrum Moniuszki 47m2 Wyremontowane,2,do zamieszkania,Współrzędne dokładne,"Bytom, Bytom, śląskie",50.34769,18.92258,2/3,250 zł,pełna własność,balkon,Zapytaj,2023-04-12,1910,kamienica,nie,brak informacji,domofon / wideofon,cegła,wtórny
1,799 000 zł,"84,36 m²","Dwupoziomowy apartament, okolice Centrum!",4,do zamieszkania,Współrzędne dokładne,"Górne Przedmieście, ul. Asnyka , Bielsko-Biała, Bielsko-Biała",49.82763,19.03362,2/2,Zapytaj,pełna własność,balkon,garaż/miejsce parkingowe,brak informacji,2009,brak informacji,nie,brak informacji,brak informacji,brak informacji,wtórny
1,299 000 zł,51 m²,M3 oś. Północ Częstochowa,2,do zamieszkania,Współrzędne dokładne,"Częstochowa, Północ, ul. Kukuczki",50.838254,19.139422,parter/3,680 zł,spółdzielcze wł. z KW,balkon,garaż/miejsce parkingowe,brak informacji,1986,blok,nie,"telewizja kablowa, internet, telefon","drzwi / okna antywłamaniowe, domofon / wideofon",wielka płyta,wtórny
1,525 000 zł,102 m²,Klimatyczne mieszkanie 102 mkw/Bez Prowizji,4,do remontu,Współrzędne dokładne,"Ścisłe Centrum , Bielsko-Biała, Bielsko-Biała",49.82753,19.05461,2/4,240 zł,pełna własność,balkon,Zapytaj,brak informacji,brak informacji,brak informacji,nie,brak informacji,brak informacji,brak informacji,wtórny
1,340 000 zł,35 m²,"Mieszkanie 35mkw ul. Miarki, Bielsko-Biała",2,do zamieszkania,Współrzędne dokładne,"ul. Karola Miarki , Bielsko-Biała, Bielsko-Biała",49.818338,19.046162,1/4,240 zł,pełna własność,ogródek,Zapytaj,brak informacji,1920,kamienica,nie,"telewizja kablowa, internet, telefon","drzwi / okna antywłamaniowe, teren zamknięty, domofon / wideofon, monitoring / ochrona",cegła,wtórny
1,499 000 zł,"86,87 m²",Mieszkanie z pięknym ogrodem-Komorowice Krakowskie,3,Zapytaj,Współrzędne dokładne,"Komorowice Krakowskie , Bielsko-Biała, Bielsko-Biała",49.86527,19.05304,1/1,Zapytaj,pełna własność,"balkon, taras",garaż/miejsce parkingowe,brak informacji,1970,brak informacji,nie,brak informacji,brak informacji,brak informacji,wtórny
1,429 000 zł,90 m²,"Atrakcyjne mieszkanie, 90 m², Bytom - centrum!",4,do zamieszkania,Nieruchomość znajduje się w zaznaczonym obszarze mapy. Niestety ogłoszeniodawca nie wskazał dokładnego adresu.,"Śródmieście, Bytom, Bytom",50.35454,18.90616,1/3,360 zł,pełna własność,balkon,garaż/miejsce parkingowe,brak informacji,brak informacji,kamienica,nie,internet,domofon / wideofon,cegła,wtórny
1,465 000 zł,"68,87 m²",Mieszkanie - Bielsko-Biała,3,Zapytaj,Współrzędne dokładne,"Os. Sarni Stok , Bielsko-Biała, Bielsko-Biała",49.83523,19.02974,parter/4,Zapytaj,spółdzielcze wł. z KW,balkon,Zapytaj,brak informacji,1996,brak informacji,nie,brak informacji,brak informacji,brak informacji,wtórny
1,280 000 zł,"48,12 m²","M-3,Raków, 1 piętro",2,Zapytaj,Nieruchomość znajduje się w zaznaczonym obszarze mapy. Niestety ogłoszeniodawca nie wskazał dokładnego adresu.,"Raków, Częstochowa, Częstochowa",50.77786,19.15843,1/2,612 zł,pełna własność,balkon,Zapytaj,brak informacji,brak informacji,blok,nie,brak informacji,brak informacji,cegła,wtórny
1,148 000 zł,21 m²,779/14016/OMS,1,Zapytaj,Nieruchomość znajduje się w zaznaczonym obszarze mapy. Niestety ogłoszeniodawca nie wskazał dokładnego adresu.,"Gliwice, Gliwice, śląskie",50.29681,18.67973,2/4,500 zł,spółdzielcze wł. z KW,Zapytaj,Zapytaj,brak informacji,1980,kamienica,nie,brak informacji,brak informacji,brak informacji,wtórny
1,650 000 zł,80 m²,Apartament w pięknej zielonej okolicy Będzin,3,do zamieszkania,Nieruchomość znajduje się w zaznaczonym obszarze mapy. Niestety ogłoszeniodawca nie wskazał dokładnego adresu.,"Brzozowica, Będzin, będziński",50.33113,19.13629,2/2,Zapytaj,pełna własność,balkon,garaż/miejsce parkingowe,brak informacji,2012,apartamentowiec,nie,"telewizja kablowa, internet","system alarmowy, teren zamknięty, domofon / wideofon, monitoring / ochrona",brak informacji,wtórny
1,196 000 zł,29 m²,wyremontowana kawalerka w centrum Gliwic,1,do zamieszkania,Współrzędne dokładne,"Gliwice, Centrum, ul. Królowej Jadwigi",50.294492,18.67138,3/3,160 zł,pełna własność,Zapytaj,garaż/miejsce parkingowe,2023-04-28,brak informacji,kamienica,nie,brak informacji,domofon / wideofon,cegła,wtórny
1,420 000 zł,"89,4 m²","Sprzedam mieszkanie 89,40 m2 z działką bud.8,6a",4,do zamieszkania,Współrzędne dokładne,"Pruchna, cieszyński, śląskie",49.867791,18.715736,parter/1,Zapytaj,pełna własność,"balkon, ogródek",garaż/miejsce parkingowe,brak informacji,1969,blok,nie,"telewizja kablowa, internet, telefon",brak informacji,cegła,wtórny
1,299 000 zł,67 m²,***Mieszkanie do remontu w centrum Sosnowcu****,3,do remontu,Nieruchomość znajduje się w zaznaczonym obszarze mapy. Niestety ogłoszeniodawca nie wskazał dokładnego adresu.,"Stary Sosnowiec, Sosnowiec, Sosnowiec",50.28499,19.10928,6/10,Zapytaj,Zapytaj,balkon,Zapytaj,brak informacji,brak informacji,blok,nie,brak informacji,brak informacji,brak informacji,wtórny
1,399 000 zł,"113,71 m²","Mieszkanie, 113,71 m², Bytom",5,do wykończenia,Nieruchomość znajduje się w zaznaczonym obszarze mapy. Niestety ogłoszeniodawca nie wskazał dokładnego adresu.,"Śródmieście, Bytom, Bytom",50.35454,18.90616,3/3,310 zł,pełna własność,Zapytaj,Zapytaj,brak informacji,1923,kamienica,nie,brak informacji,brak informacji,cegła,wtórny
1,807 000 zł,"84,51 m²",Dwupoziomowy apartament pod Górami,6,do zamieszkania,Współrzędne dokładne,"Bielsko-Biała, Kamienica, ul. Janisława Grondysa",49.798077,19.02303,2/2,600 zł,pełna własność,balkon,garaż/miejsce parkingowe,brak informacji,2017,apartamentowiec,nie,"telewizja kablowa, internet","teren zamknięty, domofon / wideofon, monitoring / ochrona, rolety antywłamaniowe",cegła,wtórny
1,360 000 zł,"53,6 m²","Kostuchna Park, mieszkanie z 2 tarasami",3,Zapytaj,Nieruchomość znajduje się w zaznaczonym obszarze mapy. Niestety ogłoszeniodawca nie wskazał dokładnego adresu.,"Kostuchna, Katowice, Katowice",50.18146,18.99916,3/5,Zapytaj,udział,balkon,garaż/miejsce parkingowe,brak informacji,2022,brak informacji,tak,brak informacji,"drzwi / okna antywłamaniowe, teren zamknięty",brak informacji,wtórny
1,399 900 zł,"75,6 m²",Widokowe 4 pokoje - Os. Wojska Polskiego,4,Zapytaj,Współrzędne dokładne,"Os. Wojska Polskiego , Bielsko-Biała, Bielsko-Biała",49.81288,19.0067,> 10/11,Zapytaj,spółdzielcze wł. z KW,Zapytaj,Zapytaj,brak informacji,1980,brak informacji,tak,brak informacji,domofon / wideofon,brak informacji,wtórny
1,138 000 zł,30 m²,‼️Kawalerka stan deweloperski 30m2 w Sosnowcu,1,do zamieszkania,Nieruchomość znajduje się w zaznaczonym obszarze mapy. Niestety ogłoszeniodawca nie wskazał dokładnego adresu.,"Zagórze, Sosnowiec, Sosnowiec",50.28728,19.16851,parter/2,350 zł,udział,Zapytaj,garaż/miejsce parkingowe,brak informacji,brak informacji,kamienica,nie,brak informacji,brak informacji,cegła,wtórny
1,499 000 zł,"156,69 m²",Piętro domu z 4arowym ogrodem - Komorowice,3,Zapytaj,Współrzędne dokładne,"Komorowice Krakowskie , Bielsko-Biała, Bielsko-Biała",49.86527,19.05304,Zapytaj,Zapytaj,Zapytaj,Zapytaj,garaż/miejsce parkingowe,brak informacji,1970,wolnostojący,nie,brak informacji,brak informacji,brak informacji,wtórny
1,125 000 zł,"13,2 m²",Mikrokawalerka Chorzów Centrum,1,do zamieszkania,Współrzędne dokładne,"Chorzów, Centrum, ul. Powstańców",50.294231,18.95024,2/3,90 zł,pełna własność,Zapytaj,Zapytaj,brak informacji,brak informacji,kamienica,nie,brak informacji,brak informacji,cegła,wtórny
1,225 000 zł,"45,4 m²",NORWIDA / 3 pokoje / balkon,3,do remontu,Współrzędne dokładne,"os. Cypriana Kamila Norwida , Mikołów, mikołowski",50.170879,18.91065,3/4,Zapytaj,spółdzielcze własnościowe,balkon,Zapytaj,brak informacji,brak informacji,blok,nie,brak informacji,domofon / wideofon,brak informacji,wtórny
1,799 000 zł,"78,79 m²",Stylowy 2- poziomowy apartament | Tychy Wilkowyje.,4,do zamieszkania,Nieruchomość znajduje się w zaznaczonym obszarze mapy. Niestety ogłoszeniodawca nie wskazał dokładnego adresu.,"Wilkowyje, Tychy, Tychy",50.14384,18.94129,1/2,576 zł,pełna własność,"balkon, taras",garaż/miejsce parkingowe,2023-04-29,2019,apartamentowiec,nie,"telewizja kablowa, internet","drzwi / okna antywłamaniowe, teren zamknięty, domofon / wideofon",inne,wtórny
1,199 900 zł,"41,92 m²",Dwupokojowe mieszkanie w Rokitnicy z balkonem,2,do wykończenia,Współrzędne dokładne,"Zabrze, Rokitnica, ul. Józefa Wajzera",50.365985,18.785448,2/4,500 zł,pełna własność,balkon,Zapytaj,brak informacji,brak informacji,blok,nie,brak informacji,"drzwi / okna antywłamaniowe, domofon / wideofon",brak informacji,wtórny
1,269 000 zł,57 m²,M3 Przy Bytomskim Centrum Kultury - Żeromskiego,3,Zapytaj,Nieruchomość znajduje się w zaznaczonym obszarze mapy. Niestety ogłoszeniodawca nie wskazał dokładnego adresu.,"Bytom, Bytom, śląskie",50.35111,18.92724,3/10,Zapytaj,udział,balkon,Zapytaj,2023-02-23,1970,apartamentowiec,tak,"internet, telewizja kablowa","drzwi / okna antywłamaniowe, domofon / wideofon",wielka płyta,wtórny
1,592 000 zł,"85,6 m²",774/14016/OMS,4,Zapytaj,Nieruchomość znajduje się w zaznaczonym obszarze mapy. Niestety ogłoszeniodawca nie wskazał dokładnego adresu.,"Gliwice, Gliwice, śląskie",50.29681,18.67973,2/4,500 zł,spółdzielcze wł. z KW,Zapytaj,Zapytaj,brak informacji,1980,kamienica,nie,brak informacji,brak informacji,brak informacji,wtórny
1,156 400 zł,37 m²,2 pokoje z balkonem/własna aranżacja/do remontu,2,do remontu,Współrzędne dokładne,"Rybnik, Chwałowice, ul. Górnicza",50.071346,18.546669,4/4,Zapytaj,pełna własność,balkon,garaż/miejsce parkingowe,brak informacji,brak informacji,blok,nie,"telewizja kablowa, internet, telefon","teren zamknięty, domofon / wideofon",wielka płyta,wtórny
1,329 000 zł,95 m²,Słoneczne 3 pokojowe w centrum Zabrza,3,do zamieszkania,Nieruchomość znajduje się w zaznaczonym obszarze mapy. Niestety ogłoszeniodawca nie wskazał dokładnego adresu.,"Zabrze, Zabrze, śląskie",50.30063,18.79698,3/3,600 zł,pełna własność,Zapytaj,Zapytaj,brak informacji,brak informacji,kamienica,nie,brak informacji,"drzwi / okna antywłamaniowe, domofon / wideofon",brak informacji,wtórny
1,179 000 zł,25 m²,"Mieszkanie jednopokojowe, kawalerka Giszowiec",1,Zapytaj,Współrzędne dokładne,"Giszowiec, Katowice, Katowice",50.22172,19.07236,6/10,320 zł,spółdzielcze własnościowe,Zapytaj,Zapytaj,brak informacji,brak informacji,blok,tak,brak informacji,monitoring / ochrona,brak informacji,wtórny
1,300 000 zł,"38,53 m²",Mieszkanie 2 pokojowe w Kamienicy w centrum,2,Zapytaj,Nieruchomość znajduje się w zaznaczonym obszarze mapy. Niestety ogłoszeniodawca nie wskazał dokładnego adresu.,"Częstochowa, Częstochowa, śląskie",50.81218,19.12776,1/2,450 zł,udział,balkon,garaż/miejsce parkingowe,2023-03-06,1909,kamienica,nie,"internet, telewizja kablowa",domofon / wideofon,cegła,wtórny
1,249 000 zł,61 m²,M3 w Bytomiu ul. Zamenhofa - Centrum miasta!,2,do zamieszkania,Współrzędne dokładne,"Bytom, Centrum, ul. Ludwika Zamenhofa",50.344358,18.923736,2/4,550 zł,pełna własność,Zapytaj,Zapytaj,2023-06-19,1930,kamienica,nie,brak informacji,domofon / wideofon,cegła,wtórny
1,215 000 zł,104 m²,"Bytom ul. Rostka, 104m2, Co gazowe, 3 piętro",3,do remontu,Nieruchomość znajduje się w zaznaczonym obszarze mapy. Niestety ogłoszeniodawca nie wskazał dokładnego adresu.,"Bytom, Bytom, śląskie",50.344396,18.922605,3/4,420 zł,pełna własność,Zapytaj,Zapytaj,2023-02-20,brak informacji,kamienica,nie,brak informacji,brak informacji,brak informacji,wtórny
1,299 000 zł,81 m²,M4 z dużym potencjałem Gliwice Łabendy!,3,Zapytaj,Nieruchomość znajduje się w zaznaczonym obszarze mapy. Niestety ogłoszeniodawca nie wskazał dokładnego adresu.,"Przyszówka, Gliwice, Gliwice",50.33877,18.64902,parter/1,Zapytaj,Zapytaj,ogródek,Zapytaj,brak informacji,brak informacji,brak informacji,nie,"telefon, internet, telewizja kablowa",domofon / wideofon,cegła,wtórny
1,379 000 zł,"59,46 m²","Zabrze ul.Ślęczka, 3pokoje, balkon, 1p, 250 czynsz",3,Zapytaj,Współrzędne dokładne,"Zabrze, Zabrze, śląskie",50.292468,18.784218,1/4,250 zł,pełna własność,balkon,Zapytaj,2023-04-19,brak informacji,blok,nie,brak informacji,brak informacji,brak informacji,wtórny
1,399 900 zł,"131,92 m²",Stylowe M5 w pięknej Kamienicy - plac Akademicki,5,Zapytaj,Nieruchomość znajduje się w zaznaczonym obszarze mapy. Niestety ogłoszeniodawca nie wskazał dokładnego adresu.,"Bytom, Bytom, śląskie",50.35289,18.92601,3/4,819 zł,udział,balkon,garaż/miejsce parkingowe,brak informacji,1920,kamienica,nie,"telefon, internet, telewizja kablowa",domofon / wideofon,cegła,wtórny
1,527 000 zł,"58,56 m²",Mieszkanie dla inwestora w centrum Katowic,2,Zapytaj,Nieruchomość znajduje się w zaznaczonym obszarze mapy. Niestety ogłoszeniodawca nie wskazał dokładnego adresu.,"Centrum, Katowice, Katowice",50.25598,19.01906,1/3,Zapytaj,udział,Zapytaj,Zapytaj,brak informacji,brak informacji,kamienica,nie,brak informacji,"drzwi / okna antywłamaniowe, domofon / wideofon",cegła,wtórny
1,185 000 zł,"37,5 m²",Sprzedam M3 w ok. Parku Śląskiego na 1 piętrze,2,do remontu,Nieruchomość znajduje się w zaznaczonym obszarze mapy. Niestety ogłoszeniodawca nie wskazał dokładnego adresu.,"Centrum, Chorzów, Chorzów",50.29007,18.95372,1/4,400 zł,spółdzielcze własnościowe,Zapytaj,Zapytaj,brak informacji,brak informacji,blok,nie,brak informacji,brak informacji,cegła,wtórny
1,220 000 zł,"43,23 m²","Słupecka, 2 pokoje z balkonem, I piętro",2,Zapytaj,Nieruchomość znajduje się w zaznaczonym obszarze mapy. Niestety ogłoszeniodawca nie wskazał dokładnego adresu.,"Mysłowice, Mysłowice, śląskie",50.23253,19.12303,1/3,434 zł,Zapytaj,balkon,Zapytaj,2023-04-04,brak informacji,blok,nie,brak informacji,domofon / wideofon,cegła,wtórny
1,244 900 zł,37 m²,Nowoczesny apartament z garderobą Zagórze,3,do zamieszkania,Nieruchomość znajduje się w zaznaczonym obszarze mapy. Niestety ogłoszeniodawca nie wskazał dokładnego adresu.,"Zagórze, Sosnowiec, Sosnowiec",50.302859,19.195553,4/4,Zapytaj,Zapytaj,Zapytaj,Zapytaj,brak informacji,1970,blok,nie,"telewizja kablowa, internet, telefon","drzwi / okna antywłamaniowe, domofon / wideofon",cegła,wtórny
1,332 700 zł,"55,45 m²",2 pokoje w centrum Tychów,2,do zamieszkania,Nieruchomość znajduje się w zaznaczonym obszarze mapy. Niestety ogłoszeniodawca nie wskazał dokładnego adresu.,"Śródmieście, Tychy, Tychy",50.12707,18.9824,3/3,Zapytaj,pełna własność,balkon,Zapytaj,brak informacji,brak informacji,blok,nie,brak informacji,domofon / wideofon,brak informacji,wtórny
1,799 000 zł,139 m²,Gotowe Mieszkanie 139m2 - Stare Gliwice! Sprawdź!,3,Zapytaj,Nieruchomość znajduje się w zaznaczonym obszarze mapy. Niestety ogłoszeniodawca nie wskazał dokładnego adresu.,"Gliwice, Gliwice, śląskie",50.31186,18.61802,3/3,Zapytaj,udział,Zapytaj,garaż/miejsce parkingowe,2023-03-27,2000,kamienica,nie,"telefon, internet, telewizja kablowa","drzwi / okna antywłamaniowe, domofon / wideofon",inne,wtórny
1,300 000 zł,"50,28 m²",Tychy - centrum 2 pokojowe mieszkanie na sprzedaż,2,do remontu,Nieruchomość znajduje się w zaznaczonym obszarze mapy. Niestety ogłoszeniodawca nie wskazał dokładnego adresu.,"Śródmieście, Tychy, Tychy",50.12707,18.9824,3/3,Zapytaj,pełna własność,Zapytaj,Zapytaj,brak informacji,brak informacji,blok,nie,brak informacji,brak informacji,brak informacji,wtórny
1,269 000 zł,"47,8 m²",3 pokoje/Ruda Śl./Halemba,3,Zapytaj,Współrzędne dokładne,"Ruda Śląska, Halemba, ul. Grodzka",50.245424,18.838887,4/4,500 zł,Zapytaj,Zapytaj,Zapytaj,brak informacji,1970,blok,nie,brak informacji,brak informacji,brak informacji,wtórny
1,134 000 zł,"36,5 m²",2 pokoje/Wodzisław Śl./parter,2,do zamieszkania,Współrzędne dokładne,"Wodzisław Śląski, wodzisławski, śląskie",50.003,18.46144,parter/4,400 zł,Zapytaj,Zapytaj,Zapytaj,brak informacji,brak informacji,blok,nie,brak informacji,brak informacji,wielka płyta,wtórny
1,420 000 zł,"33,26 m²",Luksusowy apartament na Słonecznej obok Silesia CC,2,do zamieszkania,Współrzędne dokładne,"Katowice, Wełnowiec-Józefowiec, ul. Słoneczna 86",50.26288,19.02276,parter/7,350 zł,pełna własność,"ogródek, taras",Zapytaj,2023-02-01,2020,apartamentowiec,nie,"telewizja kablowa, internet","drzwi / okna antywłamaniowe, teren zamknięty, domofon / wideofon, rolety antywłamaniowe",brak informacji,wtórny
1,194 000 zł,56 m²,3 pokoje/Knurów/ Al. Piastów,3,do remontu,Współrzędne dokładne,"Knurów, gliwicki, śląskie",50.222,18.67081,10/10,Zapytaj,Zapytaj,Zapytaj,Zapytaj,brak informacji,brak informacji,brak informacji,tak,brak informacji,brak informacji,wielka płyta,wtórny
1,219 000 zł,"27,4 m²",ul. Plebiscytowa,1,do zamieszkania,Nieruchomość znajduje się w zaznaczonym obszarze mapy. Niestety ogłoszeniodawca nie wskazał dokładnego adresu.,"Gliwice, Gliwice, śląskie",50.298302,18.656591,parter/3,Zapytaj,pełna własność,Zapytaj,Zapytaj,brak informacji,brak informacji,brak informacji,nie,brak informacji,brak informacji,cegła,wtórny
1,190 000 zł,38 m²,"Atrakcyjna lokalizacja, idealne pod wynajem",2,Zapytaj,Nieruchomość znajduje się w zaznaczonym obszarze mapy. Niestety ogłoszeniodawca nie wskazał dokładnego adresu.,"Mysłowice, Mysłowice, śląskie",50.242092,19.114365,1/4,440 zł,Zapytaj,Zapytaj,Zapytaj,2023-04-24,brak informacji,blok,nie,brak informacji,domofon / wideofon,brak informacji,wtórny
1,1 080 000 zł,"111,17 m²","Mieszkanie, 111,17 m², Katowice",4,do wykończenia,Współrzędne dokładne,"Brynów, Katowice, Katowice",50.241715,19.01321,Zapytaj,Zapytaj,Zapytaj,taras,garaż/miejsce parkingowe,brak informacji,2022,brak informacji,tak,"telewizja kablowa, internet, telefon",domofon / wideofon,pustak,wtórny
1,1 080 000 zł,"111,17 m²","Mieszkanie, 111,17 m², Katowice",4,do wykończenia,Współrzędne dokładne,"Katowice, Brynów, Dwupoziomowy apartament z tarasem!",50.241715,19.01321,3/3,Zapytaj,Zapytaj,"balkon, taras",garaż/miejsce parkingowe,brak informacji,2022,apartamentowiec,tak,"telewizja kablowa, internet, telefon",brak informacji,cegła,wtórny
1,196 000 zł,48 m²,Sprzedam duże M3 niski ocieplony blok 48m2,2,do remontu,Nieruchomość znajduje się w zaznaczonym obszarze mapy. Niestety ogłoszeniodawca nie wskazał dokładnego adresu.,"Bielszowice, Ruda Śląska, Ruda Śląska",50.26873,18.82285,parter/3,490 zł,pełna własność,Zapytaj,Zapytaj,2023-05-09,1970,blok,nie,telewizja kablowa,"drzwi / okna antywłamaniowe, domofon / wideofon",cegła,wtórny
1,153 000 zł,35 m²,Duża kawalerka po generalnym remoncie,1,Zapytaj,Nieruchomość znajduje się w zaznaczonym obszarze mapy. Niestety ogłoszeniodawca nie wskazał dokładnego adresu.,"Krupski Młyn, tarnogórski, śląskie",50.57301,18.64727,parter/2,200 zł,udział,Zapytaj,Zapytaj,brak informacji,brak informacji,apartamentowiec,nie,"internet, telewizja kablowa",domofon / wideofon,brak informacji,wtórny
1,175 000 zł,37 m²,Zamieszkaj na Stroszku! Mieszkanie z potencjałem!,2,Zapytaj,Nieruchomość znajduje się w zaznaczonym obszarze mapy. Niestety ogłoszeniodawca nie wskazał dokładnego adresu.,"Bytom, Bytom, śląskie",50.37927,18.8872,3/4,610 zł,udział,balkon,Zapytaj,2022-09-26,brak informacji,brak informacji,nie,brak informacji,brak informacji,brak informacji,wtórny
1,242 000 zł,46 m²,PRYWATNIE Mieszkanie 46 m2 Chorzów Batory parking,2,do zamieszkania,Współrzędne dokładne,"Chorzów, Batory, ul. Wrocławska",50.274906,18.936763,1,620 zł,pełna własność,balkon,garaż/miejsce parkingowe,brak informacji,brak informacji,blok,nie,brak informacji,"domofon / wideofon, monitoring / ochrona",cegła,wtórny
1,242 800 zł,50 m²,3 pokoje/4 piętro z balkonem/DOSTĘPNE OD DZIŚ!,3,Zapytaj,Współrzędne dokładne,"ul. Srebrna , Miasteczko Śląskie, tarnogórski",50.493,18.909542,4/4,Zapytaj,pełna własność,balkon,garaż/miejsce parkingowe,brak informacji,brak informacji,blok,nie,"telewizja kablowa, internet, telefon",domofon / wideofon,wielka płyta,wtórny
1,360 000 zł,"51,42 m²","ŁÓdzka, 2 pokoje z miejscem postojowym, winda",2,Zapytaj,Nieruchomość znajduje się w zaznaczonym obszarze mapy. Niestety ogłoszeniodawca nie wskazał dokładnego adresu.,"Parkitka, Częstochowa, Częstochowa",50.82584,19.10368,3/3,Zapytaj,Zapytaj,balkon,garaż/miejsce parkingowe,brak informacji,brak informacji,blok,tak,brak informacji,brak informacji,brak informacji,wtórny
1,359 000 zł,"51,3 m²",3 pokoje | podłogówka | po remoncie | PREMIUM,3,do zamieszkania,Nieruchomość znajduje się w zaznaczonym obszarze mapy. Niestety ogłoszeniodawca nie wskazał dokładnego adresu.,"Zatorze, Gliwice, Gliwice",50.297061,18.692592,3/4,"120,28 zł",pełna własność,Zapytaj,garaż/miejsce parkingowe,brak informacji,1930,kamienica,nie,"telewizja kablowa, internet",drzwi / okna antywłamaniowe,cegła,wtórny
1,389 000 zł,52 m²,Nowoczesne M4/Tysiąclecie/Prywatny parking,3,do zamieszkania,Nieruchomość znajduje się w zaznaczonym obszarze mapy. Niestety ogłoszeniodawca nie wskazał dokładnego adresu.,"Tysiąclecie, Częstochowa, Częstochowa",50.823734,19.122752,3/3,600 zł,Zapytaj,balkon,Zapytaj,brak informacji,brak informacji,blok,nie,brak informacji,brak informacji,cegła,wtórny
1,480 000 zł,"108,6 m²",Przestronne widne m. plus poddasze 108.6 m SKOCZÓW,4,do zamieszkania,Nieruchomość znajduje się w zaznaczonym obszarze mapy. Niestety ogłoszeniodawca nie wskazał dokładnego adresu.,"Skoczów, cieszyński, śląskie",49.80875,18.79029,2/2,Zapytaj,pełna własność,balkon,Zapytaj,brak informacji,brak informacji,kamienica,nie,brak informacji,"drzwi / okna antywłamaniowe, domofon / wideofon",cegła,wtórny
1,218 000 zł,"55,7 m²",M-4 ul.Zielona nowa niższa cena 218 000.,3,Zapytaj,Nieruchomość znajduje się w zaznaczonym obszarze mapy. Niestety ogłoszeniodawca nie wskazał dokładnego adresu.,"Jastrzębie-Zdrój, Jastrzębie-Zdrój, śląskie",49.948585,18.609532,8/10,720 zł,spółdzielcze wł. z KW,balkon,Zapytaj,brak informacji,1975,blok,tak,brak informacji,brak informacji,brak informacji,wtórny
1,195 000 zł,45 m²,"M-4 ul.Łowicka, przytulne zadbane do zamieszkania.",3,do zamieszkania,Nieruchomość znajduje się w zaznaczonym obszarze mapy. Niestety ogłoszeniodawca nie wskazał dokładnego adresu.,"Jastrzębie-Zdrój, Jastrzębie-Zdrój, śląskie",49.947288,18.603018,1/4,Zapytaj,Zapytaj,balkon,Zapytaj,brak informacji,brak informacji,blok,nie,brak informacji,brak informacji,brak informacji,wtórny
1,300 000 zł,56 m²,M-4 oś. Pawlikowskiego niski blok,3,do zamieszkania,Nieruchomość znajduje się w zaznaczonym obszarze mapy. Niestety ogłoszeniodawca nie wskazał dokładnego adresu.,"Pawlikowskiego, Żory, Żory",50.032127,18.680806,4/4,750 zł,Zapytaj,balkon,Zapytaj,brak informacji,1980,blok,nie,internet,brak informacji,brak informacji,wtórny
1,319 000 zł,"59,39 m²",Funkcjonalne M4 z dużym tarasem w sąsiedztwie lasu,3,do zamieszkania,Nieruchomość znajduje się w zaznaczonym obszarze mapy. Niestety ogłoszeniodawca nie wskazał dokładnego adresu.,"Janów - Nikiszowiec, Katowice, Katowice",50.240153,19.078183,4/4,570 zł,pełna własność,balkon,Zapytaj,brak informacji,brak informacji,blok,nie,internet,brak informacji,wielka płyta,wtórny
1,450 000 zł,"73,9 m²","Mieszkanie 74m2 Katowice, Osiedle Tysiąclecia",4,Zapytaj,Współrzędne dokładne,"Katowice, Katowice, śląskie",50.280691,18.973906,> 10/14,Zapytaj,Zapytaj,balkon,Zapytaj,brak informacji,1975,blok,tak,brak informacji,brak informacji,brak informacji,wtórny
1,745 000 zł,116 m²,Atrakcyjny apartament w wysokim standardzie!,4,Zapytaj,Współrzędne dokładne,"ul. Architektów , Bielsko-Biała, Bielsko-Biała",49.84943,19.07484,1/2,200 zł,Zapytaj,Zapytaj,Zapytaj,2023-02-17,2022,brak informacji,nie,brak informacji,brak informacji,brak informacji,wtórny
1,319 800 zł,"62,85 m²",Zadbane 3 pokoje z tarasem | Sosnowiec Centrum.,3,do zamieszkania,Nieruchomość znajduje się w zaznaczonym obszarze mapy. Niestety ogłoszeniodawca nie wskazał dokładnego adresu.,"Centrum, Sosnowiec, Sosnowiec",50.28626,19.10408,1/11,931 zł,spółdzielcze wł. z KW,"balkon, taras",Zapytaj,brak informacji,1980,blok,tak,"telewizja kablowa, internet, telefon","drzwi / okna antywłamaniowe, domofon / wideofon",wielka płyta,wtórny
1,368 000 zł,66 m²,4 pokoje w ścisłym Centrum / Duży Balkon / 66m2,4,Zapytaj,Nieruchomość znajduje się w zaznaczonym obszarze mapy. Niestety ogłoszeniodawca nie wskazał dokładnego adresu.,"Centrum, Częstochowa, Częstochowa",50.81193,19.10778,5/10,Zapytaj,pełna własność,balkon,Zapytaj,brak informacji,brak informacji,brak informacji,tak,brak informacji,brak informacji,brak informacji,wtórny
1,269 000 zł,46 m²,2 pokoje Armii Krajowej,2,do zamieszkania,Nieruchomość znajduje się w zaznaczonym obszarze mapy. Niestety ogłoszeniodawca nie wskazał dokładnego adresu.,"Tysiąclecie, Częstochowa, Częstochowa",50.82757,19.11896,3/4,520 zł,Zapytaj,balkon,Zapytaj,brak informacji,brak informacji,blok,nie,brak informacji,brak informacji,brak informacji,wtórny
1,89 000 zł,70 m²,Lokal inwestycyjny,2,do remontu,Nieruchomość znajduje się w zaznaczonym obszarze mapy. Niestety ogłoszeniodawca nie wskazał dokładnego adresu.,"Stare Miasto, Częstochowa, Częstochowa",50.81116,19.12676,Zapytaj,Zapytaj,pełna własność,Zapytaj,Zapytaj,brak informacji,brak informacji,kamienica,nie,brak informacji,brak informacji,brak informacji,wtórny
1,219 000 zł,"56,8 m²",3 pokoje Raków,3,do remontu,Nieruchomość znajduje się w zaznaczonym obszarze mapy. Niestety ogłoszeniodawca nie wskazał dokładnego adresu.,"Raków, Częstochowa, Częstochowa",50.77786,19.15843,4/4,530 zł,Zapytaj,balkon,Zapytaj,brak informacji,brak informacji,blok,nie,brak informacji,brak informacji,brak informacji,wtórny
1,269 000 zł,60 m²,"Dąbrowa Gór. Kasprzaka, 3 pokoje, balkon.",3,do remontu,Współrzędne dokładne,"Dąbrowa Górnicza, Gołonóg, ul. Marcina Kasprzaka",50.33055,19.236982,4/4,Zapytaj,Zapytaj,balkon,Zapytaj,brak informacji,brak informacji,blok,nie,brak informacji,brak informacji,wielka płyta,wtórny
1,650 000 zł,"82,2 m²",Dwupoziomowe mieszkanie ul. Kopczyńskiego Bielsko,5,do wykończenia,Współrzędne dokładne,"ul. Kazimierza Kopczyńskiego , Bielsko-Biała, Bielsko-Biała",49.802367,18.991494,1,Zapytaj,pełna własność,balkon,garaż/miejsce parkingowe,brak informacji,2015,szeregowiec,nie,"telewizja kablowa, internet, telefon","drzwi / okna antywłamaniowe, teren zamknięty, domofon / wideofon",brak informacji,wtórny
1,225 000 zł,"43,5 m²","Chorzów, dwa pokoje 43,5m2 po remoncie",2,Zapytaj,Współrzędne dokładne,"ul. Wiejska , Chorzów, Chorzów",50.319475,18.958875,1/3,420 zł,pełna własność,Zapytaj,Zapytaj,brak informacji,brak informacji,brak informacji,nie,brak informacji,domofon / wideofon,brak informacji,wtórny
1,268 000 zł,"43,51 m²","Sosnowiec Zagórze, mieszkanie M-3 do zamieszkania",2,do zamieszkania,Nieruchomość znajduje się w zaznaczonym obszarze mapy. Niestety ogłoszeniodawca nie wskazał dokładnego adresu.,"Zagórze, Sosnowiec, Sosnowiec",50.29957,19.1989,3/4,700 zł,pełna własność,balkon,Zapytaj,brak informacji,brak informacji,blok,nie,brak informacji,brak informacji,cegła,wtórny
1,169 900 zł,18 m²,REZERWACJA kawalerka idealna pod wynajem,1,do zamieszkania,Nieruchomość znajduje się w zaznaczonym obszarze mapy. Niestety ogłoszeniodawca nie wskazał dokładnego adresu.,"Syberka, Będzin, będziński",50.32065,19.11568,1/10,Zapytaj,Zapytaj,Zapytaj,Zapytaj,brak informacji,1980,blok,nie,"telewizja kablowa, internet, telefon","drzwi / okna antywłamaniowe, domofon / wideofon",cegła,wtórny
1,799 000 zł,140 m²,Katowice Koszutka. Połowa domu do sprzedaży,6,do zamieszkania,Nieruchomość znajduje się w zaznaczonym obszarze mapy. Niestety ogłoszeniodawca nie wskazał dokładnego adresu.,"Koszutka, Katowice, Katowice",50.270903,19.02914,2/2,Zapytaj,pełna własność,Zapytaj,Zapytaj,2023-05-09,1965,dom wolnostojący,nie,"telewizja kablowa, internet",brak informacji,cegła,wtórny
1,398 000 zł,67 m²,"Zabrze Dubiela, Traugutta, 3 pokoje 1piętro",3,do zamieszkania,Nieruchomość znajduje się w zaznaczonym obszarze mapy. Niestety ogłoszeniodawca nie wskazał dokładnego adresu.,"Centrum, Zabrze, Zabrze",50.308699,18.778504,1/4,340 zł,pełna własność,Zapytaj,Zapytaj,brak informacji,1930,kamienica,nie,brak informacji,"drzwi / okna antywłamaniowe, teren zamknięty, domofon / wideofon",cegła,wtórny
1,134 000 zł,"31,13 m²",mieszkanie w centrum,2,Zapytaj,Współrzędne dokładne,"ul. Bukowina , Orzesze, mikołowski",50.151519,18.781013,parter/2,Zapytaj,pełna własność,Zapytaj,Zapytaj,brak informacji,brak informacji,kamienica,nie,brak informacji,monitoring / ochrona,cegła,wtórny
1,849 000 zł,"93,25 m²",Luksusowy Apartament W Wysokim Standardzie!,3,do zamieszkania,Nieruchomość znajduje się w zaznaczonym obszarze mapy. Niestety ogłoszeniodawca nie wskazał dokładnego adresu.,"Sielec, Sosnowiec, Sosnowiec",50.27618,19.160049,4/4,550 zł,pełna własność,"balkon, taras",garaż/miejsce parkingowe,brak informacji,2013,apartamentowiec,tak,brak informacji,"system alarmowy, monitoring / ochrona",brak informacji,wtórny
1,219 000 zł,"47,4 m²",Mieszkanie po remoncie M3 Rydułtowy Ofiar Terroru,2,do zamieszkania,Nieruchomość znajduje się w zaznaczonym obszarze mapy. Niestety ogłoszeniodawca nie wskazał dokładnego adresu.,"Rydułtowy, wodzisławski, śląskie",50.066925,18.428981,parter/4,500 zł,spółdzielcze własnościowe,Zapytaj,Zapytaj,brak informacji,brak informacji,blok,nie,"telewizja kablowa, internet","drzwi / okna antywłamaniowe, domofon / wideofon",brak informacji,wtórny
1,179 000 zł,35 m²,"Sprzedam mieszkanie 2 pokoje, 35m2 - Amelung!",2,do zamieszkania,Współrzędne dokładne,"Chorzów, Szarlociniec, ul. Gwarecka",50.297525,18.930981,2/4,310 zł,spółdzielcze własnościowe,Zapytaj,Zapytaj,brak informacji,1980,blok,nie,"telewizja kablowa, internet, telefon","drzwi / okna antywłamaniowe, domofon / wideofon",cegła,wtórny
1,199 000 zł,65 m²,"Mieszkanie z ogródkiem Bytom Łagiewniki 65 m2, Ip",2,do zamieszkania,Współrzędne dokładne,"Bytom, Łagiewniki, ul. Krzyżowa",50.329939,18.941272,1/3,"306,44 zł",pełna własność,ogródek,garaż/miejsce parkingowe,brak informacji,brak informacji,kamienica,nie,brak informacji,"drzwi / okna antywłamaniowe, domofon / wideofon",cegła,wtórny
1,799 000 zł,"90,3 m²",4-ro pak inwestycyjny Kawalerka Centrum Katowice,4,do zamieszkania,Współrzędne dokładne,"Katowice, Centrum, ul. Francuska 31",50.253737,19.026956,3/4,685 zł,pełna własność,balkon,Zapytaj,brak informacji,1930,kamienica,nie,"telewizja kablowa, internet",domofon / wideofon,cegła,wtórny
1,259 900 zł,38 m²,M3 Wysoki Standard/ Do Wprowadzenia/Wrzosowiak,2,do zamieszkania,Nieruchomość znajduje się w zaznaczonym obszarze mapy. Niestety ogłoszeniodawca nie wskazał dokładnego adresu.,"Wrzosowiak, Częstochowa, Częstochowa",50.7775,19.13818,6/10,540 zł,spółdzielcze własnościowe,balkon,Zapytaj,brak informacji,brak informacji,blok,tak,brak informacji,brak informacji,brak informacji,wtórny
1,280 000 zł,48 m²,"Mieszkanie, 48 m², Dąbrowa Górnicza",2,do zamieszkania,Nieruchomość znajduje się w zaznaczonym obszarze mapy. Niestety ogłoszeniodawca nie wskazał dokładnego adresu.,"Mydlice, Dąbrowa Górnicza, Dąbrowa Górnicza",50.318664,19.182328,2/6,500 zł,Zapytaj,balkon,Zapytaj,brak informacji,1980,blok,tak,brak informacji,brak informacji,brak informacji,wtórny
1,229 900 zł,48 m²,"Ustawne 2-pokoje, okolice Skałki.",2,Zapytaj,Współrzędne dokładne,"Piaśniki, Świętochłowice, Świętochłowice",50.301303,18.910061,9/10,600 zł,pełna własność,balkon,Zapytaj,brak informacji,brak informacji,blok,nie,brak informacji,brak informacji,brak informacji,wtórny
1,220 000 zł,"36,9 m²","Mieszkanie, 36,90 m², Tychy",2,Zapytaj,Nieruchomość znajduje się w zaznaczonym obszarze mapy. Niestety ogłoszeniodawca nie wskazał dokładnego adresu.,"C, Tychy, Tychy",50.11742,18.985189,1/3,360 zł,pełna własność,balkon,Zapytaj,brak informacji,brak informacji,blok,nie,brak informacji,brak informacji,brak informacji,wtórny
1,459 000 zł,60 m²,Ładne M4 do wejścia z balkonem!,3,Zapytaj,Nieruchomość znajduje się w zaznaczonym obszarze mapy. Niestety ogłoszeniodawca nie wskazał dokładnego adresu.,"Osiedle Witosa, Katowice, Katowice",50.26163,18.970732,3/4,700 zł,spółdzielcze wł. z KW,balkon,Zapytaj,brak informacji,brak informacji,brak informacji,nie,brak informacji,"drzwi / okna antywłamaniowe, domofon / wideofon",brak informacji,wtórny
1,459 000 zł,60 m²,Ładne M4 do wejścia z balkonem!,3,Zapytaj,Nieruchomość znajduje się w zaznaczonym obszarze mapy. Niestety ogłoszeniodawca nie wskazał dokładnego adresu.,"Osiedle Witosa, Katowice, Katowice",50.26163,18.970732,3/4,700 zł,spółdzielcze wł. z KW,balkon,Zapytaj,brak informacji,brak informacji,brak informacji,nie,brak informacji,"drzwi / okna antywłamaniowe, domofon / wideofon",brak informacji,wtórny
1,329 000 zł,"52,2 m²","M3 52,2 m2 Bohaterów Katynia po remoncie",2,do zamieszkania,Współrzędne dokładne,"Częstochowa, Błeszno, ul. Bohaterów Katynia",50.77412,19.15141,2/10,Zapytaj,pełna własność,balkon,garaż/miejsce parkingowe,2023-05-09,brak informacji,brak informacji,nie,brak informacji,brak informacji,brak informacji,wtórny
1,360 000 zł,"66,5 m²","3pokoje, Trynek, Pszczyńska Co miejskie, 2 balkony",3,do remontu,Współrzędne dokładne,"Gliwice, Trynek, ul. Pszczyńska",50.288091,18.669498,10/10,660 zł,pełna własność,balkon,Zapytaj,brak informacji,1970,blok,tak,brak informacji,brak informacji,wielka płyta,wtórny
1,239 000 zł,29 m²,✅Piękne mieszkanie 2 pokoje - Katowice Giszowiec,2,do zamieszkania,Współrzędne dokładne,"Giszowiec, Katowice, Katowice",50.223618,19.060955,parter/10,310 zł,pełna własność,Zapytaj,Zapytaj,brak informacji,1980,blok,tak,"telewizja kablowa, internet, telefon",drzwi / okna antywłamaniowe,cegła,wtórny
1,379 000 zł,"64,5 m²",Zadbane M-4 Do Odświeżenia! 2 Balkony!,3,do zamieszkania,Nieruchomość znajduje się w zaznaczonym obszarze mapy. Niestety ogłoszeniodawca nie wskazał dokładnego adresu.,"Tychy, Tychy, śląskie",50.104107,18.983415,8/8,Zapytaj,spółdzielcze wł. z KW,balkon,garaż/miejsce parkingowe,brak informacji,brak informacji,blok,tak,brak informacji,brak informacji,wielka płyta,wtórny
1,285 000 zł,60 m²,"M-4 os. Sikorskiego, układ szwedzki!",3,do zamieszkania,Nieruchomość znajduje się w zaznaczonym obszarze mapy. Niestety ogłoszeniodawca nie wskazał dokładnego adresu.,"Sikorskiego, Żory, Żory",50.029378,18.693631,4/4,Zapytaj,Zapytaj,balkon,Zapytaj,brak informacji,brak informacji,blok,nie,brak informacji,brak informacji,wielka płyta,wtórny
1,220 000 zł,"51,35 m²",Mieszkanie z pięknym dużym salonem.,2,do remontu,Nieruchomość znajduje się w zaznaczonym obszarze mapy. Niestety ogłoszeniodawca nie wskazał dokładnego adresu.,"Centrum, Sosnowiec, Sosnowiec",50.28626,19.10408,4/11,Zapytaj,spółdzielcze własnościowe,balkon,Zapytaj,brak informacji,brak informacji,blok,tak,brak informacji,domofon / wideofon,brak informacji,wtórny
1,150 000 zł,"32,5 m²","Dwa pokoje Zagórze, super układ",2,do remontu,Współrzędne dokładne,"Sosnowiec, Zagórze, ul. Romana Dmowskiego",50.303368,19.203362,parter/4,470 zł,pełna własność,Zapytaj,Zapytaj,brak informacji,brak informacji,blok,nie,brak informacji,domofon / wideofon,brak informacji,wtórny
1,235 000 zł,"46,5 m²",2 pokoje z balkonem Sosnowiec Zagórze,2,Zapytaj,Współrzędne dokładne,"Zagórze, Sosnowiec, Sosnowiec",50.311228,19.1918,1/4,500 zł,Zapytaj,balkon,Zapytaj,brak informacji,brak informacji,blok,nie,brak informacji,brak informacji,brak informacji,wtórny
1,220 000 zł,38 m²,"Mieszkanie, 38 m², Łaziska Górne",2,do zamieszkania,Nieruchomość znajduje się w zaznaczonym obszarze mapy. Niestety ogłoszeniodawca nie wskazał dokładnego adresu.,"Łaziska Górne, mikołowski, śląskie",50.14913,18.84118,4/4,400 zł,Zapytaj,Zapytaj,Zapytaj,brak informacji,brak informacji,blok,nie,brak informacji,brak informacji,brak informacji,wtórny
1,240 000 zł,"52,1 m²","3 pokoje z balkonem, ul. Działkowa 10B, niski blok",3,do remontu,Nieruchomość znajduje się w zaznaczonym obszarze mapy. Niestety ogłoszeniodawca nie wskazał dokładnego adresu.,"Batory, Chorzów, Chorzów",50.266596,18.93745,4/4,525 zł,spółdzielcze własnościowe,balkon,Zapytaj,brak informacji,1968,blok,nie,brak informacji,domofon / wideofon,brak informacji,wtórny
1,250 000 zł,"44,58 m²","Mieszkanie, 44,58 m², Tychy",2,do remontu,Współrzędne dokładne,"B, Tychy, Tychy",50.129028,18.97154,3/3,Zapytaj,Zapytaj,balkon,Zapytaj,brak informacji,brak informacji,blok,nie,brak informacji,brak informacji,brak informacji,wtórny
1,290 000 zł,"54,5 m²",Gwarancja ceny i czas na uzyskanie finansowania 2%,3,Zapytaj,Nieruchomość znajduje się w zaznaczonym obszarze mapy. Niestety ogłoszeniodawca nie wskazał dokładnego adresu.,"Halemba, Ruda Śląska, Ruda Śląska",50.25151,18.90779,4/4,550 zł,pełna własność,balkon,Zapytaj,brak informacji,brak informacji,blok,nie,"telewizja kablowa, internet, telefon",domofon / wideofon,brak informacji,wtórny
1,269 000 zł,45 m²,"Bardzo gustowne, nowe 2 pokoje czekają na Ciebie",2,do zamieszkania,Nieruchomość znajduje się w zaznaczonym obszarze mapy. Niestety ogłoszeniodawca nie wskazał dokładnego adresu.,"Siemianowice Śląskie, Siemianowice Śląskie, śląskie",50.33012,19.03136,parter/1,Zapytaj,pełna własność,Zapytaj,Zapytaj,brak informacji,brak informacji,kamienica,nie,brak informacji,"drzwi / okna antywłamaniowe, domofon / wideofon",cegła,wtórny
1,515 000 zł,65 m²,Zagórze.Apartament 65m bezczynszowy do negocjacji,3,do zamieszkania,Współrzędne dokładne,"Sosnowiec, Zagórze, ul. Teofila Lenartowicza",50.291411,19.200607,1/3,210 zł,pełna własność,balkon,Zapytaj,brak informacji,2018,apartamentowiec,tak,"telewizja kablowa, internet","drzwi / okna antywłamaniowe, teren zamknięty, domofon / wideofon, monitoring / ochrona",cegła,wtórny
1,179 000 zł,38 m²,| Pordzika | 2 Pokoje | Parter | Balkon | Garaż |,2,do zamieszkania,Współrzędne dokładne,"Ruda Śląska, Bykowina, ul. Józefa Pordzika",50.270991,18.901061,parter/4,380 zł,pełna własność,balkon,Zapytaj,brak informacji,1985,blok,nie,internet,drzwi / okna antywłamaniowe,wielka płyta,wtórny
1,299 000 zł,49 m²,| 0% | Bykowina | Balkon | Generalny remont | M4 |,3,do zamieszkania,Współrzędne dokładne,"Ruda Śląska, Bykowina, ul. Brygadzistów",50.266874,18.900627,3/3,500 zł,pełna własność,balkon,Zapytaj,brak informacji,brak informacji,blok,nie,internet,"drzwi / okna antywłamaniowe, domofon / wideofon",wielka płyta,wtórny
1,184 000 zł,52 m²,1 Piętro | Kalina | Balkon | CO gazowe | Opcja M4,2,do remontu,Współrzędne dokładne,"Świętochłowice, Zgoda, ul. Grunwaldzka",50.282646,18.927111,1/1,320 zł,pełna własność,balkon,Zapytaj,brak informacji,brak informacji,brak informacji,nie,internet,domofon / wideofon,cegła,wtórny
1,195 000 zł,"50,2 m²",Mieszkanie 2 - pokojowe na sprzedaż,2,Zapytaj,Współrzędne dokładne,"Bytom, Rozbark, ul. Siemianowicka",50.342183,18.946928,parter,Zapytaj,pełna własność,Zapytaj,Zapytaj,brak informacji,brak informacji,brak informacji,nie,telewizja kablowa,domofon / wideofon,brak informacji,wtórny
1,269 000 zł,46 m²,M4 |Balkon | AGD nowe | Podgrzewana podłoga| Remon,3,do zamieszkania,Współrzędne dokładne,"Ruda Śląska, Bielszowice, ul. ks. Józefa Niedzieli",50.274338,18.830999,2/4,450 zł,pełna własność,balkon,Zapytaj,brak informacji,brak informacji,blok,nie,internet,"drzwi / okna antywłamaniowe, domofon / wideofon",brak informacji,wtórny
1,270 000 zł,47 m²,Halemba | Solidarności | 0% | M4 | 2piętro,3,do zamieszkania,Współrzędne dokładne,"Ruda Śląska, Halemba, ul. Solidarności",50.242063,18.830643,2/4,Zapytaj,pełna własność,Zapytaj,Zapytaj,brak informacji,brak informacji,blok,nie,internet,"drzwi / okna antywłamaniowe, domofon / wideofon",wielka płyta,wtórny
1,264 800 zł,64 m²,Kotarbińskiego | 3 Duże Pokoje | Balkon | Zabrze,3,do remontu,Współrzędne dokładne,"Zabrze, Centrum, ul. Gdańska",50.31799,18.773173,3/4,760 zł,pełna własność,balkon,Zapytaj,brak informacji,1975,blok,nie,internet,"drzwi / okna antywłamaniowe, domofon / wideofon",wielka płyta,wtórny
1,264 800 zł,64 m²,Kotarbińskiego | 3 Duże Pokoje | Balkon | Zabrze,3,do remontu,Współrzędne dokładne,"Zabrze, Centrum, ul. Gdańska",50.31799,18.773173,3/4,760 zł,pełna własność,balkon,Zapytaj,brak informacji,1975,blok,nie,internet,"drzwi / okna antywłamaniowe, domofon / wideofon",wielka płyta,wtórny
1,229 000 zł,38 m²,Podlas | Duży Balkon | 0% | Generalny remont | M3,2,do zamieszkania,Współrzędne dokładne,"Ruda Śląska, Godula, ul. Podlas",50.317,18.880683,8/10,Zapytaj,spółdzielcze własnościowe,balkon,Zapytaj,brak informacji,brak informacji,blok,nie,internet,drzwi / okna antywłamaniowe,brak informacji,wtórny
1,349 000 zł,64 m²,"3 pokoje do wejścia, świetna oferta!",3,do wykończenia,Współrzędne dokładne,"Sosnowiec, Centrum, ul. Naftowa",50.267565,19.125855,2/10,Zapytaj,pełna własność,balkon,Zapytaj,brak informacji,brak informacji,blok,tak,"telewizja kablowa, internet, telefon","drzwi / okna antywłamaniowe, domofon / wideofon",brak informacji,wtórny
1,295 000 zł,"45,75 m²",46 m2 z balkonem w Gliwicach Sikornik,2,do zamieszkania,Współrzędne dokładne,"Gliwice, Sikornik, ul. Kormoranów 4",50.275137,18.655591,3/4,500 zł,pełna własność,balkon,garaż/miejsce parkingowe,brak informacji,1980,blok,nie,"telewizja kablowa, internet, telefon","drzwi / okna antywłamaniowe, domofon / wideofon",wielka płyta,wtórny
1,269 000 zł,"47,9 m²",3- Pokojowe Mieszkanie Os. Złote Łany,3,Zapytaj,Nieruchomość znajduje się w zaznaczonym obszarze mapy. Niestety ogłoszeniodawca nie wskazał dokładnego adresu.,"Złote Łany, Bielsko-Biała, Bielsko-Biała",49.81163,19.06278,4/4,550 zł,Zapytaj,balkon,Zapytaj,brak informacji,brak informacji,blok,nie,brak informacji,brak informacji,brak informacji,wtórny
1,240 000 zł,"48,7 m²","Sprzedam mieszkanie, Piekary Śląskie, Os. Wschód",2,do zamieszkania,Współrzędne dokładne,"ul. Szmaragdowa , Piekary Śląskie, Piekary Śląskie",50.387327,18.962292,2/4,Zapytaj,spółdzielcze wł. z KW,balkon,Zapytaj,brak informacji,1985,blok,nie,"telewizja kablowa, internet, telefon",brak informacji,brak informacji,wtórny
1,319 000 zł,"109,9 m²",Nowa Niższa Cena! 2 Piętra+Ogród,4,do remontu,Nieruchomość znajduje się w zaznaczonym obszarze mapy. Niestety ogłoszeniodawca nie wskazał dokładnego adresu.,"Zabrze, Zabrze, śląskie",50.30647,18.738537,1/2,Zapytaj,pełna własność,ogródek,garaż/miejsce parkingowe,brak informacji,brak informacji,dom wolnostojący,nie,brak informacji,brak informacji,cegła,wtórny
1,299 900 zł,"75,6 m²",Mieszkanie 3-pokojowe w budynku dwurodzinnym|Ogród,3,do remontu,Nieruchomość znajduje się w zaznaczonym obszarze mapy. Niestety ogłoszeniodawca nie wskazał dokładnego adresu.,"Maciejów, Zabrze, Zabrze",50.30647,18.738537,parter/2,Zapytaj,pełna własność,ogródek,garaż/miejsce parkingowe,brak informacji,brak informacji,dom wolnostojący,nie,brak informacji,brak informacji,cegła,wtórny
1,289 000 zł,"33,3 m²",Nowoczesne 2 pokoje na Północy z balkonem,2,do zamieszkania,Współrzędne dokładne,"Częstochowa, Północ, ul. Fieldorfa-Nila",50.837017,19.134459,3/4,470 zł,spółdzielcze własnościowe,balkon,Zapytaj,brak informacji,brak informacji,blok,nie,brak informacji,brak informacji,beton,wtórny
1,160 790 zł,"54,52 m²",sprzedam mieszkanie w Wodzisławiu Śląskim,3,do zamieszkania,Współrzędne dokładne,"os. XXX-lecia PRL , Wodzisław Śląski, wodzisławski",50.01212,18.456349,3/10,Zapytaj,pełna własność,balkon,Zapytaj,brak informacji,brak informacji,blok,nie,brak informacji,brak informacji,wielka płyta,wtórny
1,34 343 zł,"58,74 m²",udział w lokalu mieszkalnym w Jastrzębiu-Zdroju,3,do zamieszkania,Współrzędne dokładne,"ul. Beskidzka , Jastrzębie-Zdrój, Jastrzębie-Zdrój",49.945424,18.591835,3/5,Zapytaj,pełna własność,balkon,Zapytaj,brak informacji,brak informacji,blok,nie,brak informacji,brak informacji,beton,wtórny
1,200 000 zł,50 m²,Funkcjonalne Mieszkanie 2-Pokojowe Na Parterze,2,do zamieszkania,Współrzędne dokładne,"ul. Łużycka , Bytom, Bytom",50.354177,18.896275,parter,450 zł,Zapytaj,Zapytaj,Zapytaj,brak informacji,brak informacji,brak informacji,nie,brak informacji,"system alarmowy, drzwi / okna antywłamaniowe, domofon / wideofon",brak informacji,wtórny
1,419 000 zł,36 m²,Apartament z tarasem 4 Wieże,1,do zamieszkania,Współrzędne dokładne,"Katowice, Dąb, ul. Chorzowska 210",50.272668,18.990985,3,150 zł,pełna własność,taras,Zapytaj,brak informacji,brak informacji,apartamentowiec,nie,brak informacji,brak informacji,brak informacji,wtórny
1,270 000 zł,60 m²,Sosnowiec Niwka ul. Dojazd - 60m2,3,do wykończenia,Nieruchomość znajduje się w zaznaczonym obszarze mapy. Niestety ogłoszeniodawca nie wskazał dokładnego adresu.,"Niwka, Sosnowiec, Sosnowiec",50.238143,19.158691,2/4,500 zł,pełna własność,balkon,Zapytaj,brak informacji,brak informacji,blok,nie,"telewizja kablowa, internet, telefon",domofon / wideofon,cegła,wtórny
1,260 000 zł,105 m²,"3 pokoje o pow. 105 m2, 2 balkony, osobna kuchnia",3,do zamieszkania,Współrzędne dokładne,"ul. Adama Mickiewicza , Bytom, Bytom",50.34938,18.91962,3/4,650 zł,pełna własność,balkon,Zapytaj,brak informacji,1930,kamienica,nie,brak informacji,domofon / wideofon,brak informacji,wtórny
1,369 000 zł,105 m²,Znakomita Lokalizacja Jaworzno Dąbrowa Narodowa,5,do wykończenia,Współrzędne dokładne,"Dąbrowa Górnicza, Dąbrowa Górnicza, śląskie",50.236336,19.222813,1/1,Zapytaj,Zapytaj,taras,Zapytaj,brak informacji,2023,dom wolnostojący,nie,brak informacji,brak informacji,brak informacji,wtórny
1,269 000 zł,48 m²,Dwupokojowe mieszkanie do remontu,2,Zapytaj,Współrzędne dokładne,"Gliwice, Szobiszowice, ul. Jana Śliwki",50.307005,18.663349,3,Zapytaj,pełna własność,balkon,Zapytaj,brak informacji,brak informacji,blok,nie,brak informacji,domofon / wideofon,brak informacji,wtórny
1,94 000 zł,"43,06 m²","Mieszkanie na parterze do aranżacji, Szombierki",2,do remontu,Współrzędne dokładne,"ul. Wincentego Witosa , Bytom, Bytom",50.335639,18.893717,Zapytaj,184 zł,pełna własność,Zapytaj,Zapytaj,brak informacji,brak informacji,kamienica,nie,brak informacji,domofon / wideofon,brak informacji,wtórny
1,248 600 zł,"56,5 m²","Tanie M do wykończenia - Żółkiewskiego 2 - 56,5m2",3,do wykończenia,Współrzędne dokładne,"Gliwice, Zatorze, ul. Stanisława Żółkiewskiego 2",50.302517,18.689078,2/3,343 zł,pełna własność,Zapytaj,Zapytaj,brak informacji,1940,kamienica,nie,brak informacji,brak informacji,cegła,wtórny
1,369 000 zł,105 m²,Znakomita Lokalizacja Jaworzno Dąbrowa Narodowa,5,do wykończenia,Współrzędne dokładne,"Jaworzno, Jaworzno, śląskie",50.236336,19.222813,1/1,Zapytaj,Zapytaj,taras,Zapytaj,brak informacji,2023,dom wolnostojący,nie,brak informacji,brak informacji,brak informacji,wtórny
1,339 999 zł,"63,69 m²","Mieszkanie, 63,69 m², Bytom",3,do zamieszkania,Nieruchomość znajduje się w zaznaczonym obszarze mapy. Niestety ogłoszeniodawca nie wskazał dokładnego adresu.,"Szombierki, Bytom, Bytom",50.33591,18.8756,1/4,770 zł,pełna własność,balkon,Zapytaj,brak informacji,brak informacji,blok,nie,brak informacji,brak informacji,brak informacji,wtórny
1,369 000 zł,"74,5 m²","Sprzedam / zamienię mieszkanie 4-pokojowe 74,5 m2",4,do remontu,Współrzędne dokładne,"Sosnowiec, Niwka, ul. Benedykta Dybowskiego",50.247243,19.171731,1/4,620 zł,Zapytaj,"balkon, taras",Zapytaj,brak informacji,1987,blok,nie,"telewizja kablowa, internet, telefon",domofon / wideofon,wielka płyta,wtórny
1,549 000 zł,"84,81 m²",Przestronny 3-pokojowy apartament.,3,do zamieszkania,Współrzędne dokładne,"ul. Łagodna , Czechowice-Dziedzice, bielski",49.92407,18.994751,4/4,1 000 zł,pełna własność,Zapytaj,Zapytaj,brak informacji,2015,apartamentowiec,tak,"telewizja kablowa, internet","teren zamknięty, domofon / wideofon, monitoring / ochrona",pustak,wtórny
1,163 400 zł,28 m²,Kawalerka z C.O i ciepłą wodą z sieci/niski czynsz,1,Zapytaj,Współrzędne dokładne,"ul. Grunwaldzka , Jaworzno, Jaworzno",50.211914,19.257462,4/4,Zapytaj,Zapytaj,Zapytaj,Zapytaj,brak informacji,brak informacji,blok,nie,"telewizja kablowa, internet, telefon","drzwi / okna antywłamaniowe, teren zamknięty, domofon / wideofon",wielka płyta,wtórny
1,269 000 zł,"42,6 m²",Bykowina 0% PROWIZJI Gotowe Do Zamieszkania,2,do zamieszkania,Współrzędne dokładne,"Ruda Śląska, Bykowina, ul. Plebiscytowa",50.273488,18.898692,3/10,400 zł,pełna własność,balkon,Zapytaj,brak informacji,1980,blok,tak,"telewizja kablowa, internet","drzwi / okna antywłamaniowe, domofon / wideofon",inne,wtórny
