option,prize,surface,offer name,rooms ,standard,localization_info,localization_name,latitude,longitude,floor_number,rental_cost,form_of_property,extras,garage,availability,year_of_construction,type_of_building,elevator,media,security,building_material,market
1,452 000 zł,"60,4 m²",** Trzypokojowy apartament 60 m2 D&D INVESTMENT **,3,do wykończenia,Współrzędne dokładne,"Sosnowiec, Zagórze, ul. Mielecka",50.286827,19.191929,3/4,Zapytaj,pełna własność,"balkon, taras",garaż/miejsce parkingowe,brak informacji,2023,apartamentowiec,tak,"telewizja kablowa, internet, telefon","drzwi / okna antywłamaniowe, teren zamknięty, domofon / wideofon, monitoring / ochrona",pustak,pierwotny
1,479 000 zł,"64,66 m²",* D&D INVESTMENT Apartament trzypokoje + taras *,3,do wykończenia,Współrzędne dokładne,"Sosnowiec, Zagórze, ul. Mielecka",50.286827,19.191929,2/4,Zapytaj,pełna własność,"balkon, taras",garaż/miejsce parkingowe,brak informacji,2023,apartamentowiec,tak,"telewizja kablowa, internet","drzwi / okna antywłamaniowe, teren zamknięty, domofon / wideofon, monitoring / ochrona",pustak,pierwotny
1,1 150 000 zł,"81,26 m²",Nowa Cena! Penthouse w Dolinie Trzech Stawów!,4,do wykończenia,Współrzędne dokładne,"Katowice, Osiedle Paderewskiego, ul. gen. Władysława Sikorskiego",50.252738,19.041881,8/8,Zapytaj,Zapytaj,"balkon, taras",garaż/miejsce parkingowe,brak informacji,2022,apartamentowiec,tak,brak informacji,monitoring / ochrona,brak informacji,pierwotny
1,431 135 zł,"37,49 m²",Okam Inspire | 2 pokoje / 37m2 + Ogródek 27m2 Top!,2,do wykończenia,Współrzędne dokładne,"Katowice, Osiedle Paderewskiego, ul. gen. Władysława Sikorskiego",50.252459,19.041073,parter/8,Zapytaj,Zapytaj,balkon,garaż/miejsce parkingowe,brak informacji,2022,apartamentowiec,tak,brak informacji,monitoring / ochrona,brak informacji,pierwotny
1,579 255 zł,"50,37 m²",Okam Inspire | 2 pokoje / 50m2 | Top!,2,do wykończenia,Współrzędne dokładne,"Katowice, Osiedle Paderewskiego, ul. gen. Władysława Sikorskiego",50.252459,19.041073,4/8,Zapytaj,Zapytaj,balkon,garaż/miejsce parkingowe,brak informacji,2022,apartamentowiec,tak,brak informacji,monitoring / ochrona,brak informacji,pierwotny
1,305 000 zł,50 m²,"2 pokoje z balkonem, Będzin, Warpie",2,do zamieszkania,Nieruchomość znajduje się w zaznaczonym obszarze mapy. Niestety ogłoszeniodawca nie wskazał dokładnego adresu.,"Warpie, Będzin, będziński",50.31807,19.14638,5/10,650 zł,spółdzielcze własnościowe,balkon,Zapytaj,brak informacji,brak informacji,blok,tak,"telewizja kablowa, internet","drzwi / okna antywłamaniowe, domofon / wideofon",wielka płyta,pierwotny
1,297 629 zł,"44,63 m²",Nowe mieszkania w bardzo dobrej lokalizacji! Windy,2,do wykończenia,Współrzędne dokładne,"Tarnowskie Góry, Śródmieście, ul. Adama Mickiewicza",50.44415,18.83608,1/3,Zapytaj,pełna własność,balkon,garaż/miejsce parkingowe,brak informacji,brak informacji,apartamentowiec,tak,"telewizja kablowa, internet","drzwi / okna antywłamaniowe, teren zamknięty, domofon / wideofon",cegła,pierwotny
1,435 189 zł,"55,35 m²",Nowe mieszkanie! Gotowe w sierpniu! Rabat do 15%!,3,do wykończenia,Nieruchomość znajduje się w zaznaczonym obszarze mapy. Niestety ogłoszeniodawca nie wskazał dokładnego adresu.,"Żwaków, Tychy, Tychy",50.1111,18.95675,1/7,Zapytaj,Zapytaj,Zapytaj,garaż/miejsce parkingowe,brak informacji,2023,apartamentowiec,tak,"telewizja kablowa, internet, telefon",brak informacji,pustak,pierwotny
1,436 582 zł,"53,72 m²",Nowe mieszkanie! Gotowe w sierpniu! Rabat do 15%!,3,do wykończenia,Nieruchomość znajduje się w zaznaczonym obszarze mapy. Niestety ogłoszeniodawca nie wskazał dokładnego adresu.,"Żwaków, Tychy, Tychy",50.1111,18.95675,2/7,Zapytaj,Zapytaj,Zapytaj,garaż/miejsce parkingowe,brak informacji,2023,apartamentowiec,tak,"telewizja kablowa, internet, telefon",brak informacji,pustak,pierwotny
1,428 452 zł,53 m²,Nowe mieszkanie! Gotowe w sierpniu! Rabat do 15%!,3,do wykończenia,Nieruchomość znajduje się w zaznaczonym obszarze mapy. Niestety ogłoszeniodawca nie wskazał dokładnego adresu.,"Żwaków, Tychy, Tychy",50.1111,18.95675,6/7,Zapytaj,Zapytaj,Zapytaj,garaż/miejsce parkingowe,brak informacji,2023,apartamentowiec,tak,"telewizja kablowa, internet, telefon",brak informacji,pustak,pierwotny
1,426 511 zł,"52,62 m²",Mieszkanie z widokiem! 3 pokoje! 2 łazienki!,3,do wykończenia,Nieruchomość znajduje się w zaznaczonym obszarze mapy. Niestety ogłoszeniodawca nie wskazał dokładnego adresu.,"Żwaków, Tychy, Tychy",50.1111,18.95675,7/7,Zapytaj,Zapytaj,Zapytaj,garaż/miejsce parkingowe,brak informacji,2023,apartamentowiec,tak,"telewizja kablowa, internet, telefon",brak informacji,pustak,pierwotny
1,399 195 zł,"59,14 m²","Chorzów, Klimzowiec, ul.Działkowa - 1.M - PROMOCJA",3,do wykończenia,Współrzędne dokładne,"Chorzów, Klimzowiec, ul. Działkowa",50.28348,18.952222,1/3,Zapytaj,pełna własność,balkon,garaż/miejsce parkingowe,brak informacji,2022,apartamentowiec,nie,"telewizja kablowa, internet","teren zamknięty, domofon / wideofon",pustak,pierwotny
1,450 000 zł,"42,69 m²",Nowa Niższa Cena - Bezpośrednio,2,do zamieszkania,Współrzędne dokładne,"Katowice, Zawodzie, ul. Karola Marcinkowskiego",50.261015,19.058893,6/6,380 zł,pełna własność,balkon,garaż/miejsce parkingowe,brak informacji,2022,blok,tak,brak informacji,"drzwi / okna antywłamaniowe, domofon / wideofon",brak informacji,pierwotny
1,228 000 zł,33 m²,"2 pokoje z ogródkiem, parterówka",2,do wykończenia,Współrzędne dokładne,"Folwarki, Żory, Żory",50.056455,18.661397,parter,Zapytaj,Zapytaj,ogródek,garaż/miejsce parkingowe,brak informacji,2023,brak informacji,nie,internet,rolety antywłamaniowe,pustak,pierwotny
1,527 834 zł,"64,37 m²",Nowa Częstochowa | 64m2 | parking,3,do wykończenia,Współrzędne dokładne,"Częstochowa, Parkitka, ul. Okulickiego",50.82512,19.094877,5/6,Zapytaj,pełna własność,balkon,Zapytaj,brak informacji,2024,blok,tak,brak informacji,"drzwi / okna antywłamaniowe, teren zamknięty, domofon / wideofon",pustak,pierwotny
1,375 000 zł,"68,17 m²","Nowe dwupoziomowe mieszkanie 68,17 m2",3,do wykończenia,Współrzędne dokładne,"Racibórz, raciborski, śląskie",50.093773,18.10873,1/1,100 zł,pełna własność,Zapytaj,Zapytaj,brak informacji,2023,apartamentowiec,nie,brak informacji,brak informacji,brak informacji,pierwotny
1,375 000 zł,"68,17 m²","Nowe dwupoziomowe mieszkanie 68,17 m2",3,do wykończenia,Współrzędne dokładne,"Racibórz, raciborski, śląskie",50.093773,18.10873,1/1,100 zł,pełna własność,Zapytaj,Zapytaj,brak informacji,2023,apartamentowiec,nie,brak informacji,brak informacji,brak informacji,pierwotny
1,514 960 zł,"64,37 m²",Nowa Częstochowa | 64m2 | parking,3,do wykończenia,Współrzędne dokładne,"Częstochowa, Parkitka, ul. Okulickiego",50.82512,19.094877,1/6,Zapytaj,pełna własność,balkon,Zapytaj,brak informacji,2024,blok,tak,brak informacji,"drzwi / okna antywłamaniowe, teren zamknięty, domofon / wideofon",pustak,pierwotny
1,540 000 zł,"63,98 m²",3 pokoje + 8m2 balkon nowe osiedle BEZPOŚREDNIO,3,do wykończenia,Nieruchomość znajduje się w zaznaczonym obszarze mapy. Niestety ogłoszeniodawca nie wskazał dokładnego adresu.,"Chorzów, Chorzów, śląskie",50.293969,18.968282,4/6,120 zł,pełna własność,balkon,garaż/miejsce parkingowe,brak informacji,2023,blok,tak,"telewizja kablowa, internet, telefon","drzwi / okna antywłamaniowe, teren zamknięty, domofon / wideofon, monitoring / ochrona",żelbet,pierwotny
1,527 834 zł,"64,37 m²",Nowa Częstochowa | 64m2 | odbiór W TYM ROKU!,3,do wykończenia,Współrzędne dokładne,"Częstochowa, Parkitka, ul. Okulickiego",50.82512,19.094877,5/5,Zapytaj,pełna własność,balkon,Zapytaj,brak informacji,2023,blok,tak,brak informacji,"drzwi / okna antywłamaniowe, teren zamknięty, domofon / wideofon",pustak,pierwotny
1,"524 615,50 zł","64,37 m²",Nowa Częstochowa | 64m2 | odbiór W TYM ROKU!,3,do wykończenia,Współrzędne dokładne,"Częstochowa, Parkitka, ul. Okulickiego",50.82512,19.094877,4/5,Zapytaj,pełna własność,balkon,Zapytaj,brak informacji,2023,blok,tak,brak informacji,"drzwi / okna antywłamaniowe, teren zamknięty, domofon / wideofon",pustak,pierwotny
1,673 695 zł,"68,05 m²","Z Ogródkiem, W Prestiżowej Okolicy",4,do wykończenia,Współrzędne dokładne,"Bielsko-Biała, Kamienica, ul. Kolista",49.79735,19.02072,parter/1,Zapytaj,pełna własność,"ogródek, taras",garaż/miejsce parkingowe,2023-12-01,2023,brak informacji,nie,brak informacji,brak informacji,brak informacji,pierwotny
1,881 199 zł,"89,01 m²","Duży-30 m2 Salon, 2 Balkony , Blisko Gór",4,do wykończenia,Współrzędne dokładne,"Bielsko-Biała, Kamienica, ul. Kolista",49.79735,19.02072,1/1,Zapytaj,pełna własność,"ogródek, taras",garaż/miejsce parkingowe,2023-12-01,2023,brak informacji,nie,brak informacji,brak informacji,brak informacji,pierwotny
1,881 199 zł,"89,01 m²","Dla Aktywnych, Blisko Gór",4,do wykończenia,Współrzędne dokładne,"Bielsko-Biała, Kamienica, ul. Kolista",49.79735,19.02072,1/1,Zapytaj,pełna własność,"ogródek, taras",garaż/miejsce parkingowe,2023-12-01,2023,brak informacji,nie,brak informacji,brak informacji,brak informacji,pierwotny
1,521 397 zł,"64,37 m²",Nowa Częstochowa | 64m2 | odbiór W TYM ROKU!,3,do wykończenia,Współrzędne dokładne,"Częstochowa, Parkitka, ul. Okulickiego",50.82512,19.094877,3/5,Zapytaj,pełna własność,balkon,Zapytaj,brak informacji,2023,blok,tak,brak informacji,"drzwi / okna antywłamaniowe, teren zamknięty, domofon / wideofon",pustak,pierwotny
1,"429 327,36 zł","53,24 m²",Nowe 3pok+Ogród na sierpień Rabat do 15%,3,do wykończenia,Nieruchomość znajduje się w zaznaczonym obszarze mapy. Niestety ogłoszeniodawca nie wskazał dokładnego adresu.,"Żwaków, Tychy, Tychy",50.1111,18.95675,parter/7,180 zł,Zapytaj,Zapytaj,garaż/miejsce parkingowe,2023-08-01,2023,apartamentowiec,tak,brak informacji,brak informacji,pustak,pierwotny
1,348 872 zł,"38,1 m²",Inwestycyjne 2pok|_Gotowe w Sierpniu! Rabat do 15%,2,do wykończenia,Nieruchomość znajduje się w zaznaczonym obszarze mapy. Niestety ogłoszeniodawca nie wskazał dokładnego adresu.,"Żwaków, Tychy, Tychy",50.1111,18.95675,4/7,107 zł,Zapytaj,Zapytaj,garaż/miejsce parkingowe,2023-08-01,2023,apartamentowiec,tak,brak informacji,brak informacji,pustak,pierwotny
1,"469 645,54 zł","62,18 m²",Nowe 4pok_Gotowe w sierpniu+parking gratis,4,do wykończenia,Nieruchomość znajduje się w zaznaczonym obszarze mapy. Niestety ogłoszeniodawca nie wskazał dokładnego adresu.,"Żwaków, Tychy, Tychy",50.1111,18.95675,1/3,164 zł,Zapytaj,Zapytaj,garaż/miejsce parkingowe,2023-08-01,2023,apartamentowiec,tak,brak informacji,brak informacji,pustak,pierwotny
1,532 983 zł,"72,7 m²",Nowe mieszkanie z m. postojowym w hali_na Sierpień,4,do wykończenia,Nieruchomość znajduje się w zaznaczonym obszarze mapy. Niestety ogłoszeniodawca nie wskazał dokładnego adresu.,"Żwaków, Tychy, Tychy",50.103228,18.968656,2/7,180 zł,Zapytaj,Zapytaj,garaż/miejsce parkingowe,2023-08-01,2023,apartamentowiec,tak,brak informacji,brak informacji,pustak,pierwotny
1,482 742 zł,"64,37 m²",PROMOCJA! | 64m2 | Nowa Częstochowa | OGRÓDEK,3,do wykończenia,Współrzędne dokładne,"Częstochowa, Parkitka, ul. Okulickiego",50.82512,19.094877,parter/5,Zapytaj,pełna własność,ogródek,Zapytaj,brak informacji,2023,blok,tak,brak informacji,"drzwi / okna antywłamaniowe, teren zamknięty, domofon / wideofon",pustak,pierwotny
1,375 000 zł,"57,3 m²",3 pokojowy apartament z ogródkiem,3,do wykończenia,Współrzędne dokładne,"Mysłowice, Morgi, ul. Słoneczne Wzgórze",50.202785,19.12904,parter/1,Zapytaj,pełna własność,"ogródek, taras",garaż/miejsce parkingowe,2023-09-30,2023,apartamentowiec,nie,"telewizja kablowa, internet, telefon","teren zamknięty, domofon / wideofon, monitoring / ochrona",pustak,pierwotny
1,492 834 zł,"64,37 m²",PROMOCJA | 64m2 | Dostępne NA JUŻ | od dewelopera,3,do wykończenia,Współrzędne dokładne,"Częstochowa, Parkitka, ul. Okulickiego",50.82512,19.094877,5/6,Zapytaj,pełna własność,balkon,Zapytaj,brak informacji,2023,blok,tak,brak informacji,"drzwi / okna antywłamaniowe, teren zamknięty, domofon / wideofon",pustak,pierwotny
1,432 375 zł,"57,65 m²",Nowe Mieszkanie HELLO! Jasińskiego M12,3,do wykończenia,Współrzędne dokładne,"Częstochowa, Parkitka, ul. Jasińskiego",50.82193,19.103682,1/2,Zapytaj,Zapytaj,balkon,garaż/miejsce parkingowe,brak informacji,2022,brak informacji,nie,internet,brak informacji,brak informacji,pierwotny
1,490 000 zł,54 m²,3 pok nowe mieszkanie.,3,Zapytaj,Nieruchomość znajduje się w zaznaczonym obszarze mapy. Niestety ogłoszeniodawca nie wskazał dokładnego adresu.,"Kozy, bielski, śląskie",49.85015,19.14608,Zapytaj,Zapytaj,pełna własność,balkon,garaż/miejsce parkingowe,brak informacji,2023,blok,tak,"telewizja kablowa, internet, telefon","drzwi / okna antywłamaniowe, domofon / wideofon",cegła,pierwotny
1,485 769 zł,75 m²,"Chorzów, 17 Sierpnia, 4 pokoje",4,do wykończenia,Współrzędne dokładne,"Chorzów, Stary Chorzów, ul. 17 Sierpnia",50.308094,18.979195,1/3,Zapytaj,pełna własność,balkon,garaż/miejsce parkingowe,brak informacji,2022,blok,nie,"telewizja kablowa, internet, telefon","drzwi / okna antywłamaniowe, domofon / wideofon",pustak,pierwotny
1,767 258 zł,"96,2 m²",Komfortowe 4 pokoje+loggia 12 m2/Centrum Katowic!,4,do wykończenia,Współrzędne dokładne,"Katowice, Koszutka, al. Wojciecha Korfantego",50.265089,19.023972,1/15,Zapytaj,pełna własność,Zapytaj,garaż/miejsce parkingowe,brak informacji,2023,apartamentowiec,tak,"telewizja kablowa, internet",monitoring / ochrona,brak informacji,pierwotny
1,587 275 zł,"82,31 m²",3 pokoje+balkon/6 piętro/Super widok!,3,do wykończenia,Współrzędne dokładne,"Katowice, Koszutka, al. Wojciecha Korfantego",50.265089,19.023972,6/15,Zapytaj,pełna własność,Zapytaj,garaż/miejsce parkingowe,brak informacji,2023,apartamentowiec,tak,"telewizja kablowa, internet",monitoring / ochrona,brak informacji,pierwotny
1,519 000 zł,"53,8 m²",Mieszkanie 3 pokojowe|WYKOŃCZONE|2x GARAŻ|2xBALKON,3,do zamieszkania,Współrzędne dokładne,"ul. Kozielska , Gliwice, Gliwice",50.304953,18.64234,2/7,Zapytaj,pełna własność,balkon,garaż/miejsce parkingowe,brak informacji,2022,apartamentowiec,tak,"telewizja kablowa, internet, telefon",domofon / wideofon,brak informacji,pierwotny
1,480 414 zł,"53,06 m²",Prestiżowe M3 z balkonem w Super Lokalizacji,2,do wykończenia,Współrzędne dokładne,"Katowice, Koszutka, al. Wojciecha Korfantego",50.265089,19.023972,10/15,Zapytaj,pełna własność,Zapytaj,garaż/miejsce parkingowe,brak informacji,2023,apartamentowiec,tak,"telewizja kablowa, internet",monitoring / ochrona,brak informacji,pierwotny
1,419 718 zł,"42,16 m²",2 pokoje+loggia/10 piętro/Super Lokalizacja,2,do wykończenia,Współrzędne dokładne,"Katowice, Koszutka, al. Wojciecha Korfantego",50.265089,19.023972,10/15,Zapytaj,pełna własność,Zapytaj,garaż/miejsce parkingowe,brak informacji,2023,apartamentowiec,tak,"telewizja kablowa, internet",monitoring / ochrona,brak informacji,pierwotny
1,397 758 zł,"41,19 m²",Prestiżowe mieszkanie w Centrum/2pok+loggia,2,do wykończenia,Współrzędne dokładne,"Katowice, Koszutka, al. Wojciecha Korfantego",50.265089,19.023972,1/15,Zapytaj,pełna własność,Zapytaj,garaż/miejsce parkingowe,brak informacji,2023,apartamentowiec,tak,"telewizja kablowa, internet",monitoring / ochrona,brak informacji,pierwotny
1,395 505 zł,"39,95 m²",Apartamenty na Szczycie 3 Lipek,2,do wykończenia,Współrzędne dokładne,"ul. Pienińska , Bielsko-Biała, Bielsko-Biała",49.834424,19.021644,parter/3,Zapytaj,pełna własność,balkon,Zapytaj,brak informacji,2023,apartamentowiec,tak,brak informacji,"teren zamknięty, domofon / wideofon, monitoring / ochrona",inne,pierwotny
1,665 000 zł,51 m²,"Luksusowy,wykończony apartament Dębowe Tarasy",3,do zamieszkania,Współrzędne dokładne,"Katowice, Załęże, ul. Johna Baildona 18C",50.270894,19.000967,2/14,Zapytaj,pełna własność,balkon,garaż/miejsce parkingowe,2023-01-01,brak informacji,apartamentowiec,nie,brak informacji,"drzwi / okna antywłamaniowe, teren zamknięty, domofon / wideofon, monitoring / ochrona",brak informacji,pierwotny
1,499 982 zł,"52,45 m²","Cena za wykończone mieszkanie, 2 sypialnie +balkon",3,do zamieszkania,Współrzędne dokładne,"Katowice, Piotrowice - Ochojec, ul. Zbożowa",50.213303,18.98118,1/4,Zapytaj,pełna własność,balkon,garaż/miejsce parkingowe,brak informacji,2022,apartamentowiec,tak,brak informacji,"teren zamknięty, domofon / wideofon",brak informacji,pierwotny
1,197 000 zł,"17,53 m²",Kawalerka+taras 17 m2! Okazja,1,do wykończenia,Współrzędne dokładne,"Gliwice, Gliwice, śląskie",50.287186,18.673471,1/7,Zapytaj,pełna własność,balkon,garaż/miejsce parkingowe,brak informacji,2022,apartamentowiec,tak,"telewizja kablowa, internet","system alarmowy, monitoring / ochrona",brak informacji,pierwotny
1,195 400 zł,"17,35 m²",Atrakcyjna kawalerka z widokiem na miasto/6 piętro,1,do wykończenia,Współrzędne dokładne,"Gliwice, Gliwice, śląskie",50.287186,18.673471,6/7,Zapytaj,pełna własność,"ogródek, taras",garaż/miejsce parkingowe,brak informacji,2022,apartamentowiec,tak,"telewizja kablowa, internet, telefon","system alarmowy, monitoring / ochrona",brak informacji,pierwotny
1,195 400 zł,"17,35 m²","Kawalerka z widokiem na miasto - 7 piętro, balkon!",1,do wykończenia,Współrzędne dokładne,"Gliwice, Gliwice, śląskie",50.287186,18.673471,7/7,Zapytaj,pełna własność,"ogródek, taras",garaż/miejsce parkingowe,brak informacji,2022,apartamentowiec,tak,"telewizja kablowa, internet, telefon","system alarmowy, monitoring / ochrona",brak informacji,pierwotny
1,766 033 zł,"63,9 m²",Apartamenty przy Halnej w Szczyrku,3,do wykończenia,Współrzędne dokładne,"ul. Halna , Szczyrk, bielski",49.692882,18.982217,2/2,Zapytaj,pełna własność,taras,garaż/miejsce parkingowe,brak informacji,2023,szeregowiec,nie,"telewizja kablowa, internet","drzwi / okna antywłamaniowe, domofon / wideofon",beton,pierwotny
1,389 000 zł,"90,97 m²",NOWE mieszkania w Tarnowskich Górach,2,do wykończenia,Współrzędne dokładne,"Tarnowskie Góry, tarnogórski, śląskie",50.450817,18.833207,1/1,1 zł,pełna własność,"balkon, ogródek, taras",Zapytaj,brak informacji,2023,szeregowiec,nie,"telewizja kablowa, internet","system alarmowy, teren zamknięty, domofon / wideofon",drewno,pierwotny
1,295 650 zł,"40,5 m²",Sosnowiec - Pogoń - Mieszkania od 30m2 do 80m2,2,do wykończenia,Współrzędne dokładne,"ul. Szpaków , Sosnowiec, Sosnowiec",50.296454,19.136496,2/4,Zapytaj,pełna własność,balkon,garaż/miejsce parkingowe,brak informacji,2022,apartamentowiec,nie,internet,"drzwi / okna antywłamaniowe, domofon / wideofon",pustak,pierwotny
1,553 280 zł,"72,8 m²","Okulickiego Park III Etap 3 Pokoje 72,8 m 2",3,do wykończenia,Współrzędne dokładne,"Częstochowa, Parkitka, ul. Okulickiego",50.82463,19.093418,3/5,3 zł,pełna własność,balkon,Zapytaj,brak informacji,2023,blok,tak,"telewizja kablowa, internet, telefon","drzwi / okna antywłamaniowe, domofon / wideofon",cegła,pierwotny
1,579 000 zł,"54,71 m²",4 pok | wykończone | nowe | duży balkon | 2 piętro,4,do zamieszkania,Współrzędne dokładne,"ul. Kozielska , Gliwice, Gliwice",50.303131,18.640259,2/7,500 zł,pełna własność,balkon,garaż/miejsce parkingowe,brak informacji,2022,blok,tak,"telewizja kablowa, internet, telefon","drzwi / okna antywłamaniowe, domofon / wideofon",żelbet,pierwotny
1,393 924 zł,"57,93 m²","Sosnowiec, mieszkanie z tarasem 9m2 Stary Browar",2,do wykończenia,Współrzędne dokładne,"Sosnowiec, Zagórze, ul. ks. Jerzego Popiełuszki",50.301782,19.183631,1/3,Zapytaj,pełna własność,balkon,garaż/miejsce parkingowe,brak informacji,2023,apartamentowiec,tak,brak informacji,brak informacji,brak informacji,pierwotny
1,554 040 zł,"72,9 m²","Okulickiego Park III Etap 3 Pokoje 72,9 m 2",3,do wykończenia,Współrzędne dokładne,"Częstochowa, Parkitka, ul. Okulickiego",50.82463,19.093418,2/5,3 zł,pełna własność,balkon,Zapytaj,brak informacji,2023,blok,tak,"telewizja kablowa, internet, telefon","drzwi / okna antywłamaniowe, domofon / wideofon",cegła,pierwotny
1,590 247 zł,"51,55 m²",Wymarzone mieszkanie w Centrum! Wyjątkowa oferta!,3,do wykończenia,Współrzędne dokładne,"Katowice, Śródmieście, ul. Zabrska",50.261907,19.014515,7/27,Zapytaj,pełna własność,balkon,garaż/miejsce parkingowe,brak informacji,2023,brak informacji,tak,"telewizja kablowa, internet",monitoring / ochrona,brak informacji,pierwotny
1,440 796 zł,"26,16 m²",Kawalerka Premium/25 Piętro/Niesamowity Kompleks!,1,do wykończenia,Współrzędne dokładne,"Katowice, Śródmieście, ul. Zabrska",50.261907,19.014515,> 10/27,Zapytaj,pełna własność,Zapytaj,garaż/miejsce parkingowe,brak informacji,2023,brak informacji,tak,"telewizja kablowa, internet",monitoring / ochrona,brak informacji,pierwotny
1,361 008 zł,"26,16 m²",Wyjątkowa kawalerka/16 piętro/Prestiżowy obiekt,1,do wykończenia,Nieruchomość znajduje się w zaznaczonym obszarze mapy. Niestety ogłoszeniodawca nie wskazał dokładnego adresu.,"Śródmieście, Katowice, Katowice",50.262517,19.013151,> 10/27,Zapytaj,pełna własność,balkon,garaż/miejsce parkingowe,brak informacji,2023,brak informacji,tak,"telewizja kablowa, internet",monitoring / ochrona,brak informacji,pierwotny
1,440 796 zł,"26,16 m²",Wymarzona kawalerka/25 piętro/Super Lokalizacja,1,do wykończenia,Współrzędne dokładne,"Katowice, Śródmieście, ul. Zabrska",50.261907,19.014515,> 10/27,Zapytaj,pełna własność,balkon,garaż/miejsce parkingowe,brak informacji,2023,brak informacji,tak,"telewizja kablowa, internet",monitoring / ochrona,brak informacji,pierwotny
1,484 428 zł,"44,24 m²",Mieszkanie z tarasem/Zamieszkaj w ikonie Katowic!,2,do wykończenia,Współrzędne dokładne,"Katowice, Śródmieście, ul. Zabrska",50.261907,19.014515,4/27,Zapytaj,pełna własność,balkon,garaż/miejsce parkingowe,brak informacji,2023,brak informacji,tak,"telewizja kablowa, internet",monitoring / ochrona,brak informacji,pierwotny
1,386 504 zł,"59,86 m²","Mieszkanie 59,86m2, bez pośredników !!!",3,Zapytaj,Współrzędne dokładne,"ul. Sosnowa , Rybnik, Rybnik",50.105846,18.580121,2/3,Zapytaj,pełna własność,balkon,garaż/miejsce parkingowe,brak informacji,brak informacji,blok,nie,"telewizja kablowa, internet, telefon",teren zamknięty,pustak,pierwotny
1,347 400 zł,"48,2 m²",Apartamenty Pszczyńska 84 Mikołów centrum,3,do wykończenia,Współrzędne dokładne,"ul. Pszczyńska , Mikołów, mikołowski",50.15724,18.901147,parter/1,Zapytaj,pełna własność,ogródek,garaż/miejsce parkingowe,brak informacji,2023,szeregowiec,nie,"telewizja kablowa, internet, telefon","teren zamknięty, domofon / wideofon, monitoring / ochrona",pustak,pierwotny
1,"474 743,50 zł","45,43 m²",Centrum Miasta! Wysoki Standard!,2,do wykończenia,Nieruchomość znajduje się w zaznaczonym obszarze mapy. Niestety ogłoszeniodawca nie wskazał dokładnego adresu.,"Centrum, Katowice, Katowice",50.262517,19.013151,5/27,Zapytaj,pełna własność,balkon,garaż/miejsce parkingowe,2023-12-23,2023,apartamentowiec,tak,brak informacji,monitoring / ochrona,brak informacji,pierwotny
1,464 210 zł,"42,01 m²",Wyjątkowa Lokalizacja/2 Pokoje Z Balkonem/Premium,2,do wykończenia,Nieruchomość znajduje się w zaznaczonym obszarze mapy. Niestety ogłoszeniodawca nie wskazał dokładnego adresu.,"Śródmieście, Katowice, Katowice",50.262517,19.013151,7/27,Zapytaj,pełna własność,taras,garaż/miejsce parkingowe,2023-12-31,2023,brak informacji,tak,"telewizja kablowa, internet",monitoring / ochrona,brak informacji,pierwotny
1,385 172 zł,"35,83 m²",Super Lokalizacja/Studio Z Balkonem/Premium,1,do wykończenia,Nieruchomość znajduje się w zaznaczonym obszarze mapy. Niestety ogłoszeniodawca nie wskazał dokładnego adresu.,"Śródmieście, Katowice, Katowice",50.262517,19.013151,5/27,Zapytaj,pełna własność,taras,garaż/miejsce parkingowe,2023-12-31,2023,brak informacji,tak,"telewizja kablowa, internet",monitoring / ochrona,brak informacji,pierwotny
1,529 402 zł,"47,48 m²",2 Pokoje+Balkon/Premium/Świetna Lokalizacja,2,do wykończenia,Nieruchomość znajduje się w zaznaczonym obszarze mapy. Niestety ogłoszeniodawca nie wskazał dokładnego adresu.,"Śródmieście, Katowice, Katowice",50.262256,19.015879,5/27,Zapytaj,pełna własność,balkon,garaż/miejsce parkingowe,2023-12-31,2023,brak informacji,tak,"telewizja kablowa, internet",monitoring / ochrona,brak informacji,pierwotny
1,438 907 zł,"62,71 m²",HELLO! Kukułki * apartament * promocja,3,do wykończenia,Współrzędne dokładne,"Sosnowiec, Klimontów, ul. Kukułek",50.27861,19.162718,1/1,Zapytaj,pełna własność,balkon,Zapytaj,brak informacji,2023,apartamentowiec,nie,internet,teren zamknięty,cegła,pierwotny
1,772 000 zł,"97,68 m²","Apartament jak dom! Smart home, rolety, ogród",4,do wykończenia,Współrzędne dokładne,"Katowice, Kostuchna, ul. Czeremchowa",50.197556,18.976408,parter/2,Zapytaj,pełna własność,"ogródek, taras",garaż/miejsce parkingowe,brak informacji,2022,apartamentowiec,tak,"telewizja kablowa, internet, telefon","drzwi / okna antywłamaniowe, teren zamknięty, domofon / wideofon, monitoring / ochrona, rolety antywłamaniowe",brak informacji,pierwotny
1,478 040 zł,"62,9 m²","Okulickiego Park III Etap 3 Pokoje 62,9 m 2",3,do wykończenia,Współrzędne dokładne,"Częstochowa, Parkitka, ul. Okulickiego",50.82463,19.093418,3/5,3 zł,pełna własność,balkon,garaż/miejsce parkingowe,brak informacji,2023,blok,tak,"telewizja kablowa, internet, telefon","drzwi / okna antywłamaniowe, domofon / wideofon, monitoring / ochrona",cegła,pierwotny
1,346 000 zł,"46,75 m²",Dwupokojowy apartament z tarasem,2,do wykończenia,Współrzędne dokładne,"Sosnowiec, Zagórze, ul. Mielecka",50.286827,19.191929,2/4,Zapytaj,pełna własność,"balkon, taras",garaż/miejsce parkingowe,brak informacji,2023,apartamentowiec,tak,brak informacji,"drzwi / okna antywłamaniowe, teren zamknięty, domofon / wideofon, monitoring / ochrona",pustak,pierwotny
1,471 000 zł,"64,66 m²",Apartament 64 metry z tarasem.,3,do wykończenia,Współrzędne dokładne,"Sosnowiec, Zagórze, ul. Mielecka",50.286827,19.191929,1/4,Zapytaj,pełna własność,"balkon, taras",garaż/miejsce parkingowe,brak informacji,2023,apartamentowiec,tak,brak informacji,"drzwi / okna antywłamaniowe, teren zamknięty, domofon / wideofon, monitoring / ochrona",pustak,pierwotny
1,672 210 zł,"74,69 m²","""Nowy Magistrat"" 4 pokoje, 74,69 mkw !",4,do wykończenia,Współrzędne dokładne,"ul. Damrota 72, Tychy, Tychy",50.12707,18.9824,2/3,Zapytaj,pełna własność,balkon,Zapytaj,brak informacji,2021,apartamentowiec,tak,internet,domofon / wideofon,pustak,pierwotny
1,550 000 zł,101 m²,Przestronne Apartamenty w Hałcnowie,4,do wykończenia,Współrzędne dokładne,"Bielsko-Biała, Hałcnów, ul. 13 Zakrętów",49.862781,19.080237,parter/2,Zapytaj,pełna własność,"ogródek, taras",garaż/miejsce parkingowe,brak informacji,2022,szeregowiec,nie,internet,brak informacji,drewno,pierwotny
1,343 000 zł,53 m²,Nowe mieszkanie bezczynszowe blisko centrum,3,Zapytaj,Nieruchomość znajduje się w zaznaczonym obszarze mapy. Niestety ogłoszeniodawca nie wskazał dokładnego adresu.,"Jaworzno, Jaworzno, śląskie",50.21052,19.26565,parter/2,Zapytaj,Zapytaj,Zapytaj,Zapytaj,brak informacji,2023,apartamentowiec,nie,brak informacji,brak informacji,brak informacji,pierwotny
1,762 790 zł,"89,74 m²",Zielona Parkitka - Ogród 220 mkw - Winda - Garaż,4,do wykończenia,Współrzędne dokładne,"Częstochowa, Parkitka, ul. Małopolska",50.833207,19.093661,parter/1,Zapytaj,pełna własność,"ogródek, taras",garaż/miejsce parkingowe,brak informacji,2023,apartamentowiec,tak,"telewizja kablowa, internet","teren zamknięty, domofon / wideofon, monitoring / ochrona, rolety antywłamaniowe",pustak,pierwotny
1,401 524 zł,"54,26 m²","B9 -trzy pokoje, pomieszczenie gospodarcze+balkon",3,do wykończenia,Współrzędne dokładne,"ul. Augustyna Weltzla , Żory, Żory",50.039204,18.692484,1/5,Zapytaj,pełna własność,balkon,garaż/miejsce parkingowe,brak informacji,2023,blok,tak,"telewizja kablowa, internet","drzwi / okna antywłamaniowe, teren zamknięty, domofon / wideofon, monitoring / ochrona",żelbet,pierwotny
1,363 664 zł,"38,08 m²",2 Pokojowe Mieszkanie z ogrodem 0% Prowizji ! 0%Pc,3,Zapytaj,Współrzędne dokładne,"ul. Kozielska , Gliwice, Gliwice",50.314,18.5989,1/3,Zapytaj,pełna własność,ogródek,Zapytaj,2023-01-01,2022,apartamentowiec,tak,brak informacji,domofon / wideofon,cegła,pierwotny
1,412 090 zł,"40,6 m²",Apartamenty Złota | nowe mieszkanie A7,2,Zapytaj,Współrzędne dokładne,"Katowice, Dąb, ul. Złota",50.277824,19.001911,1/4,Zapytaj,Zapytaj,balkon,garaż/miejsce parkingowe,brak informacji,2023,brak informacji,tak,brak informacji,brak informacji,brak informacji,pierwotny
1,337 491 zł,"43,83 m²",Park Małopolska - nowe apartamenty z ogródkiem,2,do wykończenia,Współrzędne dokładne,"Częstochowa, Parkitka, ul. Małopolska",50.835457,19.086193,parter/3,Zapytaj,pełna własność,"ogródek, taras",garaż/miejsce parkingowe,brak informacji,2023,blok,tak,"telewizja kablowa, internet, telefon","teren zamknięty, domofon / wideofon",pustak,pierwotny
1,388 773 zł,"50,49 m²",Park Małopolska - nowa inwestycja blok A,2,do zamieszkania,Współrzędne dokładne,"Częstochowa, Parkitka, ul. Małopolska",50.835457,19.086193,parter/3,Zapytaj,pełna własność,"ogródek, taras",garaż/miejsce parkingowe,brak informacji,2023,blok,tak,"telewizja kablowa, internet",domofon / wideofon,pustak,pierwotny
1,464 695 zł,"60,35 m²",Park Małopolska - nowe apartamenty B,3,do wykończenia,Współrzędne dokładne,"Częstochowa, Parkitka, ul. Małopolska",50.835457,19.086193,1/3,Zapytaj,pełna własność,taras,Zapytaj,brak informacji,2023,blok,tak,internet,domofon / wideofon,pustak,pierwotny
1,459 459 zł,"59,67 m²",Apartamenty - Park Małopolska B,3,do wykończenia,Współrzędne dokładne,"Częstochowa, Parkitka, ul. Małopolska",50.835457,19.086193,1/3,Zapytaj,pełna własność,taras,Zapytaj,brak informacji,2023,blok,nie,internet,domofon / wideofon,cegła,pierwotny
1,474 306 zł,"63,41 m²","Apartament 64m2, 4 pokoje, Bez Prowizji, 0% PCC",4,do wykończenia,Współrzędne dokładne,"Tychy, Żwaków, al. Bielska",50.103228,18.968656,2/7,Zapytaj,pełna własność,balkon,garaż/miejsce parkingowe,brak informacji,2023,apartamentowiec,tak,"telewizja kablowa, internet, telefon","system alarmowy, drzwi / okna antywłamaniowe, teren zamknięty, domofon / wideofon, monitoring / ochrona",pustak,pierwotny
1,411 897 zł,"50,1 m²","Apartament 51m2, 3 pokoje, Bezpośrednio, 0% PCC",3,do wykończenia,Współrzędne dokładne,"Tychy, Żwaków, al. Bielska",50.103228,18.968656,3/7,Zapytaj,pełna własność,balkon,garaż/miejsce parkingowe,brak informacji,2023,apartamentowiec,tak,"telewizja kablowa, internet, telefon","system alarmowy, drzwi / okna antywłamaniowe, teren zamknięty, domofon / wideofon, monitoring / ochrona",pustak,pierwotny
1,381 622 zł,"41,63 m²","Apartament 42m2, 2 pokoje, Bez Prowizji, 0% PCC",2,do wykończenia,Współrzędne dokładne,"Tychy, Żwaków, al. Bielska",50.103228,18.968656,2/7,Zapytaj,pełna własność,balkon,garaż/miejsce parkingowe,brak informacji,2023,apartamentowiec,tak,"telewizja kablowa, internet, telefon","system alarmowy, drzwi / okna antywłamaniowe, teren zamknięty, domofon / wideofon, monitoring / ochrona",pustak,pierwotny
1,830 000 zł,"128,08 m²","Mieszkanie, ul. Asnyka .",5,do wykończenia,Współrzędne dokładne,"Katowice, Piotrowice, ul. Adama Asnyka",50.212997,18.967499,1/2,Zapytaj,pełna własność,balkon,Zapytaj,brak informacji,2022,brak informacji,tak,"telewizja kablowa, internet, telefon",teren zamknięty,brak informacji,pierwotny
1,705 000 zł,"85,65 m²","Katowice, Barbary, 84m2",4,do wykończenia,Współrzędne dokładne,"Katowice, Centrum, ul. Barbary",50.24984,19.008356,parter/4,Zapytaj,pełna własność,taras,Zapytaj,brak informacji,2023,plomba,tak,"telewizja kablowa, internet, telefon","drzwi / okna antywłamaniowe, domofon / wideofon, rolety antywłamaniowe",beton,pierwotny
1,396 377 zł,"61,21 m²","Mieszkanie, Knurów, ul.Witosa, 61m2",3,do wykończenia,Współrzędne dokładne,"ul. Wincentego Witosa , Knurów, gliwicki",50.235355,18.656801,1/4,Zapytaj,pełna własność,balkon,garaż/miejsce parkingowe,brak informacji,2023,blok,tak,"telewizja kablowa, internet, telefon","drzwi / okna antywłamaniowe, domofon / wideofon",beton,pierwotny
1,507 601 zł,"68,25 m²","Chorzów, 17 Sierpnia 68m2 - !! POD KLUCZ !!",3,do zamieszkania,Współrzędne dokładne,"Chorzów, Stary Chorzów, ul. 17 Sierpnia",50.308094,18.979195,parter/3,Zapytaj,pełna własność,"ogródek, taras",garaż/miejsce parkingowe,brak informacji,2022,blok,nie,"telewizja kablowa, internet, telefon","drzwi / okna antywłamaniowe, domofon / wideofon, rolety antywłamaniowe",beton,pierwotny
1,379 900 zł,"63,35 m²",* NOWE MIESZKANIE z OGRODEM na zamkniętym Osiedlu*,3,do wykończenia,Współrzędne dokładne,"Rybnik, Niedobczyce, ul. Stanisława Leszczyńskiego",50.073784,18.497983,1/1,Zapytaj,pełna własność,"balkon, ogródek, taras",garaż/miejsce parkingowe,brak informacji,2022,apartamentowiec,nie,"telewizja kablowa, internet, telefon","drzwi / okna antywłamaniowe, teren zamknięty, domofon / wideofon, monitoring / ochrona, rolety antywłamaniowe",pustak,pierwotny
1,439 900 zł,"58,15 m²",NOWE Mieszkanie 58m z OGRÓDKIEM - Słoneczne Tarasy,3,do wykończenia,Współrzędne dokładne,"Rybnik, Niedobczyce, ul. Stanisława Leszczyńskiego",50.073784,18.497983,parter/1,Zapytaj,pełna własność,"ogródek, taras",garaż/miejsce parkingowe,brak informacji,2023,apartamentowiec,nie,"telewizja kablowa, internet, telefon","drzwi / okna antywłamaniowe, teren zamknięty, domofon / wideofon, monitoring / ochrona, rolety antywłamaniowe",pustak,pierwotny
1,298 152 zł,"41,41 m²",C1 - 2 pokojowy lokal mieszkalny,2,do wykończenia,Współrzędne dokładne,"ul. Augustyna Weltzla , Żory, Żory",50.039204,18.692484,parter/5,Zapytaj,pełna własność,Zapytaj,garaż/miejsce parkingowe,brak informacji,2023,blok,tak,"telewizja kablowa, internet","drzwi / okna antywłamaniowe, teren zamknięty, domofon / wideofon, monitoring / ochrona",żelbet,pierwotny
1,454 300 zł,"64,9 m²","Kup już dzisiaj , zapłać w marcu 2023r.",3,do wykończenia,Współrzędne dokładne,"Gliwice, Stare Gliwice, ul. Hansa Christiana Andersena",50.314865,18.612097,parter/5,Zapytaj,pełna własność,"balkon, taras",garaż/miejsce parkingowe,2023-03-31,2021,apartamentowiec,tak,"telewizja kablowa, internet","drzwi / okna antywłamaniowe, domofon / wideofon, rolety antywłamaniowe",silikat,pierwotny
1,499 500 zł,75 m²,od ręki 3-pokojowy apartament z 32 m2 tarasem,3,do wykończenia,Współrzędne dokładne,"Katowice, Kostuchna, ul. Jana Kściuczyka",50.180754,18.999714,5/5,Zapytaj,pełna własność,"balkon, taras",garaż/miejsce parkingowe,brak informacji,2021,apartamentowiec,tak,"telewizja kablowa, internet, telefon","teren zamknięty, monitoring / ochrona",inne,pierwotny
1,430 430 zł,"66,22 m²",Osiedle Kawie Wzgórza | apartament 8E,3,do wykończenia,Współrzędne dokładne,"Częstochowa, Północ, ul. Makuszyńskiego",50.852856,19.144701,1/1,Zapytaj,pełna własność,balkon,garaż/miejsce parkingowe,2024-03-31,2024,apartamentowiec,nie,"internet, telefon",domofon / wideofon,brak informacji,pierwotny
1,390 000 zł,60 m²,"Lokal na mieszkania lub biura, Poniatowskiego 22",5,do remontu,Współrzędne dokładne,"Katowice, Śródmieście, ul. Księcia Józefa Poniatowskiego 22",50.251,19.010895,parter/2,Zapytaj,pełna własność,"ogródek, taras",garaż/miejsce parkingowe,brak informacji,1930,kamienica,nie,internet,"teren zamknięty, domofon / wideofon",cegła,pierwotny
1,415 227 zł,"68,07 m²",4 Pokoje duży balkon,4,do wykończenia,Współrzędne dokładne,"Sosnowiec, Środula, ul. Marii Konopnickiej",50.296623,19.15582,1,Zapytaj,pełna własność,balkon,garaż/miejsce parkingowe,brak informacji,brak informacji,apartamentowiec,tak,"telewizja kablowa, internet, telefon","drzwi / okna antywłamaniowe, teren zamknięty, domofon / wideofon, monitoring / ochrona",pustak,pierwotny
1,579 900 zł,"57,99 m²",Stary Browar Apartamenty | mieszkanie D.13,3,Zapytaj,Współrzędne dokładne,"Bielsko-Biała, Górne Przedmieście, ul. Browarna",49.81824,19.03255,1/5,Zapytaj,Zapytaj,balkon,garaż/miejsce parkingowe,brak informacji,2025,apartamentowiec,tak,brak informacji,brak informacji,brak informacji,pierwotny
1,311 000 zł,39 m²,"Mieszkanie 11, Osiedle Filomatów Mikołów- B4-11",2,do wykończenia,Współrzędne dokładne,"Mikołów, Centrum, ul. prof. Maksymiliana Hubera",50.169857,18.895113,2/3,Zapytaj,pełna własność,balkon,Zapytaj,brak informacji,2022,apartamentowiec,nie,internet,"teren zamknięty, domofon / wideofon, monitoring / ochrona",pustak,pierwotny
1,475 760 zł,"62,6 m²","Okulickiego Park III Etap 3 Pokoje 62,6 m 2",3,do wykończenia,Współrzędne dokładne,"Częstochowa, Parkitka, ul. Okulickiego",50.82463,19.093418,5/5,3 zł,pełna własność,"balkon, taras",garaż/miejsce parkingowe,brak informacji,2023,blok,tak,"telewizja kablowa, internet, telefon","drzwi / okna antywłamaniowe, domofon / wideofon, monitoring / ochrona",cegła,pierwotny
1,490 000 zł,"63,47 m²",Rezerwacja | Pompa ciepła w cenie | 3A,3,do wykończenia,Współrzędne dokładne,"Będzin, Małobądz, ul. 27 Stycznia",50.310146,19.127779,parter/2,Zapytaj,pełna własność,"ogródek, taras",garaż/miejsce parkingowe,2023-01-30,2023,szeregowiec,nie,internet,"drzwi / okna antywłamaniowe, rolety antywłamaniowe",beton komórkowy,pierwotny
1,479 000 zł,66 m²,Apartamenty Sielawy | apartament B2.1,3,do wykończenia,Współrzędne dokładne,"Katowice, Zarzecze, ul. Sielawy",50.19115,18.940174,parter,Zapytaj,pełna własność,ogródek,garaż/miejsce parkingowe,brak informacji,2024,szeregowiec,nie,internet,brak informacji,pustak,pierwotny
1,628 875 zł,"83,85 m²",Panorama Park | apartament dwupoziomowy 2 / B,4,do wykończenia,Współrzędne dokładne,"Ruda Śląska, Ruda, ul. Porębska",50.30791,18.846363,parter/1,Zapytaj,pełna własność,"ogródek, taras",garaż/miejsce parkingowe,brak informacji,2022,apartamentowiec,nie,"internet, telefon","drzwi / okna antywłamaniowe, teren zamknięty, domofon / wideofon, monitoring / ochrona",brak informacji,pierwotny
1,511 000 zł,"62,6 m²",Nowe mieszkanie dwupoziomowe,3,do wykończenia,Współrzędne dokładne,"Bielsko-Biała, Górne Przedmieście, ul. Jana Sobieskiego",49.824383,19.007536,1/2,Zapytaj,pełna własność,balkon,garaż/miejsce parkingowe,brak informacji,2022,apartamentowiec,nie,"telewizja kablowa, internet","teren zamknięty, domofon / wideofon",brak informacji,pierwotny
1,254 000 zł,"29,59 m²",Apartament -2 pokoje Szczyrk góry jezioro,2,do wykończenia,Współrzędne dokładne,"ul. Stawy , Żywiec, żywiecki",49.668633,19.221386,3/3,Zapytaj,pełna własność,"balkon, ogródek, taras",garaż/miejsce parkingowe,brak informacji,2021,apartamentowiec,nie,"telewizja kablowa, internet","drzwi / okna antywłamaniowe, teren zamknięty, domofon / wideofon",silikat,pierwotny
1,350 000 zł,"50,22 m²",Wygodne Mieszkanie Osiedle Zielone Wzgórze B9.2,2,do wykończenia,Współrzędne dokładne,"Bielsko-Biała, Komorowice Krakowskie, ul. Barkowska",49.856174,19.064907,1,Zapytaj,Zapytaj,balkon,garaż/miejsce parkingowe,brak informacji,2022,brak informacji,nie,"telewizja kablowa, internet",brak informacji,brak informacji,pierwotny
1,450 003 zł,"61,01 m²",Lokal mieszkalny na inwestycji Osiedle Palladowe,3,do wykończenia,Współrzędne dokładne,"Ruda Śląska, Ruda, ul. Chryzantem",50.304287,18.846962,parter/3,Zapytaj,pełna własność,"ogródek, taras",Zapytaj,brak informacji,2023,blok,tak,brak informacji,teren zamknięty,brak informacji,pierwotny
1,334 407 zł,"42,33 m²",Nowa Częstochowa Małopolska | 42m2 | TARAS 10m2,2,do wykończenia,Współrzędne dokładne,"Częstochowa, Parkitka, ul. Małopolska",50.8353,19.08845,1/3,Zapytaj,pełna własność,balkon,garaż/miejsce parkingowe,brak informacji,2025,apartamentowiec,tak,internet,"drzwi / okna antywłamaniowe, teren zamknięty, domofon / wideofon, monitoring / ochrona",pustak,pierwotny
1,649 000 zł,84 m²,Dwupoziomowe mieszkanie z własnym ogródkiem,4,do wykończenia,Nieruchomość znajduje się w zaznaczonym obszarze mapy. Niestety ogłoszeniodawca nie wskazał dokładnego adresu.,"Bytków, Siemianowice Śląskie, Siemianowice Śląskie",50.30091,19.00415,Zapytaj,Zapytaj,pełna własność,"ogródek, taras",garaż/miejsce parkingowe,brak informacji,2023,brak informacji,nie,brak informacji,brak informacji,pustak,pierwotny
1,321 000 zł,"25,68 m²","Idealna inwestycja, odpowiedz na potrzeby rynku!",1,do wykończenia,Współrzędne dokładne,"Katowice, Katowice, śląskie",50.25467,19.01536,10/27,Zapytaj,Zapytaj,balkon,Zapytaj,2023-12-30,2023,brak informacji,tak,internet,monitoring / ochrona,brak informacji,pierwotny
1,515 630 zł,"45,43 m²",Niesamowita Panorama/2 Pokoje+Balkon,2,do wykończenia,Nieruchomość znajduje się w zaznaczonym obszarze mapy. Niestety ogłoszeniodawca nie wskazał dokładnego adresu.,"Śródmieście, Katowice, Katowice",50.262517,19.013151,9/27,Zapytaj,pełna własność,Zapytaj,garaż/miejsce parkingowe,2023-12-31,2023,brak informacji,tak,"telewizja kablowa, internet",monitoring / ochrona,brak informacji,pierwotny
1,379 008 zł,"26,88 m²",Super Lokalizacja/Standard Premium,1,do wykończenia,Nieruchomość znajduje się w zaznaczonym obszarze mapy. Niestety ogłoszeniodawca nie wskazał dokładnego adresu.,"Śródmieście, Katowice, Katowice",50.262256,19.015879,> 10/27,Zapytaj,pełna własność,taras,garaż/miejsce parkingowe,2023-12-31,2023,brak informacji,tak,"telewizja kablowa, internet",monitoring / ochrona,brak informacji,pierwotny
1,396 253 zł,"27,71 m²",Studio Z Balkonem/Niesamowita Panorama Miasta,1,do wykończenia,Nieruchomość znajduje się w zaznaczonym obszarze mapy. Niestety ogłoszeniodawca nie wskazał dokładnego adresu.,"Śródmieście, Katowice, Katowice",50.262256,19.015879,> 10/27,Zapytaj,pełna własność,taras,garaż/miejsce parkingowe,2023-12-31,2023,brak informacji,tak,"telewizja kablowa, internet",monitoring / ochrona,brak informacji,pierwotny
1,498 475 zł,"78,5 m²",WILLA PARK - rozpoczynamy rezerwację II etapu! H4,3,do wykończenia,Nieruchomość znajduje się w zaznaczonym obszarze mapy. Niestety ogłoszeniodawca nie wskazał dokładnego adresu.,"Wielopole, Rybnik, Rybnik",50.120873,18.556729,parter/1,Zapytaj,pełna własność,ogródek,garaż/miejsce parkingowe,brak informacji,2023,apartamentowiec,nie,internet,"drzwi / okna antywłamaniowe, domofon / wideofon",pustak,pierwotny
1,790 000 zł,"111,43 m²",Mieszkanie z tarasem i garażem! PEREŁKA na rynku!,5,do zamieszkania,Współrzędne dokładne,"Rybnik, Śródmieście, ul. Wierzbowa",50.103227,18.530499,1/1,Zapytaj,pełna własność,taras,garaż/miejsce parkingowe,brak informacji,2022,apartamentowiec,nie,"telewizja kablowa, internet","system alarmowy, drzwi / okna antywłamaniowe, teren zamknięty, domofon / wideofon, rolety antywłamaniowe",pustak,pierwotny
1,428 336 zł,"45,82 m²",Nowe apartamenty Bystra Park !,2,do wykończenia,Nieruchomość znajduje się w zaznaczonym obszarze mapy. Niestety ogłoszeniodawca nie wskazał dokładnego adresu.,"Bystra, bielski, śląskie",49.76246,19.05353,1/2,Zapytaj,pełna własność,balkon,garaż/miejsce parkingowe,brak informacji,2025,apartamentowiec,tak,"telewizja kablowa, internet","teren zamknięty, domofon / wideofon",beton komórkowy,pierwotny
1,355 000 zł,67 m²,"Apartament z ogródkiem,własny dom-Nakło Śląskie 2%",3,do wykończenia,Nieruchomość znajduje się w zaznaczonym obszarze mapy. Niestety ogłoszeniodawca nie wskazał dokładnego adresu.,"Tarnowskie Góry, tarnogórski, śląskie",50.44613,18.85827,1/2,Zapytaj,pełna własność,taras,garaż/miejsce parkingowe,brak informacji,2022,szeregowiec,nie,"telewizja kablowa, internet, telefon","teren zamknięty, domofon / wideofon",beton komórkowy,pierwotny
1,563 220 zł,"78,06 m²",Przestronny Dom jednorodzinny Nova Dąbrówka | B1_A,4,do wykończenia,Współrzędne dokładne,"Piekary Śląskie, Dąbrówka Wielka, ul. Dąbrówki",50.340405,19.017673,parter,Zapytaj,pełna własność,"ogródek, taras",garaż/miejsce parkingowe,brak informacji,2023,dom wolnostojący,nie,"telewizja kablowa, internet",rolety antywłamaniowe,pustak,pierwotny
1,438 766 zł,"55,54 m²",Panorama Park | nowoczesny apartament C 1.6,3,do wykończenia,Współrzędne dokładne,"Ruda Śląska, Ruda, ul. Porębska",50.30791,18.846363,1/3,Zapytaj,Zapytaj,taras,garaż/miejsce parkingowe,brak informacji,2022,brak informacji,tak,brak informacji,brak informacji,brak informacji,pierwotny
1,760 000 zł,80 m²,OSADA GŁĘBCE nowe apartamenty-domy w Wiśle,3,do wykończenia,Współrzędne dokładne,"ul. Kręta , Wisła, cieszyński",49.619269,18.876749,parter/1,Zapytaj,pełna własność,"ogródek, taras",garaż/miejsce parkingowe,brak informacji,2022,dom wolnostojący,nie,brak informacji,"system alarmowy, drzwi / okna antywłamaniowe, teren zamknięty, domofon / wideofon, rolety antywłamaniowe",pustak,pierwotny
1,228 960 zł,"26,16 m²",Zarabiająca i wzrastająca na wartości skarbonka,2,do zamieszkania,Współrzędne dokładne,"Rybnik, Zamysłów, ul. Niedobczycka",50.07722,18.5045,5/5,250 zł,udział,balkon,Zapytaj,brak informacji,2024,apartamentowiec,tak,internet,brak informacji,brak informacji,pierwotny
1,399 000 zł,"63,12 m²",Apartament z największym ogródkiem,3,do wykończenia,Nieruchomość znajduje się w zaznaczonym obszarze mapy. Niestety ogłoszeniodawca nie wskazał dokładnego adresu.,"Piaski, Rybnik, Rybnik",50.10678,18.57815,parter/1,Zapytaj,pełna własność,"ogródek, taras",Zapytaj,brak informacji,2022,apartamentowiec,nie,brak informacji,brak informacji,cegła,pierwotny
1,326 451 zł,"40,96 m²","Nowy budynek, mieszkanie wykończone pod klucz",2,do zamieszkania,Współrzędne dokładne,"Rybnik, Zamysłów, ul. Niedobczycka",50.07722,18.5045,1/5,250 zł,udział,balkon,Zapytaj,brak informacji,2024,apartamentowiec,tak,internet,brak informacji,brak informacji,pierwotny
1,366 831 zł,"52,63 m²","Nowe, całkowicie wykończone w budynku z windą",3,do zamieszkania,Współrzędne dokładne,"Rybnik, Zamysłów, ul. Niedobczycka",50.07722,18.5045,2/5,250 zł,udział,balkon,Zapytaj,brak informacji,2024,apartamentowiec,tak,internet,brak informacji,brak informacji,pierwotny
1,449 000 zł,"113,46 m²","Ostatnie! Dwa poziomy, dwa balkony",5,do wykończenia,Nieruchomość znajduje się w zaznaczonym obszarze mapy. Niestety ogłoszeniodawca nie wskazał dokładnego adresu.,"Popielów, Rybnik, Rybnik",50.05361,18.51265,1/2,230 zł,pełna własność,balkon,Zapytaj,brak informacji,2020,apartamentowiec,nie,brak informacji,brak informacji,cegła,pierwotny
1,280 000 zł,"42,29 m²","Słoneczna kawalerka z dużym tarasem,",2,do wykończenia,Nieruchomość znajduje się w zaznaczonym obszarze mapy. Niestety ogłoszeniodawca nie wskazał dokładnego adresu.,"Boguszowice, Rybnik, Rybnik",50.06322,18.60147,parter/3,Zapytaj,pełna własność,taras,garaż/miejsce parkingowe,brak informacji,brak informacji,blok,nie,brak informacji,brak informacji,brak informacji,pierwotny
1,464 054 zł,"62,71 m²",HELLO! Kukułki * apartament * płatność 40/60,3,do wykończenia,Współrzędne dokładne,"Sosnowiec, Klimontów, ul. Kukułek",50.27861,19.162718,1/1,Zapytaj,pełna własność,balkon,Zapytaj,brak informacji,2023,brak informacji,nie,internet,teren zamknięty,cegła,pierwotny
1,1 239 000 zł,80 m²,"Penthouse z tarasem, Ceglana Park.",4,do zamieszkania,Nieruchomość znajduje się w zaznaczonym obszarze mapy. Niestety ogłoszeniodawca nie wskazał dokładnego adresu.,"Brynów, Katowice, Katowice",50.23892,18.99021,4,Zapytaj,Zapytaj,"balkon, taras",Zapytaj,brak informacji,2023,apartamentowiec,tak,brak informacji,monitoring / ochrona,inne,pierwotny
1,569 738 zł,"51,56 m²",Mieszkanie Premium w centrum Katowic!,3,do wykończenia,Współrzędne dokładne,"Katowice, Śródmieście, ul. Zabrska",50.26252,19.01315,4/27,Zapytaj,Zapytaj,"balkon, taras",garaż/miejsce parkingowe,2023-12-30,2023,brak informacji,tak,brak informacji,monitoring / ochrona,brak informacji,pierwotny
1,613 310 zł,"85,03 m²",Nowy Dom jednorodzinny Nova Dąbrówka | B1_A1,4,do wykończenia,Współrzędne dokładne,"Piekary Śląskie, Dąbrówka Wielka, ul. Dąbrówki",50.340405,19.017673,parter,Zapytaj,pełna własność,"ogródek, taras",garaż/miejsce parkingowe,brak informacji,2023,dom wolnostojący,nie,"telewizja kablowa, internet",rolety antywłamaniowe,pustak,pierwotny
1,498 089 zł,"80,99 m²",Green House Klimontowska | komfortowy apartament,3,do wykończenia,Współrzędne dokładne,"Sosnowiec, Sielec, ul. Klimontowska",50.27618,19.16005,1/1,Zapytaj,udział,balkon,garaż/miejsce parkingowe,brak informacji,2023,brak informacji,nie,"telewizja kablowa, internet",drzwi / okna antywłamaniowe,brak informacji,pierwotny
1,409 200 zł,62 m²,Green House Klimontowska | ustawny apartament,3,do wykończenia,Współrzędne dokładne,"Sosnowiec, Sielec, ul. Klimontowska",50.27618,19.16005,1/1,Zapytaj,udział,balkon,garaż/miejsce parkingowe,brak informacji,2023,brak informacji,nie,"telewizja kablowa, internet",drzwi / okna antywłamaniowe,brak informacji,pierwotny
1,349 000 zł,60 m²,Mieszkanie 3 pokojowe [taras na dachu -opcja],3,do wykończenia,Współrzędne dokładne,"Bytom, Szombierki, ul. Srebrna",50.33741,18.904303,1/1,Zapytaj,Zapytaj,"balkon, ogródek, taras",Zapytaj,brak informacji,2022,szeregowiec,nie,"telewizja kablowa, internet",teren zamknięty,brak informacji,pierwotny
1,499 000 zł,115 m²,Apartamenty Sielawy | apartament B4.2 dwupoziomowy,4,do wykończenia,Współrzędne dokładne,"Katowice, Zarzecze, ul. Sielawy",50.19115,18.940174,1,Zapytaj,pełna własność,taras,garaż/miejsce parkingowe,brak informacji,2024,szeregowiec,nie,internet,brak informacji,pustak,pierwotny
1,849 000 zł,120 m²,Apartament dwupoziomowy GOTOWY DO ZAMIESZKANIA,4,do zamieszkania,Współrzędne dokładne,"Katowice, Zarzecze, ul. Konrada Swinarskiego",50.18034,18.94273,1,Zapytaj,pełna własność,taras,garaż/miejsce parkingowe,brak informacji,2021,szeregowiec,nie,"telewizja kablowa, internet, telefon","teren zamknięty, rolety antywłamaniowe",brak informacji,pierwotny
1,"434 316,59 zł","56,57 m²",3pok Ogrodem 26m2_Gotowe na Sierpień_Rabat do 17%,3,do wykończenia,Nieruchomość znajduje się w zaznaczonym obszarze mapy. Niestety ogłoszeniodawca nie wskazał dokładnego adresu.,"Żwaków, Tychy, Tychy",50.1111,18.95675,parter/7,180 zł,Zapytaj,Zapytaj,garaż/miejsce parkingowe,2023-08-01,2023,apartamentowiec,tak,brak informacji,brak informacji,pustak,pierwotny
1,362 027 zł,"38,53 m²",2pok z Dużym ogrodem na Zachód_Gotowe na Sierpień,2,do wykończenia,Nieruchomość znajduje się w zaznaczonym obszarze mapy. Niestety ogłoszeniodawca nie wskazał dokładnego adresu.,"Żwaków, Tychy, Tychy",50.103228,18.968656,parter/7,113 zł,pełna własność,Zapytaj,garaż/miejsce parkingowe,2023-08-01,2023,apartamentowiec,tak,brak informacji,brak informacji,pustak,pierwotny
1,420 000 zł,"55,18 m²",Mieszkanie 3 pokojowe 55m2 z ogródkiem i garażem,3,do wykończenia,Współrzędne dokładne,"Świętochłowice, Piaśniki, ul. Franciszka Zubrzyckiego",50.299942,18.915077,parter/3,500 zł,pełna własność,"balkon, ogródek",garaż/miejsce parkingowe,brak informacji,2023,blok,tak,"internet, telefon",brak informacji,cegła,pierwotny
1,462 231 zł,"73,37 m²",Nowoczesny bezczynszowy apartament 3 pokojowy!,3,do wykończenia,Współrzędne dokładne,"Sosnowiec, Centrum, ul. Jana Kiepury",50.281174,19.121353,4/4,1 zł,Zapytaj,balkon,garaż/miejsce parkingowe,brak informacji,2022,apartamentowiec,tak,"telewizja kablowa, internet, telefon","drzwi / okna antywłamaniowe, teren zamknięty, domofon / wideofon, rolety antywłamaniowe",silikat,pierwotny
1,344 213 zł,"37,15 m²",Najmniejsze Nowe mieszkanie 2 pok.! Rabaty do 15%,2,do wykończenia,Nieruchomość znajduje się w zaznaczonym obszarze mapy. Niestety ogłoszeniodawca nie wskazał dokładnego adresu.,"Tychy, Tychy, śląskie",50.103228,18.968656,1/7,107 zł,Zapytaj,Zapytaj,garaż/miejsce parkingowe,2023-08-01,2023,apartamentowiec,tak,brak informacji,brak informacji,pustak,pierwotny
1,455 280 zł,"65,04 m²","Przestronne mieszkanie, sypialnia z garderobą",3,do wykończenia,Współrzędne dokładne,"Żory, Korfantego, ul. Handlowa",50.035576,18.69239,3/9,Zapytaj,pełna własność,balkon,garaż/miejsce parkingowe,brak informacji,2023,apartamentowiec,tak,"telewizja kablowa, internet","drzwi / okna antywłamaniowe, domofon / wideofon, monitoring / ochrona",beton,pierwotny
1,396 317 zł,"54,29 m²",Apartamenty Chełmońskiego | nowe mieszkanie 2.5,3,do wykończenia,Współrzędne dokładne,"ul. Józefa Chełmońskiego , Racibórz, raciborski",50.08772,18.20602,1/4,Zapytaj,Zapytaj,balkon,garaż/miejsce parkingowe,brak informacji,brak informacji,brak informacji,tak,"telewizja kablowa, internet",domofon / wideofon,brak informacji,pierwotny
1,351 715 zł,"54,11 m²",Montanaro Duo | budynek B| mieszkanie M33,3,do wykończenia,Współrzędne dokładne,"ul. gen. Rómmla , Kłobuck, kłobucki",50.90754,18.94166,3/3,Zapytaj,pełna własność,balkon,garaż/miejsce parkingowe,brak informacji,2023,blok,tak,"internet, telefon","teren zamknięty, domofon / wideofon",brak informacji,pierwotny
1,341 649 zł,"54,23 m²",GOTOWE Mieszkanie 3-pokojowe / Ogródek + Taras,3,do wykończenia,Współrzędne dokładne,"ul. Północna , Bytom, Bytom",50.362736,18.932274,parter/2,Zapytaj,pełna własność,"ogródek, taras",garaż/miejsce parkingowe,brak informacji,2022,szeregowiec,nie,internet,"drzwi / okna antywłamaniowe, domofon / wideofon",silikat,pierwotny
1,606 750 zł,"78,8 m²",Osiedle Dworska | nowe mieszkanie B1.2,4,do wykończenia,Współrzędne dokładne,"ul. Dworska , Siemianowice Śląskie, Siemianowice Śląskie",50.311615,19.027096,parter/1,Zapytaj,pełna własność,"ogródek, taras",garaż/miejsce parkingowe,brak informacji,2024,apartamentowiec,nie,"telewizja kablowa, internet",system alarmowy,inne,pierwotny
1,1 053 000 zł,"128,47 m²",mieszkanie widokowe dwupoziomowe,5,Zapytaj,Współrzędne dokładne,"Bielsko-Biała, Dębowiec, ul. Bliska",49.78616,19.027382,1,Zapytaj,Zapytaj,taras,garaż/miejsce parkingowe,brak informacji,2023,brak informacji,nie,"telewizja kablowa, internet",brak informacji,brak informacji,pierwotny
1,721 992 zł,"71,84 m²",Apartamenty Złota | nowe mieszkanie A18,4,Zapytaj,Współrzędne dokładne,"Katowice, Dąb, ul. Złota",50.277824,19.001911,3/4,Zapytaj,Zapytaj,balkon,garaż/miejsce parkingowe,brak informacji,2023,brak informacji,tak,brak informacji,brak informacji,brak informacji,pierwotny
1,546 364 zł,"69,16 m²",Panorama Park | apartament z ogródkiem C 0.6,3,do wykończenia,Współrzędne dokładne,"Ruda Śląska, Ruda, ul. Porębska",50.30791,18.846363,parter/3,Zapytaj,Zapytaj,"ogródek, taras",garaż/miejsce parkingowe,brak informacji,2022,brak informacji,tak,brak informacji,brak informacji,brak informacji,pierwotny
1,305 000 zł,46 m²,Wyjątkowa lokalizacja + garaż i taras słoneczny,2,do wykończenia,Współrzędne dokładne,"Dąbrowa Górnicza, Gołonóg, ul. Kościelna",50.339409,19.229902,2/2,Zapytaj,pełna własność,balkon,garaż/miejsce parkingowe,2023-04-30,2022,apartamentowiec,nie,brak informacji,brak informacji,brak informacji,pierwotny
1,320 000 zł,46 m²,Apartament z ogrodem na Wzgórzu Gołonoskim,2,do wykończenia,Współrzędne dokładne,"Dąbrowa Górnicza, Gołonóg, ul. Kościelna",50.339409,19.229902,1,Zapytaj,pełna własność,"balkon, ogródek",garaż/miejsce parkingowe,2023-04-30,2022,apartamentowiec,nie,brak informacji,brak informacji,brak informacji,pierwotny
1,350 000 zł,54 m²,Piękne mieszkanie z garażem i tarasem słonecznym,3,Zapytaj,Współrzędne dokładne,"Dąbrowa Górnicza, Gołonóg, ul. Kościelna",50.339409,19.229902,2/2,Zapytaj,pełna własność,balkon,garaż/miejsce parkingowe,2023-05-31,2022,apartamentowiec,nie,brak informacji,brak informacji,brak informacji,pierwotny
1,490 000 zł,"61,9 m²","Apartament 61,90 m2, 3 pokoje, blisko centrum, FV",3,do wykończenia,Współrzędne dokładne,"Rybnik, Rybnik, śląskie",50.084755,18.53236,1/2,Zapytaj,pełna własność,balkon,garaż/miejsce parkingowe,brak informacji,2022,apartamentowiec,nie,"telewizja kablowa, internet, telefon","drzwi / okna antywłamaniowe, domofon / wideofon, monitoring / ochrona, rolety antywłamaniowe",pustak,pierwotny
1,334 552 zł,"53,96 m²",Widok na Górkę Stodulską . 3 pokoje,3,do wykończenia,Współrzędne dokładne,"Sosnowiec, Środula, ul. Marii Konopnickiej",50.296623,19.15582,1,Zapytaj,pełna własność,balkon,garaż/miejsce parkingowe,brak informacji,brak informacji,apartamentowiec,tak,"telewizja kablowa, internet, telefon","drzwi / okna antywłamaniowe, teren zamknięty, domofon / wideofon, monitoring / ochrona",pustak,pierwotny
1,699 000 zł,"129,81 m²",Dom + Ogródek + wykończenie PREMIUM C13M,5,do wykończenia,Współrzędne dokładne,"Gliwice, Wójtowa Wieś, ul. Ignacego Daszyńskiego",50.28711,18.618254,1/1,Zapytaj,pełna własność,ogródek,garaż/miejsce parkingowe,brak informacji,2023,szeregowiec,nie,internet,rolety antywłamaniowe,pustak,pierwotny
1,483 560 zł,"43,96 m²",Stary Browar Apartamenty | mieszkanie E.23,2,Zapytaj,Współrzędne dokładne,"Bielsko-Biała, Górne Przedmieście, ul. Browarna",49.81824,19.03255,2/4,Zapytaj,Zapytaj,balkon,garaż/miejsce parkingowe,brak informacji,2025,brak informacji,tak,"telewizja kablowa, internet, telefon","teren zamknięty, domofon / wideofon",brak informacji,pierwotny
1,410 080 zł,"46,6 m²",Nowe mieszkanie przy Parku Śląskim! Już gotowe!,2,do wykończenia,Nieruchomość znajduje się w zaznaczonym obszarze mapy. Niestety ogłoszeniodawca nie wskazał dokładnego adresu.,"Chorzów, Chorzów, śląskie",50.29512,18.95103,5/6,Zapytaj,Zapytaj,Zapytaj,garaż/miejsce parkingowe,brak informacji,2023,apartamentowiec,tak,"telewizja kablowa, internet, telefon",brak informacji,brak informacji,pierwotny
1,256 312 zł,"27,86 m²",Nowe mieszkanie przy Parku Śląskim! Już gotowe!,1,do wykończenia,Nieruchomość znajduje się w zaznaczonym obszarze mapy. Niestety ogłoszeniodawca nie wskazał dokładnego adresu.,"Chorzów, Chorzów, śląskie",50.29512,18.95103,5/6,Zapytaj,Zapytaj,Zapytaj,garaż/miejsce parkingowe,brak informacji,2023,apartamentowiec,tak,"telewizja kablowa, internet, telefon",brak informacji,brak informacji,pierwotny
1,702 780 zł,"82,68 m²",Nowe mieszkanie przy Parku Śląskim! Już gotowe!,4,do wykończenia,Nieruchomość znajduje się w zaznaczonym obszarze mapy. Niestety ogłoszeniodawca nie wskazał dokładnego adresu.,"Chorzów, Chorzów, śląskie",50.29512,18.95103,6/6,Zapytaj,Zapytaj,Zapytaj,garaż/miejsce parkingowe,brak informacji,2023,apartamentowiec,tak,"telewizja kablowa, internet, telefon",brak informacji,brak informacji,pierwotny
1,573 387 zł,"65,53 m²",Nowe mieszkanie przy Parku Śląskim! Już gotowe!,4,do wykończenia,Nieruchomość znajduje się w zaznaczonym obszarze mapy. Niestety ogłoszeniodawca nie wskazał dokładnego adresu.,"Chorzów, Chorzów, śląskie",50.29512,18.95103,3/6,Zapytaj,Zapytaj,Zapytaj,garaż/miejsce parkingowe,brak informacji,2023,apartamentowiec,tak,"telewizja kablowa, internet, telefon",brak informacji,brak informacji,pierwotny
1,368 050 zł,"43,3 m²",Nowe mieszkanie przy Parku Śląskim! Już gotowe!,2,do wykończenia,Nieruchomość znajduje się w zaznaczonym obszarze mapy. Niestety ogłoszeniodawca nie wskazał dokładnego adresu.,"Chorzów, Chorzów, śląskie",50.29512,18.95103,4/6,Zapytaj,Zapytaj,Zapytaj,garaż/miejsce parkingowe,brak informacji,2023,apartamentowiec,tak,"telewizja kablowa, internet, telefon",brak informacji,brak informacji,pierwotny
1,262 318 zł,"31,99 m²",Nowe mieszkanie przy Parku Śląskim! Już gotowe!,1,do wykończenia,Nieruchomość znajduje się w zaznaczonym obszarze mapy. Niestety ogłoszeniodawca nie wskazał dokładnego adresu.,"Chorzów, Chorzów, śląskie",50.29512,18.95103,5/6,Zapytaj,Zapytaj,Zapytaj,garaż/miejsce parkingowe,brak informacji,2023,apartamentowiec,tak,"telewizja kablowa, internet, telefon",brak informacji,brak informacji,pierwotny
1,308 890 zł,"36,34 m²",Nowe mieszkanie przy Parku Śląskim! Już gotowe!,2,do wykończenia,Nieruchomość znajduje się w zaznaczonym obszarze mapy. Niestety ogłoszeniodawca nie wskazał dokładnego adresu.,"Chorzów, Chorzów, śląskie",50.29512,18.95103,2/6,Zapytaj,Zapytaj,Zapytaj,garaż/miejsce parkingowe,brak informacji,2023,apartamentowiec,tak,"telewizja kablowa, internet, telefon",brak informacji,brak informacji,pierwotny
1,398 475 zł,"49,5 m²",Nowe mieszkanie przy Parku Śląskim! Już gotowe!,3,do wykończenia,Nieruchomość znajduje się w zaznaczonym obszarze mapy. Niestety ogłoszeniodawca nie wskazał dokładnego adresu.,"Chorzów, Chorzów, śląskie",50.29512,18.95103,3/6,Zapytaj,Zapytaj,Zapytaj,garaż/miejsce parkingowe,brak informacji,2023,apartamentowiec,tak,"telewizja kablowa, internet, telefon",brak informacji,brak informacji,pierwotny
1,196 315 zł,"17,93 m²",Nowoczesna kawalerka przy Politechnice Śląskiej!,1,do wykończenia,Nieruchomość znajduje się w zaznaczonym obszarze mapy. Niestety ogłoszeniodawca nie wskazał dokładnego adresu.,"Politechnika, Gliwice, Gliwice",50.289988,18.676623,5/7,Zapytaj,Zapytaj,Zapytaj,garaż/miejsce parkingowe,brak informacji,2023,apartamentowiec,tak,brak informacji,brak informacji,brak informacji,pierwotny
1,194 320 zł,"17,35 m²",Nowoczesna kawalerka przy Politechnice Śląskiej!,1,do wykończenia,Nieruchomość znajduje się w zaznaczonym obszarze mapy. Niestety ogłoszeniodawca nie wskazał dokładnego adresu.,"Politechnika, Gliwice, Gliwice",50.289988,18.676623,3/7,Zapytaj,Zapytaj,Zapytaj,garaż/miejsce parkingowe,brak informacji,2023,apartamentowiec,tak,brak informacji,brak informacji,brak informacji,pierwotny
1,531 810 zł,"59,09 m²","Apartamenty Łagodna, nowe mieszkania 12B",3,Zapytaj,Współrzędne dokładne,"ul. Łagodna , Bielsko-Biała, Bielsko-Biała",49.80485,19.066319,parter/4,Zapytaj,Zapytaj,ogródek,Zapytaj,brak informacji,2023,blok,nie,"telewizja kablowa, internet, telefon","teren zamknięty, domofon / wideofon",brak informacji,pierwotny
1,456 171 zł,"80,03 m²",GOTOWE Nowe Mieszkanie DWUPOZIOMOWE + 2 Tarasy,4,do wykończenia,Współrzędne dokładne,"ul. Północna , Bytom, Bytom",50.362736,18.932274,1/2,Zapytaj,pełna własność,taras,garaż/miejsce parkingowe,brak informacji,2022,szeregowiec,nie,internet,"drzwi / okna antywłamaniowe, rolety antywłamaniowe",silikat,pierwotny
1,284 635 zł,"43,79 m²",Młodzieżowa 8 | urocze mieszkanie M18,2,do wykończenia,Współrzędne dokładne,"Gliwice, Sośnica, ul. Młodzieżowa",50.288296,18.729076,2/2,Zapytaj,pełna własność,Zapytaj,garaż/miejsce parkingowe,brak informacji,2021,blok,nie,"internet, telefon",domofon / wideofon,brak informacji,pierwotny
1,500 000 zł,"90,35 m²",Energooszczędne apartamenty z balkonem i solarami!,3,do wykończenia,Współrzędne dokładne,"Tarnowskie Góry, Stare Tarnowice, ul. Sielanka",50.44762,18.809385,1/2,Zapytaj,udział,balkon,garaż/miejsce parkingowe,brak informacji,2023,apartamentowiec,nie,"telewizja kablowa, internet",system alarmowy,beton komórkowy,pierwotny
1,674 541 zł,"81,27 m²",Nowe mieszkanie przy Parku Śląskim! Bezpośrednio!,4,do wykończenia,Nieruchomość znajduje się w zaznaczonym obszarze mapy. Niestety ogłoszeniodawca nie wskazał dokładnego adresu.,"Wełnowiec, Katowice, Katowice",50.28229,19.02296,1/6,Zapytaj,Zapytaj,Zapytaj,garaż/miejsce parkingowe,brak informacji,brak informacji,apartamentowiec,tak,"telewizja kablowa, internet, telefon",brak informacji,brak informacji,pierwotny
1,565 230 zł,"68,1 m²",Nowe mieszkanie przy Parku Śląskim! Bezpośrednio!,4,do wykończenia,Nieruchomość znajduje się w zaznaczonym obszarze mapy. Niestety ogłoszeniodawca nie wskazał dokładnego adresu.,"Wełnowiec, Katowice, Katowice",50.28229,19.02296,1/6,Zapytaj,Zapytaj,Zapytaj,garaż/miejsce parkingowe,brak informacji,brak informacji,apartamentowiec,tak,"telewizja kablowa, internet, telefon",brak informacji,brak informacji,pierwotny
1,632 160 zł,"70,24 m²",Nowe mieszkanie przy Parku Śląskim! Bezpośrednio!,3,do wykończenia,Nieruchomość znajduje się w zaznaczonym obszarze mapy. Niestety ogłoszeniodawca nie wskazał dokładnego adresu.,"Wełnowiec, Katowice, Katowice",50.28229,19.02296,2/6,Zapytaj,Zapytaj,Zapytaj,garaż/miejsce parkingowe,brak informacji,brak informacji,apartamentowiec,tak,"telewizja kablowa, internet, telefon",brak informacji,brak informacji,pierwotny
1,541 632 zł,"64,48 m²",Nowe mieszkanie przy Parku Śląskim! Bezpośrednio!,3,do wykończenia,Nieruchomość znajduje się w zaznaczonym obszarze mapy. Niestety ogłoszeniodawca nie wskazał dokładnego adresu.,"Wełnowiec, Katowice, Katowice",50.28229,19.02296,parter/6,Zapytaj,Zapytaj,Zapytaj,garaż/miejsce parkingowe,brak informacji,brak informacji,apartamentowiec,tak,"telewizja kablowa, internet, telefon",brak informacji,brak informacji,pierwotny
1,490 688 zł,"55,76 m²",Nowe mieszkanie przy Parku Śląskim! Bezpośrednio!,3,do wykończenia,Nieruchomość znajduje się w zaznaczonym obszarze mapy. Niestety ogłoszeniodawca nie wskazał dokładnego adresu.,"Wełnowiec, Katowice, Katowice",50.28229,19.02296,5/6,Zapytaj,Zapytaj,Zapytaj,garaż/miejsce parkingowe,brak informacji,brak informacji,apartamentowiec,tak,"telewizja kablowa, internet, telefon",brak informacji,brak informacji,pierwotny
1,399 999 zł,"81,88 m²",WIOSENNA PROMOCJA | 4 pokoje | Przestronny ogród,4,do wykończenia,Współrzędne dokładne,"Sosnowiec, Ostrowy Górnicze, ul. Górna",50.288377,19.25947,1/2,Zapytaj,pełna własność,Zapytaj,garaż/miejsce parkingowe,brak informacji,2023,apartamentowiec,nie,brak informacji,brak informacji,cegła,pierwotny
1,300 495 zł,"43,55 m²",Nowoczesny apartament | Blisko DK 94 i 86 !,2,do wykończenia,Współrzędne dokładne,"Sosnowiec, Pogoń, ul. Szpaków",50.295616,19.137,1/3,Zapytaj,pełna własność,balkon,garaż/miejsce parkingowe,brak informacji,2023,apartamentowiec,tak,"telewizja kablowa, internet, telefon",drzwi / okna antywłamaniowe,pustak,pierwotny
1,641 718 zł,"101,86 m²",Nowoczesny ekologiczny budynek | Blisko DTŚ !,4,do wykończenia,Współrzędne dokładne,"ul. Kozielska , Chorzów, Chorzów",50.293603,18.94032,3/4,Zapytaj,pełna własność,balkon,garaż/miejsce parkingowe,brak informacji,2023,apartamentowiec,tak,brak informacji,"system alarmowy, drzwi / okna antywłamaniowe, domofon / wideofon",pustak,pierwotny
1,299 000 zł,"56,5 m²",Nowe dwupoziomowe mieszkanie z wyjściem na ogródek,2,do wykończenia,Współrzędne dokładne,"Sosnowiec, Ostrowy Górnicze, ul. Górna",50.288377,19.25947,parter/1,Zapytaj,Zapytaj,ogródek,garaż/miejsce parkingowe,brak informacji,2023,apartamentowiec,nie,brak informacji,brak informacji,cegła,pierwotny
1,379 280 zł,"43,1 m²",Nowe mieszkanie przy Parku Śląskim! Bezpośrednio!,2,do wykończenia,Nieruchomość znajduje się w zaznaczonym obszarze mapy. Niestety ogłoszeniodawca nie wskazał dokładnego adresu.,"Wełnowiec, Katowice, Katowice",50.28229,19.02296,5/6,Zapytaj,Zapytaj,Zapytaj,garaż/miejsce parkingowe,brak informacji,brak informacji,apartamentowiec,tak,"telewizja kablowa, internet, telefon",brak informacji,brak informacji,pierwotny
1,1 093 937 zł,"124,95 m²",Moderna 5 | apartament 124m2 z dwoma ogródkami,5,do wykończenia,Nieruchomość znajduje się w zaznaczonym obszarze mapy. Niestety ogłoszeniodawca nie wskazał dokładnego adresu.,"Piotrowice, Katowice, Katowice",50.20225,18.96141,parter/3,Zapytaj,pełna własność,"ogródek, taras",Zapytaj,brak informacji,2023,brak informacji,tak,"internet, telefon","drzwi / okna antywłamaniowe, teren zamknięty, domofon / wideofon, monitoring / ochrona",brak informacji,pierwotny
1,302 931 zł,"31,23 m²",Nowe mieszkanie przy Parku Śląskim! Bezpośrednio!,1,do wykończenia,Nieruchomość znajduje się w zaznaczonym obszarze mapy. Niestety ogłoszeniodawca nie wskazał dokładnego adresu.,"Wełnowiec, Katowice, Katowice",50.28229,19.02296,2/6,Zapytaj,Zapytaj,Zapytaj,garaż/miejsce parkingowe,brak informacji,brak informacji,apartamentowiec,tak,"telewizja kablowa, internet, telefon",brak informacji,brak informacji,pierwotny
1,268 216 zł,"25,79 m²",Nowe mieszkanie przy Parku Śląskim! Bezpośrednio!,1,do wykończenia,Nieruchomość znajduje się w zaznaczonym obszarze mapy. Niestety ogłoszeniodawca nie wskazał dokładnego adresu.,"Wełnowiec, Katowice, Katowice",50.28229,19.02296,2/6,Zapytaj,Zapytaj,Zapytaj,garaż/miejsce parkingowe,brak informacji,brak informacji,apartamentowiec,tak,"telewizja kablowa, internet, telefon",brak informacji,brak informacji,pierwotny
1,430 430 zł,"66,22 m²",Osiedle Kawie Wzgórza | apartament 8B,3,do wykończenia,Współrzędne dokładne,"Częstochowa, Północ, ul. Makuszyńskiego",50.852856,19.144701,1/1,Zapytaj,pełna własność,balkon,garaż/miejsce parkingowe,2024-03-31,2024,apartamentowiec,nie,"internet, telefon",domofon / wideofon,brak informacji,pierwotny
1,490 000 zł,"80,8 m²",Energooszczędny apartamenty z ogródkiem i solarami,3,do wykończenia,Współrzędne dokładne,"Tarnowskie Góry, Stare Tarnowice, ul. Sielanka",50.44762,18.809385,parter/2,Zapytaj,udział,ogródek,garaż/miejsce parkingowe,2023-12-20,2023,apartamentowiec,nie,"telewizja kablowa, internet",system alarmowy,beton komórkowy,pierwotny
1,448 168 zł,"80,03 m²",Nowe DWUPOZIOMOWE mieszkanie / Osiedle ul PÓŁNOCNA,4,do wykończenia,Współrzędne dokładne,"ul. Północna , Bytom, Bytom",50.362736,18.932274,1/2,Zapytaj,pełna własność,taras,garaż/miejsce parkingowe,brak informacji,2022,szeregowiec,nie,internet,"drzwi / okna antywłamaniowe, rolety antywłamaniowe",silikat,pierwotny
1,380 000 zł,"46,73 m²",2p z dużym balkonem nowe osiedle gotowe KREDYT 2%,2,do wykończenia,Nieruchomość znajduje się w zaznaczonym obszarze mapy. Niestety ogłoszeniodawca nie wskazał dokładnego adresu.,"Chorzów, Chorzów, śląskie",50.298681,18.970479,2/6,85 zł,pełna własność,balkon,garaż/miejsce parkingowe,brak informacji,2023,blok,tak,"telewizja kablowa, internet, telefon","drzwi / okna antywłamaniowe, teren zamknięty, domofon / wideofon, monitoring / ochrona",żelbet,pierwotny
1,318 820 zł,"33,56 m²",NOWA INWESTYCJA pod Lotniskiem BEZ PROWIZJI !!!,1,do wykończenia,Nieruchomość znajduje się w zaznaczonym obszarze mapy. Niestety ogłoszeniodawca nie wskazał dokładnego adresu.,"Aleksandrowice, Bielsko-Biała, Bielsko-Biała",49.82198,19.05043,parter/2,Zapytaj,pełna własność,"balkon, ogródek",garaż/miejsce parkingowe,brak informacji,2023,apartamentowiec,nie,brak informacji,brak informacji,brak informacji,pierwotny
1,254 900 zł,"41,8 m²","Przestronne 3-pokojowe mieszkanie 41,8m",3,do zamieszkania,Współrzędne dokładne,"Sosnowiec, Zagórze, ul. 11 Listopada 199",50.283034,19.177806,7/7,600 zł,pełna własność,balkon,Zapytaj,brak informacji,1987,blok,tak,brak informacji,"domofon / wideofon, monitoring / ochrona",wielka płyta,pierwotny
1,397 478 zł,"43,93 m²",Ustawne mieszkanie 2 pokojowe! Wysokie Rabaty!,2,do wykończenia,Nieruchomość znajduje się w zaznaczonym obszarze mapy. Niestety ogłoszeniodawca nie wskazał dokładnego adresu.,"Żwaków, Tychy, Tychy",50.1111,18.95675,2/7,Zapytaj,Zapytaj,Zapytaj,garaż/miejsce parkingowe,brak informacji,2023,apartamentowiec,tak,"telewizja kablowa, internet, telefon",brak informacji,pustak,pierwotny
1,382 368 zł,"42,26 m²",Nowe M! Rabat 12%! Gwarancja najniższej ceny!,2,do wykończenia,Nieruchomość znajduje się w zaznaczonym obszarze mapy. Niestety ogłoszeniodawca nie wskazał dokładnego adresu.,"Żwaków, Tychy, Tychy",50.1111,18.95675,2/7,Zapytaj,Zapytaj,Zapytaj,garaż/miejsce parkingowe,brak informacji,2023,apartamentowiec,tak,"telewizja kablowa, internet, telefon",brak informacji,pustak,pierwotny
1,362 027 zł,"38,53 m²",Nowoczesne mieszkanie z ogródkiem! Bezpośrednio!,2,do wykończenia,Nieruchomość znajduje się w zaznaczonym obszarze mapy. Niestety ogłoszeniodawca nie wskazał dokładnego adresu.,"Żwaków, Tychy, Tychy",50.1111,18.95675,parter/7,Zapytaj,Zapytaj,Zapytaj,garaż/miejsce parkingowe,brak informacji,2023,apartamentowiec,tak,"telewizja kablowa, internet, telefon",brak informacji,pustak,pierwotny
1,344 213 zł,"37,15 m²",Nowe mieszkanie 2 pokojowe! Rabaty do 15%!,2,do wykończenia,Nieruchomość znajduje się w zaznaczonym obszarze mapy. Niestety ogłoszeniodawca nie wskazał dokładnego adresu.,"Żwaków, Tychy, Tychy",50.1111,18.95675,1/7,Zapytaj,Zapytaj,Zapytaj,garaż/miejsce parkingowe,brak informacji,2023,apartamentowiec,tak,"telewizja kablowa, internet, telefon",brak informacji,pustak,pierwotny
1,281 917 zł,"28,55 m²",Nowe mieszkanie! 2 pokoje! Gotowe już w sierpniu!,2,do wykończenia,Nieruchomość znajduje się w zaznaczonym obszarze mapy. Niestety ogłoszeniodawca nie wskazał dokładnego adresu.,"Żwaków, Tychy, Tychy",50.1111,18.95675,6/7,Zapytaj,Zapytaj,Zapytaj,garaż/miejsce parkingowe,brak informacji,2023,apartamentowiec,tak,"telewizja kablowa, internet, telefon",brak informacji,pustak,pierwotny
1,542 536 zł,"74,32 m²","Mieszkanie, 74,32 m², Częstochowa",3,Zapytaj,Nieruchomość znajduje się w zaznaczonym obszarze mapy. Niestety ogłoszeniodawca nie wskazał dokładnego adresu.,"Wrzosowiak, Częstochowa, Częstochowa",50.781161,19.126576,parter/2,Zapytaj,pełna własność,balkon,garaż/miejsce parkingowe,brak informacji,2023,brak informacji,nie,internet,brak informacji,brak informacji,pierwotny
1,516 986 zł,"70,82 m²","Mieszkanie, 70,82 m², Częstochowa",3,Zapytaj,Nieruchomość znajduje się w zaznaczonym obszarze mapy. Niestety ogłoszeniodawca nie wskazał dokładnego adresu.,"Wrzosowiak, Częstochowa, Częstochowa",50.781161,19.126576,1/2,Zapytaj,pełna własność,balkon,garaż/miejsce parkingowe,brak informacji,2023,brak informacji,nie,internet,brak informacji,brak informacji,pierwotny
1,629 680 zł,"74,08 m²",Mieszkanie na I piętrze 4-pokojowe Pod Lotniskiem,4,do wykończenia,Nieruchomość znajduje się w zaznaczonym obszarze mapy. Niestety ogłoszeniodawca nie wskazał dokładnego adresu.,"Aleksandrowice, Bielsko-Biała, Bielsko-Biała",49.810287,19.009176,1/2,Zapytaj,pełna własność,"balkon, ogródek",garaż/miejsce parkingowe,brak informacji,2022,szeregowiec,nie,"telewizja kablowa, internet, telefon","teren zamknięty, domofon / wideofon",beton komórkowy,pierwotny
1,471 000 zł,"87,35 m²",Mieszkanie 4 pok z tarasem - bezczynszowe - nr 24B,4,do wykończenia,Współrzędne dokładne,"Ruda Śląska, Halemba, ul. Mazurska",50.252655,18.841528,1/1,Zapytaj,pełna własność,balkon,Zapytaj,brak informacji,2023,szeregowiec,nie,internet,domofon / wideofon,pustak,pierwotny
1,480 636 zł,"60,84 m²",Panorama Park | komfortowy apartament D 1.2,3,do wykończenia,Współrzędne dokładne,"Ruda Śląska, Ruda, ul. Porębska",50.30791,18.846363,1/3,Zapytaj,Zapytaj,taras,garaż/miejsce parkingowe,brak informacji,2022,brak informacji,tak,brak informacji,brak informacji,brak informacji,pierwotny
1,373 248 zł,"51,2 m²",Promocyjna cena! 3 pokoje z ogrodem!,3,do wykończenia,Nieruchomość znajduje się w zaznaczonym obszarze mapy. Niestety ogłoszeniodawca nie wskazał dokładnego adresu.,"Czechowice-Dziedzice, bielski, śląskie",49.897642,19.008732,parter/3,350 zł,pełna własność,"balkon, ogródek",garaż/miejsce parkingowe,brak informacji,2021,apartamentowiec,tak,"telewizja kablowa, internet","drzwi / okna antywłamaniowe, teren zamknięty, domofon / wideofon, rolety antywłamaniowe",silikat,pierwotny
1,452 000 zł,"60,4 m²",** Trzypokojowy apartament 60 m2 D&D INVESTMENT **,3,do wykończenia,Współrzędne dokładne,"Sosnowiec, Zagórze, ul. Mielecka",50.286827,19.191929,3/4,Zapytaj,pełna własność,"balkon, taras",garaż/miejsce parkingowe,brak informacji,2023,apartamentowiec,tak,"telewizja kablowa, internet, telefon","drzwi / okna antywłamaniowe, teren zamknięty, domofon / wideofon, monitoring / ochrona",pustak,pierwotny
1,479 000 zł,"64,66 m²",*** D&D INVESTMENT Apartament B 2.3 ***,3,do wykończenia,Współrzędne dokładne,"Sosnowiec, Zagórze, ul. Mielecka",50.286827,19.191929,2/4,Zapytaj,pełna własność,"balkon, taras",garaż/miejsce parkingowe,brak informacji,2023,apartamentowiec,tak,"telewizja kablowa, internet","drzwi / okna antywłamaniowe, teren zamknięty, domofon / wideofon, monitoring / ochrona",pustak,pierwotny
1,479 000 zł,"64,66 m²",*** D&D INVESTMENT Apartament B 2.3 ***,3,do wykończenia,Współrzędne dokładne,"Sosnowiec, Zagórze, ul. Mielecka",50.286827,19.191929,2/4,Zapytaj,pełna własność,"balkon, taras",garaż/miejsce parkingowe,brak informacji,2023,apartamentowiec,tak,"telewizja kablowa, internet","drzwi / okna antywłamaniowe, teren zamknięty, domofon / wideofon, monitoring / ochrona",pustak,pierwotny
1,479 000 zł,"64,66 m²",* D&D INVESTMENT Apartament trzypokoje + taras *,3,do wykończenia,Współrzędne dokładne,"Sosnowiec, Zagórze, ul. Mielecka",50.286827,19.191929,2/4,Zapytaj,pełna własność,"balkon, taras",garaż/miejsce parkingowe,brak informacji,2023,apartamentowiec,tak,"telewizja kablowa, internet","drzwi / okna antywłamaniowe, teren zamknięty, domofon / wideofon, monitoring / ochrona",pustak,pierwotny
1,371 000 zł,"60,07 m²","OSTATNIE mieszkanie 3 pok z ogrodem, bezczynszowe!",3,do wykończenia,Współrzędne dokładne,"Ruda Śląska, Halemba, ul. Mazurska",50.252655,18.841528,parter/1,Zapytaj,pełna własność,ogródek,garaż/miejsce parkingowe,brak informacji,2023,szeregowiec,nie,internet,"drzwi / okna antywłamaniowe, domofon / wideofon, rolety antywłamaniowe",pustak,pierwotny
1,430 000 zł,"50,91 m²",3 pokoje płd-zach + balkon 8m2 gotowe BEZPOŚREDNIO,3,do wykończenia,Nieruchomość znajduje się w zaznaczonym obszarze mapy. Niestety ogłoszeniodawca nie wskazał dokładnego adresu.,"Chorzów, Chorzów, śląskie",50.297585,18.969363,2/6,110 zł,pełna własność,balkon,garaż/miejsce parkingowe,brak informacji,2023,blok,tak,"telewizja kablowa, internet, telefon","drzwi / okna antywłamaniowe, teren zamknięty, domofon / wideofon, monitoring / ochrona",żelbet,pierwotny
1,483 097 zł,"63,15 m²",Nowy apartament! 3 pokoje! Wysoki standard!,3,do wykończenia,Nieruchomość znajduje się w zaznaczonym obszarze mapy. Niestety ogłoszeniodawca nie wskazał dokładnego adresu.,"Bogucice, Katowice, Katowice",50.26885,19.03961,1/11,Zapytaj,pełna własność,Zapytaj,garaż/miejsce parkingowe,brak informacji,2021,apartamentowiec,tak,"telewizja kablowa, internet, telefon",brak informacji,brak informacji,pierwotny
1,425 344 zł,"57,87 m²",Gotowe apartamenty! Nowoczesne 2 pokoje! Promocja!,2,do wykończenia,Nieruchomość znajduje się w zaznaczonym obszarze mapy. Niestety ogłoszeniodawca nie wskazał dokładnego adresu.,"Bogucice, Katowice, Katowice",50.26885,19.03961,4/11,Zapytaj,pełna własność,Zapytaj,garaż/miejsce parkingowe,brak informacji,2023,apartamentowiec,tak,"telewizja kablowa, internet, telefon",brak informacji,brak informacji,pierwotny
1,453 250 zł,"64,75 m²","Apartamenty, Wysoki standard, winda, Taras 18m2",3,do wykończenia,Nieruchomość znajduje się w zaznaczonym obszarze mapy. Niestety ogłoszeniodawca nie wskazał dokładnego adresu.,"Wrzosowiak, Częstochowa, Częstochowa",50.7775,19.13818,1/1,Zapytaj,pełna własność,"ogródek, taras",garaż/miejsce parkingowe,brak informacji,2022,apartamentowiec,tak,"telewizja kablowa, internet, telefon","drzwi / okna antywłamaniowe, teren zamknięty, domofon / wideofon, monitoring / ochrona, rolety antywłamaniowe",cegła,pierwotny
1,298 500 zł,"25,71 m²",Gotowa kawalerka z wykończeniem,1,do zamieszkania,Współrzędne dokładne,"Katowice, Józefowiec, ul. Bytkowska",50.29222,19.00593,2/6,Zapytaj,pełna własność,balkon,Zapytaj,2023-04-25,2023,brak informacji,nie,brak informacji,brak informacji,brak informacji,pierwotny
1,772 000 zł,"97,68 m²","Apartament jak dom! Smart home, rolety, ogród",4,do wykończenia,Współrzędne dokładne,"Katowice, Kostuchna, ul. Czeremchowa",50.197556,18.976408,parter/2,Zapytaj,pełna własność,"ogródek, taras",garaż/miejsce parkingowe,brak informacji,2022,apartamentowiec,tak,"telewizja kablowa, internet, telefon","drzwi / okna antywłamaniowe, teren zamknięty, domofon / wideofon, monitoring / ochrona, rolety antywłamaniowe",brak informacji,pierwotny
1,440 000 zł,"63,91 m²","M4 parter, ogródek, nowe budownictwo",3,do wykończenia,Nieruchomość znajduje się w zaznaczonym obszarze mapy. Niestety ogłoszeniodawca nie wskazał dokładnego adresu.,"Gotartowice, Rybnik, Rybnik",50.0753,18.61611,parter/1,Zapytaj,Zapytaj,"balkon, ogródek, taras",Zapytaj,brak informacji,brak informacji,apartamentowiec,nie,brak informacji,brak informacji,brak informacji,pierwotny
1,727 600 zł,107 m²,"Mieszkanie, 107 m², Zabrze",5,do wykończenia,Nieruchomość znajduje się w zaznaczonym obszarze mapy. Niestety ogłoszeniodawca nie wskazał dokładnego adresu.,"Grzybowice, Zabrze, Zabrze",50.3596,18.75709,1/3,Zapytaj,Zapytaj,balkon,Zapytaj,brak informacji,2023,brak informacji,nie,brak informacji,brak informacji,brak informacji,pierwotny
1,397 480 zł,"52,3 m²","Okulickiego Park III Etap 2 Pokoje 52,3 m 2",2,do wykończenia,Współrzędne dokładne,"Częstochowa, Parkitka, ul. Okulickiego",50.82463,19.093418,3/5,3 zł,pełna własność,balkon,garaż/miejsce parkingowe,brak informacji,2023,blok,tak,"telewizja kablowa, internet, telefon","drzwi / okna antywłamaniowe, domofon / wideofon, monitoring / ochrona",cegła,pierwotny
1,479 560 zł,"63,1 m²","Okulickiego Park III Etap 3 Pokoje 63,1 m 2",2,do wykończenia,Współrzędne dokładne,"Częstochowa, Parkitka, ul. Okulickiego",50.82463,19.093418,2/5,3 zł,pełna własność,balkon,garaż/miejsce parkingowe,brak informacji,2023,blok,tak,"telewizja kablowa, internet, telefon","drzwi / okna antywłamaniowe, domofon / wideofon, monitoring / ochrona",cegła,pierwotny
1,259 647 zł,"36,57 m²","Mieszkanie, 36,57 m², Poręba",4,do wykończenia,Współrzędne dokładne,"Poręba, zawierciański, śląskie",50.48455,19.3401,1/6,Zapytaj,pełna własność,balkon,garaż/miejsce parkingowe,brak informacji,2021,blok,tak,"internet, telefon",monitoring / ochrona,beton komórkowy,pierwotny
1,398 949 zł,"56,19 m²","Mieszkanie, 56,19 m², Poręba",3,do wykończenia,Współrzędne dokładne,"Poręba, zawierciański, śląskie",50.48461,19.3403,2/6,Zapytaj,pełna własność,balkon,garaż/miejsce parkingowe,brak informacji,2021,blok,tak,internet,monitoring / ochrona,beton komórkowy,pierwotny
1,440 796 zł,"26,16 m²","Kawalerka 25 piętro, centrum Katowic! Prowizja 0 %",1,do wykończenia,Współrzędne dokładne,"Katowice, Śródmieście, ul. Zabrska",50.261907,19.014515,> 10/27,Zapytaj,pełna własność,balkon,garaż/miejsce parkingowe,brak informacji,2023,brak informacji,tak,"telewizja kablowa, internet",monitoring / ochrona,brak informacji,pierwotny
1,484 428 zł,"44,24 m²",Mieszkanie z widokiem+taras24m2/Wizytówka Katowic/,2,do wykończenia,Współrzędne dokładne,"Katowice, Śródmieście, ul. Zabrska",50.261907,19.014515,4/27,Zapytaj,pełna własność,balkon,garaż/miejsce parkingowe,brak informacji,2023,brak informacji,tak,"telewizja kablowa, internet",monitoring / ochrona,brak informacji,pierwotny
1,290 184 zł,"25,68 m²",Prestiżowe M2+balkon/centrum miasta |Bez Prowizji|,1,do wykończenia,Współrzędne dokładne,"Katowice, Śródmieście, ul. Zabrska",50.261907,19.014515,8/27,Zapytaj,pełna własność,balkon,garaż/miejsce parkingowe,brak informacji,2023,brak informacji,tak,"telewizja kablowa, internet",monitoring / ochrona,brak informacji,pierwotny
1,395 921 zł,"35,83 m²",Studio 35 m2+balkon/Piękny widok na miasto/centrum,2,do wykończenia,Współrzędne dokładne,"Katowice, Śródmieście, ul. Zabrska",50.261907,19.014515,7/27,Zapytaj,pełna własność,balkon,garaż/miejsce parkingowe,brak informacji,2023,brak informacji,tak,"telewizja kablowa, internet",monitoring / ochrona,brak informacji,pierwotny
1,557 436 zł,"42,23 m²",2 pokoje/Szklana wieża/15 Piętro-Centrum!,2,do wykończenia,Współrzędne dokładne,"Katowice, Śródmieście, ul. Zabrska",50.261907,19.014515,> 10/27,Zapytaj,pełna własność,balkon,garaż/miejsce parkingowe,brak informacji,2023,brak informacji,tak,"telewizja kablowa, internet",monitoring / ochrona,brak informacji,pierwotny
1,197 000 zł,"17,53 m²",Pewny produkt inwestycyjny przy Politechnice!,1,do wykończenia,Współrzędne dokładne,"Gliwice, Gliwice, śląskie",50.287186,18.673471,parter/7,Zapytaj,pełna własność,"balkon, ogródek, taras",garaż/miejsce parkingowe,brak informacji,2022,apartamentowiec,tak,"telewizja kablowa, internet","system alarmowy, monitoring / ochrona",brak informacji,pierwotny
1,222 700 zł,"19,81 m²",Mikro apartament z ogródkiem przy Politechnice,1,do wykończenia,Współrzędne dokładne,"Gliwice, Gliwice, śląskie",50.287186,18.673471,parter/7,Zapytaj,pełna własność,"ogródek, taras",garaż/miejsce parkingowe,brak informacji,2022,apartamentowiec,tak,"telewizja kablowa, internet, telefon","system alarmowy, monitoring / ochrona",brak informacji,pierwotny
1,635 145 zł,"60,49 m²",Szczytowy apartament z tarasem 22 m2 ! 3 pokoje!,3,do wykończenia,Współrzędne dokładne,"Katowice, Katowice, śląskie",50.27574,19.021222,4/4,Zapytaj,pełna własność,taras,garaż/miejsce parkingowe,brak informacji,2023,apartamentowiec,tak,"telewizja kablowa, internet",monitoring / ochrona,brak informacji,pierwotny
1,541 268 zł,"59,48 m²",Nowoczesne M4+loggia - 5 min od Spodka i Nospr,3,do wykończenia,Współrzędne dokładne,"Katowice, Katowice, śląskie",50.27574,19.021222,2/4,Zapytaj,pełna własność,balkon,garaż/miejsce parkingowe,brak informacji,2023,apartamentowiec,tak,"telewizja kablowa, internet",monitoring / ochrona,brak informacji,pierwotny
1,453 984 zł,"47,29 m²",2 pokoje+balkon/3 piętro Nowe Osiedle 5 min od Scc,2,do wykończenia,Współrzędne dokładne,"Katowice, Koszutka, ul. Słoneczna",50.275636,19.022961,3/4,Zapytaj,pełna własność,balkon,garaż/miejsce parkingowe,brak informacji,2023,apartamentowiec,tak,"telewizja kablowa, internet",monitoring / ochrona,brak informacji,pierwotny
1,535 518 zł,"56,97 m²",3 pokoje+balkon/Super lokalizacja/Nowe osiedle!,3,do wykończenia,Współrzędne dokładne,"Katowice, Koszutka, ul. Słoneczna",50.275636,19.022961,1/4,Zapytaj,pełna własność,balkon,garaż/miejsce parkingowe,brak informacji,2023,apartamentowiec,tak,"telewizja kablowa, internet",monitoring / ochrona,brak informacji,pierwotny
1,445 578 zł,"43,26 m²",Komfortowe M3 + balkon z widokiem na zieleń,2,do wykończenia,Współrzędne dokładne,"Katowice, Józefowiec, ul. Bytkowska",50.293931,19.005798,5/6,Zapytaj,pełna własność,balkon,garaż/miejsce parkingowe,brak informacji,2022,apartamentowiec,tak,"telewizja kablowa, internet","system alarmowy, monitoring / ochrona",brak informacji,pierwotny
1,541 632 zł,"64,48 m²",3pokoje+balkon/Luksusowe osiedle w Katowicach!,3,do wykończenia,Współrzędne dokładne,"Katowice, Józefowiec, ul. Bytkowska",50.293931,19.005798,parter/6,Zapytaj,pełna własność,balkon,garaż/miejsce parkingowe,brak informacji,2022,apartamentowiec,tak,"telewizja kablowa, internet","system alarmowy, monitoring / ochrona",brak informacji,pierwotny
1,572 376 zł,"68,14 m²",Nowoczesny apartament w otoczeniu Parku Śląskiego,4,do wykończenia,Współrzędne dokładne,"Katowice, Józefowiec, ul. Bytkowska",50.293931,19.005798,2/6,Zapytaj,pełna własność,balkon,garaż/miejsce parkingowe,brak informacji,2022,apartamentowiec,tak,"telewizja kablowa, internet","system alarmowy, monitoring / ochrona",brak informacji,pierwotny
1,369 810 zł,"35,22 m²",Apartament z ogródkiem/2pok/Top lokalizacja!,2,do wykończenia,Współrzędne dokładne,"Katowice, Józefowiec, ul. Bytkowska",50.293931,19.005798,parter/6,Zapytaj,pełna własność,balkon,garaż/miejsce parkingowe,brak informacji,2022,apartamentowiec,tak,"telewizja kablowa, internet","system alarmowy, monitoring / ochrona",brak informacji,pierwotny
1,607 603 zł,"68,67 m²",Apartament 4 pokoje + 2 ogródki ! Okazja,4,do wykończenia,Współrzędne dokładne,"Katowice, Józefowiec, ul. Bytkowska",50.293931,19.005798,parter/5,Zapytaj,pełna własność,"balkon, ogródek",garaż/miejsce parkingowe,brak informacji,2022,apartamentowiec,tak,"telewizja kablowa, internet","system alarmowy, monitoring / ochrona",brak informacji,pierwotny
1,267 696 zł,"25,74 m²",Komfortowa kawalerka+balkon! Nowoczesne osiedle!,1,do wykończenia,Współrzędne dokładne,"Katowice, Józefowiec, ul. Bytkowska",50.293931,19.005798,2/6,Zapytaj,pełna własność,balkon,garaż/miejsce parkingowe,brak informacji,2022,apartamentowiec,tak,"telewizja kablowa, internet","system alarmowy, monitoring / ochrona",brak informacji,pierwotny
1,422 478 zł,"43,11 m²",Luksusowe mieszkanie + balkon przy Parku Śląskim,2,do wykończenia,Współrzędne dokładne,"Katowice, Józefowiec, ul. Bytkowska",50.293931,19.005798,5/6,Zapytaj,pełna własność,balkon,garaż/miejsce parkingowe,brak informacji,2022,apartamentowiec,tak,"telewizja kablowa, internet","system alarmowy, monitoring / ochrona",brak informacji,pierwotny
1,365 660 zł,"38,9 m²",Luksusowe mieszkanie + balkon przy Parku Śląskim,2,do wykończenia,Współrzędne dokładne,"Katowice, Józefowiec, ul. Bytkowska",50.293931,19.005798,5/6,Zapytaj,pełna własność,balkon,garaż/miejsce parkingowe,brak informacji,2022,apartamentowiec,tak,"telewizja kablowa, internet","system alarmowy, monitoring / ochrona",brak informacji,pierwotny
1,"366 189,12 zł","38,53 m²",2pok na Zachód/Gotowe na sierpień/Bezpośrednio,2,do wykończenia,Nieruchomość znajduje się w zaznaczonym obszarze mapy. Niestety ogłoszeniodawca nie wskazał dokładnego adresu.,"Żwaków, Tychy, Tychy",50.103228,18.968656,1/7,113 zł,pełna własność,Zapytaj,garaż/miejsce parkingowe,2023-08-01,2023,apartamentowiec,tak,brak informacji,brak informacji,pustak,pierwotny
1,280 000 zł,42 m²,Ostatnie dostępne M3 z ogródkiem! Dostępne od ręki,2,do wykończenia,Nieruchomość znajduje się w zaznaczonym obszarze mapy. Niestety ogłoszeniodawca nie wskazał dokładnego adresu.,"Boguszowice, Rybnik, Rybnik",50.06322,18.60147,parter/3,170 zł,pełna własność,"ogródek, taras",garaż/miejsce parkingowe,brak informacji,2022,apartamentowiec,nie,"telewizja kablowa, internet","domofon / wideofon, rolety antywłamaniowe",pustak,pierwotny
1,"387 770,24 zł","42,99 m²",Bezpośrednio/Idealne 2pok gotowe na Sierpień 23,2,do wykończenia,Nieruchomość znajduje się w zaznaczonym obszarze mapy. Niestety ogłoszeniodawca nie wskazał dokładnego adresu.,"Żwaków, Tychy, Tychy",50.103228,18.968656,1/7,113 zł,pełna własność,Zapytaj,garaż/miejsce parkingowe,2023-08-01,2023,apartamentowiec,tak,brak informacji,brak informacji,pustak,pierwotny
1,"287 992,32 zł","29,22 m²",Kawalerka gotowa na Sierpień 23'_Bezpośrednio,1,do wykończenia,Nieruchomość znajduje się w zaznaczonym obszarze mapy. Niestety ogłoszeniodawca nie wskazał dokładnego adresu.,"Żwaków, Tychy, Tychy",50.103228,18.968656,parter/7,78 zł,Zapytaj,Zapytaj,garaż/miejsce parkingowe,2023-08-01,2023,apartamentowiec,tak,brak informacji,brak informacji,pustak,pierwotny
1,510 000 zł,154 m²,Apartament z antresolą! Lokalizacja TOP bez PCC!,4,do wykończenia,Współrzędne dokładne,"Tarnowskie Góry, Opatowice, Limonkowa",50.454284,18.819887,4/2,Zapytaj,Zapytaj,balkon,garaż/miejsce parkingowe,brak informacji,2022,szeregowiec,nie,internet,brak informacji,pustak,pierwotny
1,373 000 zł,"60,13 m²",Apartament na sprzedaż w sąsiedztwie pięknego lasu,2,do wykończenia,Współrzędne dokładne,"Żory, Rogoźna, LUTOSŁAWSKIEGO 38",50.03,18.66,2/2,Zapytaj,Zapytaj,taras,garaż/miejsce parkingowe,brak informacji,2022,apartamentowiec,nie,brak informacji,domofon / wideofon,brak informacji,pierwotny
1,424 982 zł,"57,43 m²",HELLO! Kukułki * apartament * płatność 40/60,3,do wykończenia,Współrzędne dokładne,"Sosnowiec, Klimontów, ul. Kukułek",50.27861,19.162718,1/1,Zapytaj,pełna własność,balkon,Zapytaj,brak informacji,2023,brak informacji,nie,internet,teren zamknięty,cegła,pierwotny
1,425 600 zł,"53,2 m²",3Pok/Mieszkanie Nowy Nikisz GOTOWE DO REMONTU,3,do wykończenia,Współrzędne dokładne,"Katowice, Nikiszowiec, ul. Zofii Nałkowskiej",50.245174,19.080955,parter/3,Zapytaj,pełna własność,balkon,garaż/miejsce parkingowe,brak informacji,2022,blok,nie,brak informacji,brak informacji,cegła,pierwotny
1,390 968 zł,"53,34 m²","Apartament 54m2, 3 pokoje, Zielona Okolica, 0% PCC",3,do wykończenia,Nieruchomość znajduje się w zaznaczonym obszarze mapy. Niestety ogłoszeniodawca nie wskazał dokładnego adresu.,"Sielec, Sosnowiec, Sosnowiec",50.27915,19.15586,1/5,Zapytaj,pełna własność,balkon,garaż/miejsce parkingowe,brak informacji,2022,apartamentowiec,tak,"telewizja kablowa, internet, telefon","system alarmowy, drzwi / okna antywłamaniowe, teren zamknięty, domofon / wideofon, monitoring / ochrona",pustak,pierwotny
1,327 984 zł,"41,07 m²","Apartament 41m2, 2 pokoje, Bez Prowizji, 0% PCC",2,do wykończenia,Nieruchomość znajduje się w zaznaczonym obszarze mapy. Niestety ogłoszeniodawca nie wskazał dokładnego adresu.,"Sielec, Sosnowiec, Sosnowiec",50.27915,19.15586,1/5,Zapytaj,pełna własność,balkon,garaż/miejsce parkingowe,brak informacji,2022,apartamentowiec,tak,"telewizja kablowa, internet, telefon","system alarmowy, drzwi / okna antywłamaniowe, teren zamknięty, domofon / wideofon, monitoring / ochrona",pustak,pierwotny
1,475 000 zł,"84,85 m²",Nowy dom w cenie mieszkania w świetnej lokalizacji,4,do wykończenia,Nieruchomość znajduje się w zaznaczonym obszarze mapy. Niestety ogłoszeniodawca nie wskazał dokładnego adresu.,"Skoczów, cieszyński, śląskie",49.80875,18.79029,parter/1,Zapytaj,pełna własność,Zapytaj,garaż/miejsce parkingowe,brak informacji,2022,szeregowiec,nie,brak informacji,brak informacji,cegła,pierwotny
1,450 000 zł,"64,2 m²","Nowoczesne apartamenty w Cz-wie, ul Brata Alberta",3,do wykończenia,Współrzędne dokładne,"Częstochowa, Północ, ul. św. Brata Alberta",50.857362,19.13269,1,Zapytaj,pełna własność,"balkon, taras",garaż/miejsce parkingowe,brak informacji,2022,apartamentowiec,nie,brak informacji,teren zamknięty,pustak,pierwotny
1,"446 730,24 zł","52,88 m²",Narożne 3pok_Nowe od Dewelopera_Gotowe na Sierpień,3,do wykończenia,Nieruchomość znajduje się w zaznaczonym obszarze mapy. Niestety ogłoszeniodawca nie wskazał dokładnego adresu.,"Żwaków, Tychy, Tychy",50.103228,18.968656,2/3,158 zł,Zapytaj,Zapytaj,garaż/miejsce parkingowe,2023-08-01,2023,apartamentowiec,tak,brak informacji,brak informacji,pustak,pierwotny
1,470 000 zł,"79,09 m²",Apartamenty Rybnik BLISKO CENTRUM bez pośrednika,4,do wykończenia,Współrzędne dokładne,"Rybnik, Ligota, ul. Stefana Żeromskiego",50.085113,18.575327,1/2,Zapytaj,pełna własność,balkon,Zapytaj,brak informacji,2022,szeregowiec,nie,internet,domofon / wideofon,beton komórkowy,pierwotny
1,468 688 zł,"70,42 m²","Mieszkanie 3 pokojowe 70,42m2 - z ogródkiem!!!",3,do wykończenia,Współrzędne dokładne,"Rybnik, Paruszowiec, ul. Sosnowa",50.105846,18.580121,parter/3,Zapytaj,pełna własność,ogródek,Zapytaj,brak informacji,2022,blok,nie,"internet, telefon",domofon / wideofon,pustak,pierwotny
1,229 000 zł,"47,1 m²","Dwupoziomowe, duży balkon!",2,do zamieszkania,Współrzędne dokładne,"Dąbrowa Górnicza, Gołonóg, ul. Marcina Kasprzaka",50.33055,19.236982,4/4,415 zł,pełna własność,balkon,Zapytaj,brak informacji,1950,blok,nie,"telewizja kablowa, internet",brak informacji,cegła,pierwotny
1,315 153 zł,38 m²,"7km do Centrum Katowic, blisko Parku - Promocja!",2,do wykończenia,Współrzędne dokładne,"Chorzów, Stary Chorzów, ul. Tadeusza Kościuszki",50.297914,18.962067,3/5,299 zł,pełna własność,balkon,garaż/miejsce parkingowe,brak informacji,2022,blok,tak,"telewizja kablowa, internet, telefon","drzwi / okna antywłamaniowe, teren zamknięty, domofon / wideofon, monitoring / ochrona",cegła,pierwotny
1,869 000 zł,"124,89 m²",Apartamenty Centrum - Hala garażowa - zamknięte os,5,do wykończenia,Współrzędne dokładne,"ul. Nad Kanałem , Zabrze, Zabrze",50.307775,18.761305,7/7,Zapytaj,pełna własność,balkon,Zapytaj,brak informacji,2023,apartamentowiec,tak,"telewizja kablowa, internet","teren zamknięty, domofon / wideofon",pustak,pierwotny
1,543 796 zł,"72,2 m²","Apartament 73m2, 4 pokoje, Bezpośrednio, 0% PCC",4,do wykończenia,Współrzędne dokładne,"Tychy, Żwaków, al. Bielska",50.103228,18.968656,2/7,Zapytaj,pełna własność,balkon,garaż/miejsce parkingowe,brak informacji,2023,apartamentowiec,tak,"telewizja kablowa, internet, telefon","system alarmowy, drzwi / okna antywłamaniowe, teren zamknięty, domofon / wideofon, monitoring / ochrona",pustak,pierwotny
1,415 165 zł,"50,1 m²","Apartament 51m2, 3 pokoje, Bezpośrednio, 0% PCC",3,do wykończenia,Współrzędne dokładne,"Tychy, Żwaków, al. Bielska",50.103228,18.968656,5/7,Zapytaj,pełna własność,balkon,garaż/miejsce parkingowe,brak informacji,2023,apartamentowiec,tak,"telewizja kablowa, internet, telefon","system alarmowy, drzwi / okna antywłamaniowe, teren zamknięty, domofon / wideofon, monitoring / ochrona",pustak,pierwotny
1,259 000 zł,"25,84 m²",Ostatnie wolne - Gotowe 1 pokojowe z ogrodem,1,do wykończenia,Nieruchomość znajduje się w zaznaczonym obszarze mapy. Niestety ogłoszeniodawca nie wskazał dokładnego adresu.,"Gliwice, Gliwice, śląskie",50.33793,18.58702,parter/3,Zapytaj,pełna własność,ogródek,Zapytaj,brak informacji,2023,apartamentowiec,tak,internet,"teren zamknięty, domofon / wideofon",pustak,pierwotny
1,391 158 zł,"42,26 m²","Apartament 43m2, 2 pokoje, Bez Prowizji, 0% PCC",2,do wykończenia,Współrzędne dokładne,"Tychy, Żwaków, al. Bielska",50.103228,18.968656,1/7,Zapytaj,pełna własność,balkon,garaż/miejsce parkingowe,brak informacji,2023,apartamentowiec,tak,"telewizja kablowa, internet, telefon","system alarmowy, drzwi / okna antywłamaniowe, teren zamknięty, domofon / wideofon, monitoring / ochrona",pustak,pierwotny
1,395 760 zł,48 m²,"Najtańsze M3, widna kuchnia! Promocja!",3,do wykończenia,Współrzędne dokładne,"Chorzów, Stary Chorzów, ul. Tadeusza Kościuszki",50.297914,18.962067,1/4,388 zł,pełna własność,balkon,garaż/miejsce parkingowe,brak informacji,2022,blok,tak,"telewizja kablowa, internet, telefon","drzwi / okna antywłamaniowe, teren zamknięty, domofon / wideofon, monitoring / ochrona",cegła,pierwotny
1,248 623 zł,"27,86 m²",1 lub 2 pokoje - Blisko Parku - Promocja !,1,do wykończenia,Współrzędne dokładne,"Chorzów, Stary Chorzów, ul. Tadeusza Kościuszki",50.297914,18.962067,3/5,240 zł,pełna własność,balkon,garaż/miejsce parkingowe,brak informacji,2022,blok,tak,"telewizja kablowa, internet, telefon","drzwi / okna antywłamaniowe, teren zamknięty, domofon / wideofon, monitoring / ochrona",cegła,pierwotny
1,345 230 zł,"43,7 m²","Mieszkanie 2-pokojowe, taras 12,65m2, widok na las",2,do wykończenia,Współrzędne dokładne,"Gliwice, Łabędy, ul. Ossolińskich",50.335982,18.645776,3/3,Zapytaj,Zapytaj,taras,garaż/miejsce parkingowe,brak informacji,2023,blok,tak,brak informacji,brak informacji,brak informacji,pierwotny
1,859 000 zł,"94,3 m²",Ustroń - centrum nowe gotowe mieszkanie nad Wisłą,5,do wykończenia,Współrzędne dokładne,"ul. Nadrzeczna , Ustroń, cieszyński",49.714126,18.822796,1/2,Zapytaj,pełna własność,"balkon, taras",garaż/miejsce parkingowe,brak informacji,2022,apartamentowiec,nie,internet,rolety antywłamaniowe,brak informacji,pierwotny
1,533 000 zł,"76,34 m²",Osiedle Grzybowice 2 - Nowy Etap,4,do wykończenia,Współrzędne dokładne,"Osiedle Grzybowice , Zabrze, Zabrze",50.360791,18.76348,3/4,Zapytaj,pełna własność,balkon,Zapytaj,brak informacji,2023,brak informacji,tak,internet,"teren zamknięty, domofon / wideofon",pustak,pierwotny
1,369 246 zł,"46,74 m²","Nowe mieszkanie 2-pokojowe, garaż + komórka lok.",2,do wykończenia,Współrzędne dokładne,"Gliwice, Łabędy, ul. Ossolińskich",50.335982,18.645776,3/3,Zapytaj,pełna własność,"balkon, taras",garaż/miejsce parkingowe,brak informacji,2023,blok,tak,brak informacji,brak informacji,brak informacji,pierwotny
1,416 340 zł,"77,1 m²",Mieszkania Rybnik Zebrzydowice. POMPA CIEPŁA,3,do wykończenia,Współrzędne dokładne,"Rybnik, Rybnik, śląskie",50.109201,18.49872,1/1,Zapytaj,pełna własność,balkon,Zapytaj,brak informacji,2022,apartamentowiec,nie,"telewizja kablowa, internet","drzwi / okna antywłamaniowe, teren zamknięty, domofon / wideofon, rolety antywłamaniowe",pustak,pierwotny
1,447 000 zł,"60,4 m²",** Trzypokojowy apartament 60 m2 D&D INVESTMENT **,3,do wykończenia,Współrzędne dokładne,"Sosnowiec, Zagórze, ul. Mielecka",50.286827,19.191929,2/4,Zapytaj,pełna własność,"balkon, taras",garaż/miejsce parkingowe,brak informacji,2023,apartamentowiec,tak,"telewizja kablowa, internet","drzwi / okna antywłamaniowe, teren zamknięty, domofon / wideofon, monitoring / ochrona",pustak,pierwotny
1,451 000 zł,"60,22 m²","Apartament 60 m, trzy pokoje",3,do wykończenia,Współrzędne dokładne,"Sosnowiec, Zagórze, ul. Mielecka",50.286827,19.191929,3/4,Zapytaj,pełna własność,"balkon, taras",garaż/miejsce parkingowe,brak informacji,2023,apartamentowiec,tak,"telewizja kablowa, internet","drzwi / okna antywłamaniowe, teren zamknięty, domofon / wideofon, monitoring / ochrona",pustak,pierwotny
1,355 000 zł,"46,75 m²",*** NOVA MIELECKA Dwupokojowy apartament z tarasem,2,do wykończenia,Współrzędne dokładne,"Sosnowiec, Zagórze, ul. Mielecka",50.286827,19.191929,3/4,Zapytaj,pełna własność,balkon,garaż/miejsce parkingowe,brak informacji,2023,apartamentowiec,tak,"telewizja kablowa, internet, telefon","drzwi / okna antywłamaniowe, teren zamknięty, domofon / wideofon, monitoring / ochrona, rolety antywłamaniowe",pustak,pierwotny
1,514 260 zł,"57,14 m²",OKAZJA - Apartamenty 3 Lipki,3,do wykończenia,Współrzędne dokładne,"Bielsko-Biała, Stare Bielsko, ul. Portowa",49.831792,19.01647,parter/1,Zapytaj,pełna własność,taras,garaż/miejsce parkingowe,brak informacji,2023,szeregowiec,nie,internet,brak informacji,drewno,pierwotny
1,547 000 zł,"66,73 m²",Nowość - Apartamenty Lipowa,4,do wykończenia,Współrzędne dokładne,"ul. Lipowa , Gliwice, Gliwice",50.30162,18.687303,2/5,Zapytaj,pełna własność,balkon,Zapytaj,brak informacji,2023,apartamentowiec,tak,internet,"teren zamknięty, domofon / wideofon",pustak,pierwotny
