option,prize,surface,offer name,rooms ,standard,localization_info,localization_name,latitude,longitude,floor_number,rental_cost,form_of_property,extras,garage,availability,year_of_construction,type_of_building,elevator,media,security,building_material,market
1,389 000 zł,"56,5 m²","57 m, Jagiellońska, 10 min do Centrum, 2 pokoje",2,do zamieszkania,Współrzędne dokładne,"ul. Jagiellońska , Olsztyn, Olsztyn",53.789763,20.488789,2/4,400 zł,pełna własność,balkon,Zapytaj,brak informacji,2004,blok,nie,brak informacji,"drzwi / okna antywłamaniowe, teren zamknięty, domofon / wideofon, monitoring / ochrona",cegła,wtórny
1,359 000 zł,"47,2 m²","Centrum miasta, 3 pokoje, Twój Nowy Dom",3,do zamieszkania,Współrzędne dokładne,"ul. Janowska 1, Elbląg, Elbląg",54.156719,19.403624,parter/2,536 zł,pełna własność,balkon,Zapytaj,2023-06-12,1961,blok,nie,"telewizja kablowa, internet","drzwi / okna antywłamaniowe, domofon / wideofon",cegła,wtórny
1,299 000 zł,"52,6 m²",Przytulne mieszkanie 2-pokojowe,2,Zapytaj,Współrzędne dokładne,"ul. Robotnicza 252, Elbląg, Elbląg",54.185111,19.401927,5/7,627 zł,spółdzielcze wł. z KW,balkon,Zapytaj,2023-04-24,1985,blok,tak,"telewizja kablowa, internet",domofon / wideofon,wielka płyta,wtórny
1,329 999 zł,61 m²,Mieszkanie w kamienicy 2 pokojowe,2,do zamieszkania,Współrzędne dokładne,"ul. Adama Mickiewicza , Elbląg, Elbląg",54.15622,19.41699,2/2,Zapytaj,pełna własność,Zapytaj,Zapytaj,2023-04-24,brak informacji,kamienica,nie,brak informacji,domofon / wideofon,cegła,wtórny
1,369 000 zł,"49,2 m²",Gotowe do wprowadzenia | Mieszkanie 3-pokojowe,3,Zapytaj,Współrzędne dokładne,"ul. Władysława Broniewskiego , Elbląg, Elbląg",54.18644,19.42004,2/4,Zapytaj,spółdzielcze własnościowe,balkon,Zapytaj,2023-05-08,1985,blok,nie,"telewizja kablowa, internet",domofon / wideofon,wielka płyta,wtórny
1,419 999 zł,"59,32 m²",Okazja do końca Maja !! Wykorzystaj Szansę,4,Zapytaj,Współrzędne dokładne,"ul. Jana Brzechwy , Elbląg, Elbląg",54.18834,19.41916,3/3,Zapytaj,Zapytaj,balkon,Zapytaj,2023-05-09,1982,blok,nie,internet,domofon / wideofon,wielka płyta,wtórny
1,180 998 zł,24 m²,Okazja do końca Maja !! Wykorzystaj Szansę,1,Zapytaj,Współrzędne dokładne,"ul. Władysława IV , Elbląg, Elbląg",54.16782,19.41459,3/4,Zapytaj,spółdzielcze własnościowe,Zapytaj,Zapytaj,2023-05-05,1985,blok,nie,brak informacji,domofon / wideofon,wielka płyta,wtórny
1,995 000 zł,170 m²,Piękny dom w centrum Elbląga w bardzo dobrej cenie,4,do zamieszkania,Współrzędne dokładne,"ul. Cicha , Elbląg, Elbląg",54.171247,19.406969,parter/3,Zapytaj,pełna własność,"balkon, ogródek, taras",garaż/miejsce parkingowe,brak informacji,2021,szeregowiec,nie,"telewizja kablowa, internet, telefon","drzwi / okna antywłamaniowe, teren zamknięty, domofon / wideofon, rolety antywłamaniowe",cegła,wtórny
1,519 000 zł,"57,09 m²",Mieszkanie na Mazurach wysoki standard,3,do zamieszkania,Współrzędne dokładne,"ul. Morelowa , Szafranki, ostródzki",53.689926,19.948873,1/3,500 zł,pełna własność,balkon,Zapytaj,brak informacji,2020,apartamentowiec,nie,brak informacji,brak informacji,brak informacji,wtórny
1,289 000 zł,"36,5 m²",Dwupokojowe mieszkanie na Zatorzu!,2,do zamieszkania,Współrzędne dokładne,"Olsztyn, Zatorze, ul. Jagiellońska",53.790327,20.491312,3/3,Zapytaj,pełna własność,balkon,Zapytaj,brak informacji,1968,blok,nie,brak informacji,monitoring / ochrona,cegła,wtórny
1,170 000 zł,"49,9 m²",2 pokojowe mieszkanie w okolicach Biskupca,2,do zamieszkania,Współrzędne dokładne,"Kojtryny, olsztyński, warmińsko-mazurskie",53.826557,20.866277,1/2,Zapytaj,pełna własność,"balkon, ogródek",Zapytaj,brak informacji,brak informacji,blok,nie,brak informacji,brak informacji,cegła,wtórny
1,689 000 zł,"69,39 m²",Nowe mieszkanie w wysokim standardzie,4,do zamieszkania,Współrzędne dokładne,"ul. Poprzeczna , Olsztyn, Olsztyn",53.791147,20.508319,5/9,Zapytaj,Zapytaj,balkon,garaż/miejsce parkingowe,brak informacji,2020,blok,tak,brak informacji,brak informacji,cegła,wtórny
1,369 000 zł,"50,1 m²",Klimatyczne mieszkanie w centrum miasta,2,do zamieszkania,Współrzędne dokładne,"ul. Adama Mickiewicza , Olsztyn, Olsztyn",53.777968,20.490245,2/3,Zapytaj,pełna własność,Zapytaj,Zapytaj,brak informacji,1962,kamienica,nie,brak informacji,brak informacji,cegła,wtórny
1,829 000 zł,"87,21 m²",Przestronny apartament w cichej okolicy,5,do zamieszkania,Współrzędne dokładne,"ul. prof. Grzegorza Nowaka , Olsztyn, Olsztyn",53.75467,20.476512,parter/2,700 zł,pełna własność,balkon,garaż/miejsce parkingowe,brak informacji,2021,apartamentowiec,tak,brak informacji,brak informacji,cegła,wtórny
1,239 000 zł,38 m²,Mieszkanie po remoncie w pobliżu jez. Jeziorak,2,do zamieszkania,Współrzędne dokładne,"ul. Ludwika Mierosławskiego , Iława, iławski",53.598459,19.558493,4/4,560 zł,spółdzielcze własnościowe,Zapytaj,Zapytaj,brak informacji,1971,blok,nie,brak informacji,brak informacji,wielka płyta,wtórny
1,345 000 zł,47 m²,Nowoczesne i stylowe mieszkanie w Giżycka,3,do zamieszkania,Nieruchomość znajduje się w zaznaczonym obszarze mapy. Niestety ogłoszeniodawca nie wskazał dokładnego adresu.,"Giżycko, giżycki, warmińsko-mazurskie",54.03567,21.77016,2,Zapytaj,pełna własność,Zapytaj,Zapytaj,brak informacji,brak informacji,blok,nie,"telewizja kablowa, internet, telefon","teren zamknięty, domofon / wideofon",brak informacji,wtórny
1,329 000 zł,54 m²,"Mieszkanie 54m2, 2 pok, 1p. Bezpośrednio",2,do zamieszkania,Nieruchomość znajduje się w zaznaczonym obszarze mapy. Niestety ogłoszeniodawca nie wskazał dokładnego adresu.,"Olsztyn, Olsztyn, warmińsko-mazurskie",53.800658,20.503825,1/4,409 zł,pełna własność,Zapytaj,Zapytaj,brak informacji,brak informacji,brak informacji,nie,"telewizja kablowa, internet","drzwi / okna antywłamaniowe, domofon / wideofon",cegła,wtórny
1,268 000 zł,"49,5 m²",Spokojna okolica przy parku,3,Zapytaj,Współrzędne dokładne,"Tadeusza Kościuszki , Giżycko, giżycki",54.039694,21.775927,4/4,Zapytaj,spółdzielcze własnościowe,balkon,Zapytaj,brak informacji,1970,blok,nie,"telewizja kablowa, internet",domofon / wideofon,beton,wtórny
1,287 000 zł,"48,6 m²",Wyjątkowe 3 pokoje po remoncie!!! OKAZJA,3,do zamieszkania,Współrzędne dokładne,"ul. Jagiełły , Giżycko, giżycki",54.041549,21.7799,4/4,599 zł,spółdzielcze własnościowe,balkon,Zapytaj,brak informacji,brak informacji,blok,nie,brak informacji,brak informacji,wielka płyta,wtórny
1,420 000 zł,"83,2 m²",3-pokojowe mieszkanie z balkonem,3,Zapytaj,Nieruchomość znajduje się w zaznaczonym obszarze mapy. Niestety ogłoszeniodawca nie wskazał dokładnego adresu.,"Ostróda, ostródzki, warmińsko-mazurskie",53.698188,19.969374,1/3,Zapytaj,Zapytaj,balkon,Zapytaj,brak informacji,brak informacji,blok,tak,brak informacji,brak informacji,brak informacji,wtórny
1,389 000 zł,40 m²,Mieszkanie dwupokojowe z oddzielną kuchnią.,2,Zapytaj,Współrzędne dokładne,"Olsztyn, Zacisze, ul. Bartąska",53.727596,20.47341,Zapytaj,Zapytaj,Zapytaj,balkon,Zapytaj,brak informacji,2019,blok,tak,brak informacji,brak informacji,brak informacji,wtórny
1,250 000 zł,"47,9 m²",Kup i zamieszkaj - pierwsze piętro,3,do zamieszkania,Współrzędne dokładne,"ul. Pionierska 3, Kętrzyn, kętrzyński",54.076119,21.367247,1/4,600 zł,spółdzielcze własnościowe,balkon,Zapytaj,brak informacji,1980,blok,nie,"telewizja kablowa, internet, telefon",domofon / wideofon,beton komórkowy,wtórny
1,476 700 zł,"46,92 m²","BEZPOŚREDNIO NOWE 46m2 Kołobrzeska, z MP i KL",2,do zamieszkania,Nieruchomość znajduje się w zaznaczonym obszarze mapy. Niestety ogłoszeniodawca nie wskazał dokładnego adresu.,"Olsztyn, Olsztyn, warmińsko-mazurskie",53.779498,20.506209,parter,Zapytaj,pełna własność,balkon,garaż/miejsce parkingowe,brak informacji,2022,apartamentowiec,nie,brak informacji,brak informacji,brak informacji,wtórny
1,327 000 zł,"54,6 m²","Ełk, wyremontowane i umeblowane mieszkanie 54,60m2",3,do zamieszkania,Nieruchomość znajduje się w zaznaczonym obszarze mapy. Niestety ogłoszeniodawca nie wskazał dokładnego adresu.,"Ełk, ełcki, warmińsko-mazurskie",53.80957,22.33548,4,Zapytaj,spółdzielcze wł. z KW,balkon,Zapytaj,brak informacji,brak informacji,blok,nie,brak informacji,brak informacji,brak informacji,wtórny
1,475 000 zł,"72,5 m²",Duże 4 pokojowe mieszkanie na Pieczewie,4,do zamieszkania,Współrzędne dokładne,"ul. Leonarda Turkowskiego , Olsztyn, Olsztyn",53.73885,20.51863,parter/4,950 zł,spółdzielcze własnościowe,balkon,Zapytaj,2023-05-09,1989,brak informacji,nie,brak informacji,brak informacji,brak informacji,wtórny
1,339 997 zł,48 m²,"Rezerwacja -Gotowe do ZAMIESZKANIA, od Właściciela",2,do zamieszkania,Nieruchomość znajduje się w zaznaczonym obszarze mapy. Niestety ogłoszeniodawca nie wskazał dokładnego adresu.,"Olsztyn, Olsztyn, warmińsko-mazurskie",53.77602,20.47703,6,430 zł,spółdzielcze własnościowe,balkon,garaż/miejsce parkingowe,brak informacji,brak informacji,blok,tak,"telewizja kablowa, internet, telefon","drzwi / okna antywłamaniowe, domofon / wideofon, monitoring / ochrona",wielka płyta,wtórny
1,430 000 zł,"59,58 m²",Gotowe do wprowadzenia mieszkanie- ul. Żyrardowska,3,Zapytaj,Współrzędne dokładne,"ul. Żyrardowska , Elbląg, Elbląg",54.18341,19.410076,3/3,600 zł,pełna własność,balkon,Zapytaj,2022-09-01,2007,blok,nie,"telewizja kablowa, internet",domofon / wideofon,brak informacji,wtórny
1,289 000 zł,"45,7 m²","Dwa pokoje, balkon, I piętro w bloku ul. Topolowa",2,do zamieszkania,Współrzędne dokładne,"ul. Topolowa , Elbląg, Elbląg",54.181049,19.401455,1/4,550 zł,pełna własność,balkon,Zapytaj,2023-01-12,1,blok,nie,"telewizja kablowa, internet",domofon / wideofon,brak informacji,wtórny
1,209 000 zł,43 m²,"2 pokoje, II piętro, do własnej aranżacji",2,Zapytaj,Współrzędne dokładne,"ul. Narciarska , Elbląg, Elbląg",54.149655,19.405187,2/2,Zapytaj,pełna własność,Zapytaj,Zapytaj,2023-03-06,1,kamienica,nie,"telewizja kablowa, internet",domofon / wideofon,brak informacji,wtórny
1,229 000 zł,"48,7 m²",Trzypokojowe mieszkanie na parterze z ogródkiem,3,do remontu,Współrzędne dokładne,"ul. Juliusza Słowackiego , Elbląg, Elbląg",54.152717,19.425135,parter/1,300 zł,pełna własność,Zapytaj,Zapytaj,2023-03-09,1,kamienica,nie,"telewizja kablowa, internet",brak informacji,brak informacji,wtórny
1,387 500 zł,"40,1 m²",Mieszkanie 2-pok. CENTRUM naprzeciwko RATUSZA,2,Zapytaj,Współrzędne dokładne,"Olsztyn, Centrum, ul. 1 Maja",53.778674,20.480764,1/4,Zapytaj,pełna własność,balkon,garaż/miejsce parkingowe,brak informacji,brak informacji,blok,tak,"telewizja kablowa, internet",domofon / wideofon,cegła,wtórny
1,459 000 zł,"53,21 m²","Nowe 3 pokoje , 1 Dywizji 53,21 m2",3,do zamieszkania,Współrzędne dokładne,"Ostróda, ostródzki, warmińsko-mazurskie",53.697479,19.975445,5/5,Zapytaj,Zapytaj,Zapytaj,Zapytaj,brak informacji,2023,blok,nie,brak informacji,brak informacji,brak informacji,wtórny
1,619 000 zł,"95,88 m²",Duże mieszkanie os. Zielone Wzgórze,4,Zapytaj,Współrzędne dokładne,"pl. Osiedle Zielone Wzgórze , Barczewo, olsztyński",53.83215,20.67876,3/3,Zapytaj,Zapytaj,Zapytaj,Zapytaj,brak informacji,2018,brak informacji,nie,brak informacji,brak informacji,brak informacji,wtórny
1,210 000 zł,"58,3 m²",BEZPOŚREDNIO 3-pokojowe mieszkanie w Pozezdrzu,3,do remontu,Współrzędne dokładne,"ul. Podleśna , Pozezdrze, węgorzewski",54.144135,21.857607,1/2,Zapytaj,pełna własność,balkon,Zapytaj,brak informacji,1980,blok,nie,brak informacji,brak informacji,wielka płyta,wtórny
1,189 000 zł,"62,8 m²",Mieszkanie bezczynszowe z działką i garażem,3,do zamieszkania,Nieruchomość znajduje się w zaznaczonym obszarze mapy. Niestety ogłoszeniodawca nie wskazał dokładnego adresu.,"Waśniewo-Grabowo, nidzicki, warmińsko-mazurskie",53.2531,20.56848,2,Zapytaj,pełna własność,ogródek,garaż/miejsce parkingowe,brak informacji,brak informacji,blok,nie,telewizja kablowa,teren zamknięty,pustak,wtórny
1,85 000 zł,"26,6 m²",Mieszkanie przy lesie w Nowym Zieluniu,1,do zamieszkania,Nieruchomość znajduje się w zaznaczonym obszarze mapy. Niestety ogłoszeniodawca nie wskazał dokładnego adresu.,"Nowy Zieluń, działdowski, warmińsko-mazurskie",53.20233,19.84373,parter,Zapytaj,pełna własność,ogródek,garaż/miejsce parkingowe,brak informacji,brak informacji,szeregowiec,nie,brak informacji,teren zamknięty,cegła,wtórny
1,609 000 zł,59 m²,**Apart Marina*143m2*widok na jezioro*84m2*taras**,3,do zamieszkania,Współrzędne dokładne,"ul. bp. Edwarda Samsela , Ełk, ełcki",53.800487,22.352839,parter/4,500 zł,pełna własność,"balkon, ogródek, taras",Zapytaj,brak informacji,2017,apartamentowiec,tak,internet,"system alarmowy, drzwi / okna antywłamaniowe, teren zamknięty, domofon / wideofon, monitoring / ochrona",brak informacji,wtórny
1,287 000 zł,"31,6 m²",2 pokoje Centrum świeżo po remoncie niski czynsz,2,do zamieszkania,Współrzędne dokładne,"Olsztyn, Centrum, ul. Tadeusza Kościuszki",53.777162,20.48841,3/4,300 zł,pełna własność,Zapytaj,Zapytaj,brak informacji,brak informacji,brak informacji,nie,"telewizja kablowa, internet",brak informacji,brak informacji,wtórny
1,194 000 zł,"29,4 m²",Klimatyczna Kawalerka w Elblągu,1,do zamieszkania,Nieruchomość znajduje się w zaznaczonym obszarze mapy. Niestety ogłoszeniodawca nie wskazał dokładnego adresu.,"Elbląg, Elbląg, warmińsko-mazurskie",54.161926,19.406259,parter/3,340 zł,pełna własność,Zapytaj,Zapytaj,brak informacji,brak informacji,brak informacji,nie,brak informacji,brak informacji,cegła,wtórny
1,389 000 zł,57 m²,M4 z ogródkiem,3,do zamieszkania,Współrzędne dokładne,"ul. Adama Stanisława Grabowskiego , Lidzbark Warmiński, lidzbarski",54.125515,20.595485,parter,670 zł,pełna własność,ogródek,Zapytaj,brak informacji,1980,blok,nie,brak informacji,brak informacji,wielka płyta,wtórny
1,439 000 zł,"49,95 m²",Mieszkanie w Olsztynie przy ul. Popiełuszki Jaroty,2,do zamieszkania,Nieruchomość znajduje się w zaznaczonym obszarze mapy. Niestety ogłoszeniodawca nie wskazał dokładnego adresu.,"Olsztyn, Olsztyn, warmińsko-mazurskie",53.736395,20.478665,3/3,Zapytaj,pełna własność,balkon,Zapytaj,brak informacji,brak informacji,blok,nie,brak informacji,"domofon / wideofon, monitoring / ochrona",brak informacji,wtórny
1,329 000 zł,"64,2 m²",Mieszkanie przy ul. Bohaterów Września,3,do zamieszkania,Nieruchomość znajduje się w zaznaczonym obszarze mapy. Niestety ogłoszeniodawca nie wskazał dokładnego adresu.,"Szczytno, szczycieński, warmińsko-mazurskie",53.567289,21.007041,4/4,Zapytaj,spółdzielcze wł. z KW,balkon,Zapytaj,brak informacji,brak informacji,blok,nie,brak informacji,brak informacji,brak informacji,wtórny
1,250 000 zł,"25,62 m²",Mieszkanie z balkonem i miejscem postojowym,1,Zapytaj,Współrzędne dokładne,"ul. Częstochowska , Elbląg, Elbląg",54.182521,19.427715,3/7,Zapytaj,pełna własność,balkon,garaż/miejsce parkingowe,brak informacji,brak informacji,blok,tak,brak informacji,domofon / wideofon,brak informacji,wtórny
1,667 000 zł,"95,42 m²","2.lokalowe mieszkanie w centrum, b&b lub kwatery",6,do wykończenia,Współrzędne dokładne,"Olsztyn, Centrum, ul. Marii Curie-Skłodowskiej",53.779831,20.478272,parter/3,300 zł,pełna własność,Zapytaj,Zapytaj,brak informacji,2005,kamienica,nie,brak informacji,brak informacji,cegła,wtórny
1,470 000 zł,"55,35 m²",Mieszkanie z Windą - Jaroty - Wspólnota,3,do zamieszkania,Współrzędne dokładne,"ul. Mieczysława Pimpickiego , Olsztyn, Olsztyn",53.730362,20.490198,1/4,650 zł,pełna własność,balkon,garaż/miejsce parkingowe,2023-07-09,2012,blok,tak,brak informacji,brak informacji,silikat,wtórny
1,493 000 zł,"70,52 m²","2.lokalowe mieszkanie w centrum, b&b lub kwatery",3,do wykończenia,Współrzędne dokładne,"Olsztyn, Centrum, ul. Marii Curie-Skłodowskiej",53.779831,20.478272,parter/4,170 zł,Zapytaj,Zapytaj,Zapytaj,brak informacji,2005,kamienica,nie,brak informacji,brak informacji,cegła,wtórny
1,309 000 zł,"31,03 m²",Kawalerka Jaroty ul. Pimpickiego Bezpośrednio,1,do zamieszkania,Współrzędne dokładne,"Olsztyn, Jaroty, ul. Mieczysława Pimpickiego",53.731178,20.488829,1/4,307 zł,pełna własność,balkon,Zapytaj,brak informacji,2013,blok,tak,brak informacji,"drzwi / okna antywłamaniowe, domofon / wideofon",cegła,wtórny
1,280 000 zł,"52,7 m²","BRANIEWO mieszkanie 2 pokojowe 52,70m2",2,do zamieszkania,Współrzędne dokładne,"ul. Jana Matejki 11, Braniewo, braniewski",54.382316,19.815725,parter/3,1 000 zł,pełna własność,"balkon, ogródek",Zapytaj,brak informacji,1998,blok,nie,brak informacji,"drzwi / okna antywłamaniowe, domofon / wideofon",pustak,wtórny
1,699 999 zł,"115,76 m²","Sprzedam komfortowe, duże mieszkanie dwupoziomowe",4,do zamieszkania,Współrzędne dokładne,"ul. Henryka Nitschmanna , Elbląg, Elbląg",54.158897,19.405693,3/4,Zapytaj,Zapytaj,balkon,garaż/miejsce parkingowe,brak informacji,brak informacji,blok,nie,brak informacji,"teren zamknięty, domofon / wideofon",brak informacji,wtórny
1,175 000 zł,65 m²,"Mieszkanie z kominkiem + garaż, piwnica, działka",3,do remontu,Współrzędne dokładne,"Sątopy-Samulewo, bartoszycki, warmińsko-mazurskie",54.073079,21.026861,parter/2,300 zł,pełna własność,ogródek,garaż/miejsce parkingowe,brak informacji,1980,blok,nie,"telewizja kablowa, internet",drzwi / okna antywłamaniowe,żelbet,wtórny
1,418 000 zł,"51,55 m²",Mieszkanie ul. Bora-Komorowskiego 14 Ełk,3,do zamieszkania,Współrzędne dokładne,"ul. gen. Bora-Komorowskiego , Ełk, ełcki",53.838966,22.364492,parter/4,450 zł,pełna własność,balkon,garaż/miejsce parkingowe,brak informacji,2019,blok,tak,brak informacji,"drzwi / okna antywłamaniowe, domofon / wideofon, monitoring / ochrona",silikat,wtórny
1,455 000 zł,"45,74 m²",Piękne mieszkanie na Osiedlu Nad Jeziorem Długim,2,do zamieszkania,Współrzędne dokładne,"ul. Artyleryjska 3N, Olsztyn, Olsztyn",53.781095,20.467448,parter/3,360 zł,pełna własność,Zapytaj,Zapytaj,brak informacji,1918,kamienica,nie,"telewizja kablowa, internet",domofon / wideofon,cegła,wtórny
1,359 000 zł,"47,9 m²",Bezpośrednio Mieszkanie 2 pokojowe Pieczewo,2,do zamieszkania,Współrzędne dokładne,"Olsztyn, Pieczewo, ul. Leonarda Turkowskiego",53.739075,20.518835,3/4,Zapytaj,pełna własność,balkon,Zapytaj,brak informacji,1987,blok,nie,"telewizja kablowa, internet","drzwi / okna antywłamaniowe, domofon / wideofon",wielka płyta,wtórny
1,440 000 zł,"75,7 m²",Mieszkanie 4 pokojowe na Królowej Jadwigi.,4,Zapytaj,Współrzędne dokładne,"ul. Królowej Jadwigi , Giżycko, giżycki",54.04489,21.77809,parter/4,970 zł,spółdzielcze własnościowe,Zapytaj,Zapytaj,brak informacji,1991,blok,nie,brak informacji,brak informacji,brak informacji,wtórny
1,169 000 zł,"56,84 m²",2 pokoje / ul. Kętrzyńska / 57 m2 / wysokość 3 m,2,do remontu,Współrzędne dokładne,"ul. Kętrzyńska , Bartoszyce, bartoszycki",54.249919,20.817321,1/2,298 zł,pełna własność,Zapytaj,Zapytaj,brak informacji,brak informacji,kamienica,nie,internet,teren zamknięty,cegła,wtórny
1,495 000 zł,"109,11 m²",Mieszkanie dla młodych,3,do zamieszkania,Współrzędne dokładne,"ul. Wrzosowa , Olsztynek, olsztyński",53.594051,20.293717,parter/1,Zapytaj,pełna własność,"ogródek, taras",garaż/miejsce parkingowe,brak informacji,brak informacji,blok,nie,internet,brak informacji,keramzyt,wtórny
1,254 000 zł,"33,07 m²","Nowe, 2-pok, ul.Ziemowita, Osiedle Piastowskie",2,do wykończenia,Współrzędne dokładne,"ul. Ziemowita 13, Iława, iławski",53.600335,19.590957,3/3,300 zł,pełna własność,balkon,Zapytaj,brak informacji,2023,apartamentowiec,tak,brak informacji,domofon / wideofon,beton komórkowy,wtórny
1,400 000 zł,80 m²,Mieszkanie po generalnym remoncie,3,do zamieszkania,Współrzędne dokładne,"ul. Steffena , Nidzica, nidzicki",53.36095,20.43846,1/1,Zapytaj,pełna własność,ogródek,garaż/miejsce parkingowe,brak informacji,1962,dom wolnostojący,nie,internet,brak informacji,cegła,wtórny
1,203 000 zł,"47,7 m²",Syndyk sprzeda mieszkanie w Działdowie,3,Zapytaj,Nieruchomość znajduje się w zaznaczonym obszarze mapy. Niestety ogłoszeniodawca nie wskazał dokładnego adresu.,"Działdowo, działdowski, warmińsko-mazurskie",53.23408,20.1805,Zapytaj,Zapytaj,pełna własność,Zapytaj,Zapytaj,brak informacji,brak informacji,blok,nie,brak informacji,brak informacji,brak informacji,wtórny
1,579 000 zł,"69,28 m²","Trzy pokoje, I piętro, garaż- ul. Nowogródzka",3,Zapytaj,Współrzędne dokładne,"ul. Nowogródzka , Elbląg, Elbląg",54.194348,19.438172,1/3,710 zł,pełna własność,balkon,garaż/miejsce parkingowe,brak informacji,2013,blok,nie,brak informacji,"teren zamknięty, domofon / wideofon",brak informacji,wtórny
1,490 000 zł,"60,45 m²",W centrum miasta z wielkoformatowymi oknami,2,Zapytaj,Współrzędne dokładne,"ul. Trybunalska , Elbląg, Elbląg",54.161926,19.406259,3/3,Zapytaj,pełna własność,balkon,Zapytaj,2023-02-14,1,kamienica,nie,telewizja kablowa,domofon / wideofon,brak informacji,wtórny
1,239 000 zł,"35,44 m²","2 pokoje, II piętro, gotowe pod inwestycję",2,Zapytaj,Współrzędne dokładne,"ul. Różana , Elbląg, Elbląg",54.063329,19.323852,2/4,Zapytaj,pełna własność,Zapytaj,Zapytaj,2023-03-20,1,blok,nie,brak informacji,domofon / wideofon,brak informacji,wtórny
1,547 900 zł,"68,5 m²","3 pokojowe, gotowe do wprowadzenia | ul. Łęczycka",3,Zapytaj,Współrzędne dokładne,"ul. Łęczycka , Elbląg, Elbląg",54.16405,19.475179,1/3,530 zł,pełna własność,balkon,Zapytaj,2022-07-31,2020,blok,tak,"telewizja kablowa, internet","drzwi / okna antywłamaniowe, teren zamknięty, domofon / wideofon",brak informacji,wtórny
1,591 755 zł,"62,29 m²","Ładne, urokliwe na parterze w inwestycji Korona",3,Zapytaj,Współrzędne dokładne,"ul. Królewiecka , Elbląg, Elbląg",54.184437,19.4498,parter/7,700 zł,pełna własność,balkon,Zapytaj,2023-05-01,2020,apartamentowiec,tak,telewizja kablowa,"drzwi / okna antywłamaniowe, domofon / wideofon",brak informacji,wtórny
1,390 000 zł,"43,66 m²","dwupokojowe, nowoczesne, na parterze",2,Zapytaj,Współrzędne dokładne,"ul. Łęczycka , Elbląg, Elbląg",54.16405,19.475179,parter/3,450 zł,pełna własność,balkon,Zapytaj,2023-03-31,2020,blok,tak,"telewizja kablowa, internet","drzwi / okna antywłamaniowe, teren zamknięty, domofon / wideofon",brak informacji,wtórny
1,415 000 zł,64 m²,"Trzy pokoje,II piętro w bloku przy ul.Sienkiewicza",3,Zapytaj,Współrzędne dokładne,"ul. Henryka Sienkiewicza , Elbląg, Elbląg",54.156061,19.40449,2/4,Zapytaj,spółdzielcze własnościowe,balkon,Zapytaj,brak informacji,1,blok,nie,brak informacji,domofon / wideofon,brak informacji,wtórny
1,520 000 zł,"57,07 m²","Mieszkanie 57,07 m2 , niski czynsz, wys. standard",3,do zamieszkania,Nieruchomość znajduje się w zaznaczonym obszarze mapy. Niestety ogłoszeniodawca nie wskazał dokładnego adresu.,"Jaroty, Olsztyn, Olsztyn",53.77602,20.47703,parter/3,350 zł,pełna własność,balkon,Zapytaj,brak informacji,2013,blok,nie,"telewizja kablowa, internet","drzwi / okna antywłamaniowe, teren zamknięty, domofon / wideofon, monitoring / ochrona, rolety antywłamaniowe",beton komórkowy,wtórny
1,415 000 zł,"43,42 m²",Zamieszkaj już jutro mieszkanie +garaż,2,do zamieszkania,Nieruchomość znajduje się w zaznaczonym obszarze mapy. Niestety ogłoszeniodawca nie wskazał dokładnego adresu.,"Dywity, olsztyński, warmińsko-mazurskie",53.83387,20.47581,1/4,500 zł,pełna własność,balkon,garaż/miejsce parkingowe,brak informacji,2021,blok,tak,"telewizja kablowa, internet",domofon / wideofon,cegła,wtórny
1,259 000 zł,"51,67 m²",mieszkanie z dużym balkonem,2,Zapytaj,Współrzędne dokładne,"ul. gen. Leopolda Okulickiego , Iława, iławski",53.5856,19.5538,3/4,Zapytaj,spółdzielcze własnościowe,balkon,Zapytaj,2023-05-01,1983,blok,nie,telefon,domofon / wideofon,inne,wtórny
1,235 000 zł,"50,19 m²",Ustawne 3-pokojowe mieszkanie do remontu,3,do remontu,Współrzędne dokładne,"ul. Marii Curie-Skłodowskiej , Elbląg, Elbląg",54.156061,19.40449,1/2,Zapytaj,pełna własność,Zapytaj,Zapytaj,brak informacji,brak informacji,kamienica,nie,brak informacji,domofon / wideofon,brak informacji,wtórny
1,200 000 zł,34 m²,Mieszkanie do własnej aranżacji,1,do remontu,Współrzędne dokładne,"ul. Juliana Tuwima , Elbląg, Elbląg",54.189745,19.418757,4/4,400 zł,pełna własność,balkon,Zapytaj,brak informacji,1980,blok,nie,brak informacji,domofon / wideofon,wielka płyta,wtórny
1,350 000 zł,"96,1 m²","Okazja !!! Mieszkanie * 96,10 m2*",5,do zamieszkania,Współrzędne dokładne,"ul. Matki Teresy z Kalkuty , Ełk, ełcki",53.80037,22.35719,3/4,950 zł,pełna własność,balkon,garaż/miejsce parkingowe,2023-03-09,brak informacji,brak informacji,nie,brak informacji,brak informacji,brak informacji,wtórny
1,265 000 zł,51 m²,"Mieszkanie 51 m2, ul. Smolki, 2 pokoje, balkon",2,do zamieszkania,Współrzędne dokładne,"ul. Franciszka Smolki , Iława, iławski",53.585321,19.562845,4/4,670 zł,spółdzielcze wł. z KW,balkon,Zapytaj,brak informacji,1978,blok,nie,"telewizja kablowa, internet",domofon / wideofon,wielka płyta,wtórny
1,499 000 zł,"62,2 m²","Olsztyn ul. Dworcowa 4 pokojowe, super lokalizacja",4,do zamieszkania,Współrzędne dokładne,"Olsztyn, Pojezierze, ul. Dworcowa",53.76595,20.497851,4/4,Zapytaj,pełna własność,balkon,Zapytaj,brak informacji,1978,blok,nie,"telewizja kablowa, internet, telefon",domofon / wideofon,wielka płyta,wtórny
1,210 000 zł,"36,9 m²",Kawalerka Na Starówce Idealna Pod Wynajem,1,do remontu,Współrzędne dokładne,"ul. Wigilijna , Elbląg, Elbląg",54.158,19.39664,4/4,Zapytaj,pełna własność,Zapytaj,Zapytaj,brak informacji,2003,kamienica,nie,brak informacji,domofon / wideofon,inne,wtórny
1,149 000 zł,"35,4 m²",Słoneczna kawalerka na parterze,2,do wykończenia,Nieruchomość znajduje się w zaznaczonym obszarze mapy. Niestety ogłoszeniodawca nie wskazał dokładnego adresu.,"Kętrzyn, kętrzyński, warmińsko-mazurskie",54.0788,21.37029,parter/4,385 zł,pełna własność,Zapytaj,Zapytaj,brak informacji,1991,blok,nie,"internet, telefon",brak informacji,wielka płyta,wtórny
1,199 000 zł,"37,47 m²",Sprzedam mieszkanie 2 pokojowe,2,do remontu,Nieruchomość znajduje się w zaznaczonym obszarze mapy. Niestety ogłoszeniodawca nie wskazał dokładnego adresu.,"Iława, iławski, warmińsko-mazurskie",53.5937,19.57128,4/4,550 zł,pełna własność,balkon,Zapytaj,brak informacji,1976,blok,nie,"telewizja kablowa, internet, telefon",domofon / wideofon,wielka płyta,wtórny
1,460 000 zł,"52,02 m²","Mieszkanie dwupokojowe 48,56 m2 Leśna Oaza",2,do zamieszkania,Współrzędne dokładne,"ul. Marii Zientary-Malewskiej , Olsztyn, Olsztyn",53.79588,20.51715,3/3,350 zł,pełna własność,balkon,garaż/miejsce parkingowe,brak informacji,2021,blok,tak,brak informacji,"teren zamknięty, domofon / wideofon",pustak,wtórny
1,357 000 zł,49 m²,Mieszkanie z balkonem + opcja zakupu garażu,2,do zamieszkania,Nieruchomość znajduje się w zaznaczonym obszarze mapy. Niestety ogłoszeniodawca nie wskazał dokładnego adresu.,"Ostróda, ostródzki, warmińsko-mazurskie",53.7,19.96776,parter/3,Zapytaj,pełna własność,"balkon, ogródek",garaż/miejsce parkingowe,brak informacji,brak informacji,brak informacji,nie,"telewizja kablowa, internet, telefon","system alarmowy, domofon / wideofon",brak informacji,wtórny
1,420 000 zł,60 m²,"Mieszkanie 74/60 mkw. użytkowe, m.postojowe",3,do zamieszkania,Współrzędne dokładne,"ul. Gdańska 5B, Iława, iławski",53.5937,19.57128,1,500 zł,pełna własność,balkon,garaż/miejsce parkingowe,brak informacji,2012,brak informacji,nie,"telewizja kablowa, internet","drzwi / okna antywłamaniowe, domofon / wideofon, monitoring / ochrona",brak informacji,wtórny
1,399 000 zł,"47,69 m²","Jaroty, Tęczowy Las* 2 pok.*48 m2*widok na jezioro",2,Zapytaj,Współrzędne dokładne,"Bartąg, olsztyński, warmińsko-mazurskie",53.730234,20.49736,6,"635,11 zł",pełna własność,balkon,garaż/miejsce parkingowe,brak informacji,2008,brak informacji,tak,"telewizja kablowa, internet",teren zamknięty,brak informacji,wtórny
1,289 000 zł,56 m²,LOKAL UZYTKOWY{ MIESZKALNY) NISKI PARTER 56m2,3,do zamieszkania,Nieruchomość znajduje się w zaznaczonym obszarze mapy. Niestety ogłoszeniodawca nie wskazał dokładnego adresu.,"Zatorze, Olsztyn, Olsztyn",53.78867,20.48805,suterena,130 zł,spółdzielcze własnościowe,Zapytaj,Zapytaj,brak informacji,2014,blok,nie,brak informacji,drzwi / okna antywłamaniowe,cegła,wtórny
1,565 000 zł,"59,5 m²","AURORA, piekny widok, 59,5m, ul. Barcza",3,do wykończenia,Współrzędne dokładne,"ul. Franciszka Barcza , Olsztyn, Olsztyn",53.746934,20.501317,3/6,Zapytaj,pełna własność,"balkon, taras",garaż/miejsce parkingowe,brak informacji,2022,apartamentowiec,tak,"telewizja kablowa, internet, telefon","teren zamknięty, domofon / wideofon",brak informacji,wtórny
1,353 000 zł,"39,6 m²","Podgrodzie, 3 pokoje, Balkon, I Pietro",3,Zapytaj,Współrzędne dokładne,"Olsztyn, Podgrodzie, ul. Profesorska",53.767481,20.46848,1/3,600 zł,Zapytaj,balkon,Zapytaj,2023-04-03,1960,blok,nie,brak informacji,brak informacji,brak informacji,wtórny
1,310 000 zł,"52,6 m²",Mieszkanie Na Starówce Pod Inwestycję,2,do remontu,Współrzędne dokładne,"ul. Wigilijna , Elbląg, Elbląg",54.158,19.39664,1/4,Zapytaj,pełna własność,Zapytaj,Zapytaj,brak informacji,2003,kamienica,nie,brak informacji,domofon / wideofon,pustak,wtórny
1,360 000 zł,"72,5 m²","Sprzedam, mieszkanie 4-pokoje, ul. Ogrodowa 4",4,do zamieszkania,Współrzędne dokładne,"ul. Ogrodowa 4, Bartoszyce, bartoszycki",54.253743,20.803899,parter/4,Zapytaj,pełna własność,balkon,Zapytaj,brak informacji,brak informacji,blok,nie,"telewizja kablowa, internet, telefon",brak informacji,brak informacji,wtórny
1,239 000 zł,"51,3 m²",Mieszkanie na sprzedaż Zagrzewo,2,do zamieszkania,Nieruchomość znajduje się w zaznaczonym obszarze mapy. Niestety ogłoszeniodawca nie wskazał dokładnego adresu.,"Nidzica, nidzicki, warmińsko-mazurskie",53.36006,20.42701,1/1,Zapytaj,pełna własność,ogródek,garaż/miejsce parkingowe,brak informacji,brak informacji,dom wolnostojący,nie,internet,teren zamknięty,brak informacji,wtórny
1,280 000 zł,58 m²,Ustawne 3-pokojowe mieszkanie w dobrej lokalizacji,3,Zapytaj,Współrzędne dokładne,"ul. Jana Kilińskiego , Ełk, ełcki",53.812623,22.364593,4/4,Zapytaj,Zapytaj,Zapytaj,Zapytaj,brak informacji,brak informacji,blok,nie,brak informacji,brak informacji,brak informacji,wtórny
1,205 000 zł,50 m²,Sprzedam Mieszkanie 50 m2 * *,3,do wykończenia,Współrzędne dokładne,"ul. Piłsudskiego , Bartoszyce, bartoszycki",54.24474,20.81449,3/4,490 zł,pełna własność,balkon,garaż/miejsce parkingowe,2023-03-07,brak informacji,blok,nie,brak informacji,"drzwi / okna antywłamaniowe, domofon / wideofon",wielka płyta,wtórny
1,480 000 zł,43 m²,Sprzedam luksusowy apartament - nowe budownictwo!,2,do zamieszkania,Nieruchomość znajduje się w zaznaczonym obszarze mapy. Niestety ogłoszeniodawca nie wskazał dokładnego adresu.,"Elbląg, Elbląg, warmińsko-mazurskie",54.17079,19.40479,5/6,500 zł,Zapytaj,balkon,garaż/miejsce parkingowe,brak informacji,brak informacji,apartamentowiec,tak,"telewizja kablowa, internet, telefon","drzwi / okna antywłamaniowe, domofon / wideofon, monitoring / ochrona",brak informacji,wtórny
1,794 200 zł,79 m²,Dwupoziomowy apartament nad jeziorem w Ostródzie,4,do wykończenia,Współrzędne dokładne,"ul. Turystyczna , Ostróda, ostródzki",53.708443,19.943524,2/3,360 zł,pełna własność,balkon,Zapytaj,brak informacji,brak informacji,apartamentowiec,tak,brak informacji,"teren zamknięty, domofon / wideofon",brak informacji,wtórny
1,399 000 zł,"47,69 m²","Jaroty, Tęczowy Las* 2 pok.*48 m2*widok na jezioro",2,Zapytaj,Współrzędne dokładne,"Jaroty, Olsztyn, Olsztyn",53.730234,20.49736,6,"635,11 zł",pełna własność,balkon,garaż/miejsce parkingowe,brak informacji,2008,brak informacji,tak,"telewizja kablowa, internet",teren zamknięty,brak informacji,wtórny
1,287 000 zł,"35,9 m²","Mieszkanie, 2 Pokoje, Parter",2,Zapytaj,Nieruchomość znajduje się w zaznaczonym obszarze mapy. Niestety ogłoszeniodawca nie wskazał dokładnego adresu.,"Olsztyn, Olsztyn, warmińsko-mazurskie",53.77602,20.47703,parter,Zapytaj,Zapytaj,Zapytaj,Zapytaj,brak informacji,brak informacji,brak informacji,nie,brak informacji,brak informacji,brak informacji,wtórny
1,179 000 zł,29 m²,I piętro - słoneczna kawalerka - Lesk Olecko,1,do zamieszkania,Nieruchomość znajduje się w zaznaczonym obszarze mapy. Niestety ogłoszeniodawca nie wskazał dokładnego adresu.,"Olecko, olecki, warmińsko-mazurskie",54.03504,22.50675,1/2,330 zł,pełna własność,Zapytaj,garaż/miejsce parkingowe,brak informacji,1792,blok,nie,brak informacji,brak informacji,cegła,wtórny
1,450 000 zł,61 m²,Mazury Giżycko mieszkanie 61m2 bez Pośredników,3,do zamieszkania,Współrzędne dokładne,"ul. Jagiełły , Giżycko, giżycki",54.040976,21.786766,2/4,660 zł,spółdzielcze własnościowe,balkon,Zapytaj,brak informacji,1995,blok,nie,internet,domofon / wideofon,żelbet,wtórny
1,399 000 zł,44 m²,"Starówka, Stare Miasto - 44/37,1 m2 - umeblowane!",2,do zamieszkania,Współrzędne dokładne,"Olsztyn, Śródmieście, ul. Stanisława Staszica",53.77546,20.47737,2/2,"258,38 zł",pełna własność,Zapytaj,Zapytaj,brak informacji,brak informacji,kamienica,nie,"internet, telefon",domofon / wideofon,cegła,wtórny
1,200 000 zł,34 m²,Kawalerka z potencjałem oraz dużym balkonem,1,do remontu,Współrzędne dokładne,"ul. Juliana Tuwima , Elbląg, Elbląg",54.188962,19.418755,4/4,400 zł,pełna własność,balkon,Zapytaj,brak informacji,1,blok,nie,brak informacji,domofon / wideofon,brak informacji,wtórny
1,670 000 zł,"67,3 m²","Apartament 67,3 m2 - Pasaż Portowy, Żeglarska 7",3,do zamieszkania,Współrzędne dokładne,"Giżycko, giżycki, warmińsko-mazurskie",54.035071,21.77189,2/3,310 zł,pełna własność,balkon,garaż/miejsce parkingowe,brak informacji,2010,apartamentowiec,nie,brak informacji,"teren zamknięty, domofon / wideofon, monitoring / ochrona",beton komórkowy,wtórny
1,329 000 zł,"46,1 m²",3pokoje z oddzielną kuchnią,3,do zamieszkania,Współrzędne dokładne,"Olsztyn, Zatorze, ul. Aleksandra Puszkina",53.78914,20.48562,4/4,565 zł,pełna własność,balkon,Zapytaj,brak informacji,1973,blok,nie,internet,domofon / wideofon,wielka płyta,wtórny
1,449 000 zł,"56,8 m²",Słoneczne mieszkanie na Popiełuszki -BEZPOŚREDNIO,3,do zamieszkania,Współrzędne dokładne,"Olsztyn, Osiedle Generałów, ul. ks. Jerzego Popiełuszki",53.736395,20.478665,parter/3,500 zł,pełna własność,balkon,Zapytaj,brak informacji,2008,blok,nie,"telewizja kablowa, internet","drzwi / okna antywłamaniowe, teren zamknięty, domofon / wideofon, monitoring / ochrona",brak informacji,wtórny
1,286 000 zł,24 m²,"2 POK Centrum, niski CZYNSZ, po gen REMONCIE, bezp",2,do zamieszkania,Współrzędne dokładne,"Olsztyn, Kormoran, ul. Wincentego Pstrowskiego",53.758694,20.516014,Zapytaj,200 zł,spółdzielcze własnościowe,balkon,Zapytaj,brak informacji,brak informacji,blok,tak,internet,brak informacji,brak informacji,wtórny
1,182 000 zł,"50,42 m²",Przestronne mieszkanie w Ornecie,2,Zapytaj,Współrzędne dokładne,"ul. Kościelna , Orneta, lidzbarski",54.1154,20.1299,4/4,Zapytaj,pełna własność,Zapytaj,Zapytaj,brak informacji,1900,blok,nie,brak informacji,brak informacji,cegła,wtórny
1,829 000 zł,170 m²,Mieszkanie dwupoziomowe Ełk ul. Brzechwy,4,do zamieszkania,Współrzędne dokładne,"ul. Jana Brzechwy , Ełk, ełcki",53.830843,22.339517,3/4,Zapytaj,pełna własność,balkon,garaż/miejsce parkingowe,brak informacji,brak informacji,blok,nie,"telewizja kablowa, internet, telefon","drzwi / okna antywłamaniowe, teren zamknięty, domofon / wideofon",brak informacji,wtórny
1,207 000 zł,"36,6 m²","2-3 pokoje, świetny rozkład, 1 piętro - BEZPOŚ",2,Zapytaj,Nieruchomość znajduje się w zaznaczonym obszarze mapy. Niestety ogłoszeniodawca nie wskazał dokładnego adresu.,"Centrum, Olsztyn, Olsztyn",53.77842,20.48012,1/3,180 zł,pełna własność,balkon,Zapytaj,brak informacji,brak informacji,blok,nie,brak informacji,brak informacji,brak informacji,wtórny
1,165 000 zł,"40,9 m²",Przytulne parterowe mieszkanie z ogródkiem !,2,Zapytaj,Współrzędne dokładne,"ul. Henryka Sienkiewicza , Dźwierzuty, szczycieński",53.70276,20.96509,parter/1,Zapytaj,pełna własność,ogródek,Zapytaj,brak informacji,brak informacji,brak informacji,nie,brak informacji,brak informacji,brak informacji,wtórny
1,339 000 zł,70 m²,"Mieszkanie z ogródkiem w cichej, spokojnej okolicy",3,do zamieszkania,Współrzędne dokładne,"ul. Leśna , Kętrzyn, kętrzyński",54.070889,21.37001,parter/2,485 zł,pełna własność,ogródek,Zapytaj,brak informacji,1938,kamienica,nie,brak informacji,drzwi / okna antywłamaniowe,cegła,wtórny
1,285 000 zł,"47,7 m²",Mieszkanie - Elbląg Zawada,2,do zamieszkania,Nieruchomość znajduje się w zaznaczonym obszarze mapy. Niestety ogłoszeniodawca nie wskazał dokładnego adresu.,"Elbląg, Elbląg, warmińsko-mazurskie",54.17079,19.40479,6/10,Zapytaj,pełna własność,balkon,Zapytaj,brak informacji,1980,blok,tak,telefon,domofon / wideofon,brak informacji,wtórny
1,300 000 zł,"44,49 m²",Klimatyczne mieszkanie w centrum Ełku,3,do zamieszkania,Współrzędne dokładne,"ul. Stary Rynek , Ełk, ełcki",53.820345,22.356128,2/2,102 zł,pełna własność,Zapytaj,Zapytaj,brak informacji,1909,kamienica,nie,brak informacji,brak informacji,cegła,wtórny
1,299 000 zł,"37,9 m²","Świetna lokalizacja, 2 pokoje, oddzielna kuchnia",2,do zamieszkania,Współrzędne dokładne,"Olsztyn, Kormoran, ul. Dworcowa",53.771558,20.496554,8/11,Zapytaj,pełna własność,balkon,Zapytaj,brak informacji,1978,blok,tak,"telewizja kablowa, internet",domofon / wideofon,wielka płyta,wtórny
1,389 000 zł,48 m²,"BEZPOŚREDNIO - mieszkanie 3 pokoje, Podgrodzie",3,do zamieszkania,Współrzędne dokładne,"Olsztyn, Podgrodzie, ul. Walentego Barczewskiego",53.76957,20.473911,2/4,Zapytaj,spółdzielcze własnościowe,balkon,garaż/miejsce parkingowe,brak informacji,1979,blok,nie,"telewizja kablowa, internet",domofon / wideofon,wielka płyta,wtórny
1,289 000 zł,"30,8 m²",2-pokojowe mieszkanie Centrum/ Zatorze,2,do zamieszkania,Współrzędne dokładne,"Śródmieście, Olsztyn, Olsztyn",53.779516,20.475165,2/2,450 zł,pełna własność,Zapytaj,Zapytaj,brak informacji,1912,kamienica,nie,brak informacji,monitoring / ochrona,cegła,wtórny
1,249 000 zł,"23,7 m²",Wyremontowana i umeblowana kawalerka,1,Zapytaj,Współrzędne dokładne,"Podgrodzie, Olsztyn, Olsztyn",53.772383,20.473587,3/4,375 zł,spółdzielcze wł. z KW,Zapytaj,Zapytaj,brak informacji,1978,blok,nie,brak informacji,brak informacji,wielka płyta,wtórny
1,210 000 zł,78 m²,Na sprzedaż umeblowane mieszkanie 78m2 + 2 garaże,3,Zapytaj,Nieruchomość znajduje się w zaznaczonym obszarze mapy. Niestety ogłoszeniodawca nie wskazał dokładnego adresu.,"Smokowo, kętrzyński, warmińsko-mazurskie",54.06313,21.31207,2,Zapytaj,Zapytaj,balkon,garaż/miejsce parkingowe,brak informacji,brak informacji,blok,nie,"telewizja kablowa, internet, telefon",brak informacji,brak informacji,wtórny
1,339 000 zł,"47,7 m²",Sprzedam 2-pokojowe mieszkanie po remoncie,2,do zamieszkania,Współrzędne dokładne,"ul. Leopolda Okulickiego , Elbląg, Elbląg",54.186216,19.397,8/10,"547,92 zł",spółdzielcze wł. z KW,balkon,Zapytaj,brak informacji,brak informacji,blok,tak,brak informacji,domofon / wideofon,wielka płyta,wtórny
1,214 000 zł,"23,6 m²","Kawalerka 23,60 m2 na Zatorzu ul. Cicha",1,do zamieszkania,Współrzędne dokładne,"ul. Cicha , Olsztyn, Olsztyn",53.79043,20.50068,5/11,370 zł,pełna własność,balkon,Zapytaj,brak informacji,1979,blok,tak,brak informacji,domofon / wideofon,wielka płyta,wtórny
1,550 000 zł,"61,5 m²","3-pokojowe mieszkanie, Bez Prowizji",3,do zamieszkania,Nieruchomość znajduje się w zaznaczonym obszarze mapy. Niestety ogłoszeniodawca nie wskazał dokładnego adresu.,"Jaroty, Olsztyn, Olsztyn",53.7407,20.49809,parter/3,Zapytaj,pełna własność,Zapytaj,Zapytaj,brak informacji,brak informacji,brak informacji,nie,brak informacji,brak informacji,silikat,wtórny
1,298 000 zł,"48,75 m²",Przytulne mieszkanie bez nakładów wysoki standard,2,do zamieszkania,Współrzędne dokładne,"ul. Trybunalska , Elbląg, Elbląg",54.161926,19.406259,2/4,470 zł,pełna własność,Zapytaj,garaż/miejsce parkingowe,brak informacji,1965,blok,nie,brak informacji,domofon / wideofon,cegła,wtórny
1,350 000 zł,"50,86 m²","Mieszkanie 2-pokojowe, umeblowane - pow.50,86m2",2,do zamieszkania,Współrzędne dokładne,"osiedle kętrzyńskiego , Olsztyn, Olsztyn",53.786127,20.531872,2/3,Zapytaj,pełna własność,balkon,garaż/miejsce parkingowe,brak informacji,brak informacji,blok,nie,"telewizja kablowa, internet",drzwi / okna antywłamaniowe,cegła,wtórny
1,239 000 zł,46 m²,"Sprzedam mieszkanie 46 m2, Działdowo",3,do zamieszkania,Współrzędne dokładne,"ul. Nidzicka , Działdowo, działdowski",53.240806,20.186389,2/4,Zapytaj,pełna własność,balkon,Zapytaj,brak informacji,brak informacji,blok,nie,"telewizja kablowa, internet",domofon / wideofon,wielka płyta,wtórny
1,416 500 zł,85 m²,"Kościuszki 22, 85m2., 3 pokoje, 416500zł.,parter",3,do remontu,Nieruchomość znajduje się w zaznaczonym obszarze mapy. Niestety ogłoszeniodawca nie wskazał dokładnego adresu.,"Olsztyn, Olsztyn, warmińsko-mazurskie",53.77602,20.47703,parter/3,Zapytaj,Zapytaj,Zapytaj,Zapytaj,brak informacji,brak informacji,kamienica,nie,brak informacji,brak informacji,brak informacji,wtórny
1,929 000 zł,98 m²,"Armii Krajowej,98m2., 4/5 pokoi,960000zł., jezioro",5,do zamieszkania,Nieruchomość znajduje się w zaznaczonym obszarze mapy. Niestety ogłoszeniodawca nie wskazał dokładnego adresu.,"Osiedle Grunwaldzkie, Olsztyn, Olsztyn",53.769199,20.459072,3/7,Zapytaj,Zapytaj,Zapytaj,Zapytaj,brak informacji,2014,blok,tak,"telewizja kablowa, internet",domofon / wideofon,brak informacji,wtórny
1,209 000 zł,47 m²,"Olsztynek,2pokoje,47m2.,Duży Garaż, ogródek",2,do remontu,Nieruchomość znajduje się w zaznaczonym obszarze mapy. Niestety ogłoszeniodawca nie wskazał dokładnego adresu.,"Olsztynek, olsztyński, warmińsko-mazurskie",53.581724,20.278404,1,Zapytaj,Zapytaj,ogródek,garaż/miejsce parkingowe,brak informacji,brak informacji,brak informacji,nie,brak informacji,brak informacji,brak informacji,wtórny
1,185 000 zł,30 m²,Na sprzedaż piękna kawalerka,1,do zamieszkania,Współrzędne dokładne,"ul. Królewiecka 136, Elbląg, Elbląg",54.17079,19.40479,Zapytaj,250 zł,pełna własność,Zapytaj,Zapytaj,brak informacji,brak informacji,blok,nie,"telewizja kablowa, internet","teren zamknięty, domofon / wideofon",cegła,wtórny
1,330 000 zł,"75,57 m²","Sprzedam Mieszkanie ul.Kard, Wyszyńskiego 41",4,do zamieszkania,Nieruchomość znajduje się w zaznaczonym obszarze mapy. Niestety ogłoszeniodawca nie wskazał dokładnego adresu.,"Iława, iławski, warmińsko-mazurskie",53.5937,19.57128,2/2,Zapytaj,pełna własność,ogródek,Zapytaj,brak informacji,brak informacji,blok,nie,brak informacji,domofon / wideofon,cegła,wtórny
1,346 000 zł,"51,9 m²",Na sprzedaż 2 pokojowe mieszkanie Za Politechniką,2,do remontu,Współrzędne dokładne,"ul. Wojciecha Kossaka , Elbląg, Elbląg",54.151775,19.434789,2/4,600 zł,pełna własność,balkon,Zapytaj,brak informacji,1987,blok,nie,brak informacji,brak informacji,pustak,wtórny
1,445 000 zł,"59,5 m²",Stylowe trzypokojowe mieszkanie na Pieczewie,3,do zamieszkania,Współrzędne dokładne,"Olsztyn, Pieczewo, ul. Władysława Gębika",53.737837,20.514367,4/5,550 zł,pełna własność,balkon,garaż/miejsce parkingowe,brak informacji,1989,blok,nie,"telewizja kablowa, internet",brak informacji,wielka płyta,wtórny
1,195 000 zł,"22,9 m²",Mieszkanie idealne pod wynajem dla studentów,2,do remontu,Współrzędne dokładne,"ul. Marcina Kasprzaka , Olsztyn, Olsztyn",53.7672,20.4829,1/4,Zapytaj,pełna własność,Zapytaj,Zapytaj,brak informacji,1975,blok,nie,brak informacji,brak informacji,wielka płyta,wtórny
1,210 000 zł,"52,21 m²",Mieszkanie BEZCZYNSZOWE ul. Warszawska,2,do remontu,Współrzędne dokładne,"ul. Warszawska , Biskupiec, olsztyński",53.861746,20.952859,parter/1,Zapytaj,pełna własność,Zapytaj,Zapytaj,brak informacji,brak informacji,kamienica,nie,brak informacji,teren zamknięty,cegła,wtórny
1,164 000 zł,"61,4 m²",Mieszkanie na sprzedaż w Elblągu,3,do remontu,Współrzędne dokładne,"ul. Zagonowa , Elbląg, Elbląg",54.152763,19.400896,parter/3,400 zł,pełna własność,Zapytaj,Zapytaj,brak informacji,1940,kamienica,nie,brak informacji,brak informacji,brak informacji,wtórny
1,411 000 zł,62 m²,"Mieszkanie o pow. 62 m2 , stan deweloperski",3,do wykończenia,Współrzędne dokładne,"ul. Romualda Mielczarskiego , Elbląg, Elbląg",54.148355,19.408307,6/8,500 zł,pełna własność,balkon,garaż/miejsce parkingowe,brak informacji,2022,apartamentowiec,tak,brak informacji,"teren zamknięty, domofon / wideofon, monitoring / ochrona",żelbet,wtórny
1,414 000 zł,"54,7 m²",Słoneczne mieszkanie 2 pokojowe w centrum miasta,2,do zamieszkania,Współrzędne dokładne,"ul. Związku Jaszczurczego 13, Elbląg, Elbląg",54.157141,19.410558,2/3,700 zł,pełna własność,balkon,Zapytaj,brak informacji,2004,kamienica,nie,"telewizja kablowa, internet, telefon",domofon / wideofon,pustak,wtórny
1,549 000 zł,"51,23 m²","Jezioro Długie, 2 pokoje, 51 m2, ul. Artyleryjska",2,do zamieszkania,Współrzędne dokładne,"ul. Artyleryjska , Olsztyn, Olsztyn",53.780981,20.465731,3/4,860 zł,pełna własność,Zapytaj,garaż/miejsce parkingowe,brak informacji,1918,kamienica,tak,brak informacji,domofon / wideofon,cegła,wtórny
1,505 000 zł,60 m²,Atrakcyjne mieszkanie Zatorze wśród jezior i lasów,3,do zamieszkania,Współrzędne dokładne,"Olsztyn, Zatorze, ul. Marii Zientary-Malewskiej",53.79256,20.51143,1/3,470 zł,pełna własność,balkon,Zapytaj,2023-05-08,2012,blok,nie,"telewizja kablowa, internet","drzwi / okna antywłamaniowe, domofon / wideofon",cegła,wtórny
1,550 000 zł,"77,7 m²",Sprzedam mieszkanie 70m2 Giżycko,5,do zamieszkania,Współrzędne dokładne,"ul. Olsztyńska , Giżycko, giżycki",54.03615,21.763532,1/1,450 zł,pełna własność,balkon,Zapytaj,brak informacji,brak informacji,kamienica,nie,brak informacji,brak informacji,cegła,wtórny
1,449 000 zł,"63,41 m²",Klimatyczny Apartament jako dom lub inwestycja,3,do zamieszkania,Nieruchomość znajduje się w zaznaczonym obszarze mapy. Niestety ogłoszeniodawca nie wskazał dokładnego adresu.,"Ostróda, ostródzki, warmińsko-mazurskie",53.7,19.96776,3/3,370 zł,pełna własność,balkon,Zapytaj,brak informacji,2022,apartamentowiec,tak,internet,"drzwi / okna antywłamaniowe, domofon / wideofon",brak informacji,wtórny
1,179 000 zł,110 m²,Mieszkanie w budynku dwurodzinnym z poddaszem.,3,do zamieszkania,Nieruchomość znajduje się w zaznaczonym obszarze mapy. Niestety ogłoszeniodawca nie wskazał dokładnego adresu.,"Tyrowo, ostródzki, warmińsko-mazurskie",53.67219,19.89309,1/2,Zapytaj,pełna własność,ogródek,garaż/miejsce parkingowe,brak informacji,brak informacji,dom wolnostojący,nie,brak informacji,brak informacji,cegła,wtórny
1,370 000 zł,63 m²,Dwa mieszkania inwestycyjne !!!,4,Zapytaj,Współrzędne dokładne,"Elbląg, Elbląg, warmińsko-mazurskie",54.160985,19.410283,Zapytaj,Zapytaj,Zapytaj,Zapytaj,Zapytaj,brak informacji,brak informacji,brak informacji,nie,brak informacji,brak informacji,brak informacji,wtórny
1,180 000 zł,"38,6 m²","Mieszkanie 2-pok. I piętro, w samym centrum miasta",2,Zapytaj,Nieruchomość znajduje się w zaznaczonym obszarze mapy. Niestety ogłoszeniodawca nie wskazał dokładnego adresu.,"Centrum, Ełk, ełcki",53.8236,22.35042,1/4,Zapytaj,pełna własność,Zapytaj,Zapytaj,brak informacji,brak informacji,brak informacji,nie,brak informacji,brak informacji,brak informacji,wtórny
1,353 000 zł,"35,7 m²","Mieszkania na sprzedaż- Giżycko, przy plaży.",1,do zamieszkania,Współrzędne dokładne,"ul. Żeglarska , Giżycko, giżycki",54.034547,21.768773,2,"150,33 zł",pełna własność,Zapytaj,garaż/miejsce parkingowe,brak informacji,2012,blok,tak,internet,"teren zamknięty, domofon / wideofon",brak informacji,wtórny
1,249 000 zł,"57,42 m²",Mieszkanie w centrum Giżycka,2,do zamieszkania,Współrzędne dokładne,"ul. I Dywizji im. T. Kościuszki , Giżycko, giżycki",54.039809,21.775245,1/2,147 zł,pełna własność,ogródek,Zapytaj,brak informacji,brak informacji,kamienica,nie,brak informacji,domofon / wideofon,cegła,wtórny
1,160 000 zł,"16,08 m²",Po remoncie kawalerka,1,do zamieszkania,Nieruchomość znajduje się w zaznaczonym obszarze mapy. Niestety ogłoszeniodawca nie wskazał dokładnego adresu.,"Szczytno, szczycieński, warmińsko-mazurskie",53.55827,21.00724,4/4,200 zł,pełna własność,Zapytaj,Zapytaj,brak informacji,brak informacji,blok,nie,brak informacji,"drzwi / okna antywłamaniowe, domofon / wideofon",pustak,wtórny
1,659 000 zł,"68,25 m²","Nowoczesne, 4-pokojowe mieszkanie z 2 balkonami",4,do zamieszkania,Współrzędne dokładne,"Olsztyn, Kortowo, ul. Juliana Tuwima",53.7589,20.465903,2/5,Zapytaj,Zapytaj,Zapytaj,Zapytaj,brak informacji,2018,blok,tak,brak informacji,brak informacji,brak informacji,wtórny
1,315 000 zł,"39,16 m²",Dwupokojowe mieszkanie na Starym Mieście,2,do remontu,Współrzędne dokładne,"Olsztyn, Śródmieście, ul. św. Barbary",53.776643,20.47715,3/3,360 zł,pełna własność,Zapytaj,Zapytaj,brak informacji,1890,kamienica,nie,brak informacji,brak informacji,cegła,wtórny
1,369 000 zł,"57,9 m²",4-pokojowe mieszkanie na Pojezierzu,4,do remontu,Współrzędne dokładne,"Olsztyn, Pojezierze, ul. Dworcowa",53.776335,20.502267,3/4,434 zł,pełna własność,Zapytaj,Zapytaj,brak informacji,1975,blok,nie,brak informacji,brak informacji,wielka płyta,wtórny
1,239 000 zł,"53,5 m²","Okazja, 3 pokojowe mieszkanie o pow. 53,50 m2",3,do zamieszkania,Nieruchomość znajduje się w zaznaczonym obszarze mapy. Niestety ogłoszeniodawca nie wskazał dokładnego adresu.,"Olecko, olecki, warmińsko-mazurskie",54.03504,22.50675,2,Zapytaj,Zapytaj,balkon,Zapytaj,brak informacji,brak informacji,blok,nie,brak informacji,brak informacji,brak informacji,wtórny
1,299 000 zł,"55,1 m²","3-pokojowe, gotowe do wprowadzenia się z balkonem",3,do zamieszkania,Współrzędne dokładne,"ul. Adama Mickiewicza , Elbląg, Elbląg",54.156216,19.41699,3/3,620 zł,pełna własność,balkon,Zapytaj,2022-11-30,1,blok,nie,"telewizja kablowa, internet",domofon / wideofon,brak informacji,wtórny
1,199 000 zł,"25,82 m²",Gotowa do zamieszkania lub na inwestycje kawalerka,1,Zapytaj,Współrzędne dokładne,"ul. Lubraniecka , Elbląg, Elbląg",54.177799,19.394378,4/4,Zapytaj,pełna własność,Zapytaj,Zapytaj,2022-07-31,1,blok,nie,"telewizja kablowa, internet",domofon / wideofon,brak informacji,wtórny
1,279 000 zł,"48,2 m²","3 pokoje, parter, z balkonem, w dobrej lokalizacji",3,Zapytaj,Współrzędne dokładne,"ul. Jana Matejki , Elbląg, Elbląg",54.179769,19.402311,parter/4,420 zł,pełna własność,balkon,Zapytaj,2023-02-15,1,blok,nie,internet,domofon / wideofon,brak informacji,wtórny
1,285 000 zł,"38,9 m²","Mieszkanie z balkonem, I piętro os.za Politechniką",1,Zapytaj,Współrzędne dokładne,"ul. Leona Wyczółkowskiego , Elbląg, Elbląg",54.150872,19.431825,1/4,550 zł,pełna własność,balkon,Zapytaj,2023-05-31,1,blok,nie,"telewizja kablowa, internet","drzwi / okna antywłamaniowe, domofon / wideofon",brak informacji,wtórny
1,177 000 zł,"41,5 m²",Przytulne mieszkanie w atrakcyjnej lokalizacji,2,do remontu,Współrzędne dokładne,"ul. Świerkowa , Elbląg, Elbląg",54.177192,19.415818,2/2,310 zł,pełna własność,ogródek,Zapytaj,brak informacji,1,kamienica,nie,brak informacji,brak informacji,cegła,wtórny
1,169 500 zł,"41,4 m²","Dwupokojowe mieszkanie z ogródkiem, ul. Fredry",2,Zapytaj,Współrzędne dokładne,"ul. Aleksandra Fredry , Elbląg, Elbląg",54.150499,19.407617,parter/3,220 zł,pełna własność,ogródek,Zapytaj,2022-03-04,1,kamienica,nie,brak informacji,domofon / wideofon,brak informacji,wtórny
1,499 000 zł,"62,55 m²",Niepowtarzalny apartament w nowszych zasobach,3,Zapytaj,Współrzędne dokładne,"ul. Łęczycka , Elbląg, Elbląg",54.16405,19.475179,parter/3,520 zł,pełna własność,balkon,Zapytaj,brak informacji,2020,blok,tak,internet,"domofon / wideofon, rolety antywłamaniowe",brak informacji,wtórny
1,279 000 zł,"31,6 m²",2 pokojowe mieszkanie przy ul. Wilczyńskiego,2,do zamieszkania,Współrzędne dokładne,"ul. Biskupa Tomasza Wilczyńskiego , Olsztyn, Olsztyn",53.741132,20.51931,2/3,375 zł,pełna własność,balkon,Zapytaj,brak informacji,2005,blok,nie,brak informacji,brak informacji,brak informacji,wtórny
1,539 000 zł,"58,96 m²",Nowoczesne mieszkanie 3 pokoje centrum Zatorze,3,do zamieszkania,Nieruchomość znajduje się w zaznaczonym obszarze mapy. Niestety ogłoszeniodawca nie wskazał dokładnego adresu.,"Zatorze, Olsztyn, Olsztyn",53.78867,20.48805,2/4,670 zł,pełna własność,balkon,garaż/miejsce parkingowe,brak informacji,2016,blok,tak,internet,domofon / wideofon,silikat,wtórny
1,444 000 zł,"63,08 m²",Olecko ul. Słoneczna 7,3,do zamieszkania,Współrzędne dokładne,"ul. Słoneczna , Olecko, olecki",54.036278,22.49923,2/2,Zapytaj,pełna własność,balkon,Zapytaj,brak informacji,2018,blok,tak,"telewizja kablowa, internet","teren zamknięty, domofon / wideofon, monitoring / ochrona",brak informacji,wtórny
1,295 000 zł,45 m²,Mieszkanie 3 pokoje Pojezierze,3,do remontu,Nieruchomość znajduje się w zaznaczonym obszarze mapy. Niestety ogłoszeniodawca nie wskazał dokładnego adresu.,"Pojezierze, Olsztyn, Olsztyn",53.779498,20.506209,3/4,680 zł,pełna własność,balkon,Zapytaj,brak informacji,brak informacji,blok,nie,brak informacji,brak informacji,brak informacji,wtórny
1,299 000 zł,"60,5 m²","Olecko, umeblowane mieszkanie na sprzedaż",3,do zamieszkania,Nieruchomość znajduje się w zaznaczonym obszarze mapy. Niestety ogłoszeniodawca nie wskazał dokładnego adresu.,"Olecko, olecki, warmińsko-mazurskie",54.03504,22.50675,parter,Zapytaj,Zapytaj,balkon,Zapytaj,brak informacji,brak informacji,blok,nie,brak informacji,brak informacji,brak informacji,wtórny
1,388 900 zł,"55,57 m²","Ełk, 3 pokojowy apartament 55,57m2 w SYMFONIA PARK",3,do wykończenia,Nieruchomość znajduje się w zaznaczonym obszarze mapy. Niestety ogłoszeniodawca nie wskazał dokładnego adresu.,"Ełk, ełcki, warmińsko-mazurskie",53.80957,22.33548,1,Zapytaj,pełna własność,taras,garaż/miejsce parkingowe,brak informacji,2022,apartamentowiec,tak,brak informacji,"drzwi / okna antywłamaniowe, teren zamknięty, domofon / wideofon, monitoring / ochrona",silikat,wtórny
1,450 000 zł,61 m²,Przestronne 3 pokojowe mieszkanie w sercu Mazur,3,do zamieszkania,Nieruchomość znajduje się w zaznaczonym obszarze mapy. Niestety ogłoszeniodawca nie wskazał dokładnego adresu.,"Giżycko, giżycki, warmińsko-mazurskie",54.03567,21.77016,parter/4,600 zł,pełna własność,balkon,Zapytaj,brak informacji,brak informacji,blok,nie,"telewizja kablowa, internet, telefon",domofon / wideofon,brak informacji,wtórny
1,239 000 zł,"48,2 m²","Olecko, mieszkanie 48 m2 na Osiedlu Nad Legą",2,do zamieszkania,Nieruchomość znajduje się w zaznaczonym obszarze mapy. Niestety ogłoszeniodawca nie wskazał dokładnego adresu.,"Olecko, olecki, warmińsko-mazurskie",54.03504,22.50675,2,Zapytaj,Zapytaj,balkon,Zapytaj,brak informacji,brak informacji,blok,nie,brak informacji,brak informacji,brak informacji,wtórny
1,249 000 zł,"47,5 m²",Mieszkanie 47 m2 dwa pokoje + garderoba Kopernika,2,do zamieszkania,Współrzędne dokładne,"ul. Mikołaja Kopernika 3b, Iława, iławski",53.58869,19.566953,4/4,600 zł,spółdzielcze wł. z KW,balkon,Zapytaj,brak informacji,brak informacji,blok,nie,"telewizja kablowa, internet","drzwi / okna antywłamaniowe, domofon / wideofon",brak informacji,wtórny
1,1 290 000 zł,72 m²,"Stranda Giżycko 72 m2,3pok, 2 łazienki, 40m2 taras",3,do wykończenia,Współrzędne dokładne,"Giżycko, giżycki, warmińsko-mazurskie",54.04284,21.737405,1/3,720 zł,pełna własność,taras,garaż/miejsce parkingowe,brak informacji,2022,apartamentowiec,nie,"telewizja kablowa, internet","teren zamknięty, domofon / wideofon",cegła,wtórny
1,448 000 zł,"62,3 m²","Mrongowiusza - na kancelarię bądź ""booking""",3,Zapytaj,Współrzędne dokładne,"Olsztyn, Śródmieście, ul. Krzysztofa Celestyna Mrongowiusza",53.779069,20.481795,2/3,622 zł,pełna własność,balkon,Zapytaj,brak informacji,1930,kamienica,nie,internet,domofon / wideofon,cegła,wtórny
1,359 000 zł,"48,2 m²",Bezpośrednio 3 pok. 48m2 Olsztyn ul. Pana Tadeusza,3,do zamieszkania,Współrzędne dokładne,"Olsztyn, Pojezierze, ul. Pana Tadeusza",53.777089,20.507154,8/10,450 zł,spółdzielcze własnościowe,balkon,Zapytaj,brak informacji,1973,blok,tak,"telewizja kablowa, internet","domofon / wideofon, rolety antywłamaniowe",wielka płyta,wtórny
1,150 000 zł,"33,55 m²",Mieszkanie Braniewo ul PCK,1,do remontu,Współrzędne dokładne,"ul. PCK , Braniewo, braniewski",54.384715,19.814974,1/3,300 zł,pełna własność,Zapytaj,garaż/miejsce parkingowe,brak informacji,1913,kamienica,nie,"telewizja kablowa, internet, telefon",domofon / wideofon,cegła,wtórny
1,189 800 zł,78 m²,Duże mieszkanie w centrum Braniewa,3,do remontu,Współrzędne dokładne,"ul. Kościuszki , Braniewo, braniewski",54.382244,19.833947,1/3,Zapytaj,pełna własność,balkon,Zapytaj,brak informacji,brak informacji,kamienica,nie,brak informacji,brak informacji,cegła,wtórny
1,231 990 zł,"40,7 m²",Nowe mieszkanie gotowe do odbioru,2,do wykończenia,Nieruchomość znajduje się w zaznaczonym obszarze mapy. Niestety ogłoszeniodawca nie wskazał dokładnego adresu.,"Działdowo, działdowski, warmińsko-mazurskie",53.23408,20.1805,parter/3,Zapytaj,pełna własność,"ogródek, taras",garaż/miejsce parkingowe,brak informacji,2022,blok,tak,"telewizja kablowa, internet, telefon","drzwi / okna antywłamaniowe, teren zamknięty, domofon / wideofon",silikat,wtórny
1,339 900 zł,54 m²,"Komfortowe 3 pok. mieszkanie 54m2, ul. Płk. Dąbka",3,do zamieszkania,Współrzędne dokładne,"ul. Pułkownika Stanisława Dąbka , Elbląg, Elbląg",54.17844,19.404924,3/4,650 zł,pełna własność,balkon,garaż/miejsce parkingowe,brak informacji,1970,blok,nie,"telewizja kablowa, internet",domofon / wideofon,beton,wtórny
1,349 999 zł,"53,5 m²","Sprzedam mieszkanie w centrum Nidzicy 53,2m2",2,do zamieszkania,Współrzędne dokładne,"ul. Ogrodowa , Nidzica, nidzicki",53.362309,20.425463,3/3,Zapytaj,spółdzielcze własnościowe,balkon,Zapytaj,brak informacji,brak informacji,blok,nie,"telewizja kablowa, internet","drzwi / okna antywłamaniowe, domofon / wideofon, monitoring / ochrona",wielka płyta,wtórny
1,412 676 zł,"49,72 m²",Sprzedam nowe mieszkanie Osiedle Zielone,2,do zamieszkania,Nieruchomość znajduje się w zaznaczonym obszarze mapy. Niestety ogłoszeniodawca nie wskazał dokładnego adresu.,"Szczytno, szczycieński, warmińsko-mazurskie",53.55827,21.00724,2/5,350 zł,pełna własność,"balkon, taras",garaż/miejsce parkingowe,brak informacji,2022,blok,tak,"telewizja kablowa, internet, telefon","drzwi / okna antywłamaniowe, domofon / wideofon, monitoring / ochrona",brak informacji,wtórny
1,415 000 zł,60 m²,Atrakcyjne 3-pokojowe mieszkanie w Olsztynie,3,Zapytaj,Nieruchomość znajduje się w zaznaczonym obszarze mapy. Niestety ogłoszeniodawca nie wskazał dokładnego adresu.,"Olsztyn, Olsztyn, warmińsko-mazurskie",53.77602,20.47703,Zapytaj,Zapytaj,Zapytaj,Zapytaj,Zapytaj,brak informacji,brak informacji,brak informacji,nie,brak informacji,brak informacji,brak informacji,wtórny
1,414 000 zł,60 m²,Mieszkanie 3 - pokojowe w centrum Ostródy,3,Zapytaj,Współrzędne dokładne,"ul. Czarnieckiego - pasaż , Ostróda, ostródzki",53.694095,19.965901,2/3,Zapytaj,pełna własność,balkon,Zapytaj,brak informacji,2002,blok,nie,"telewizja kablowa, internet",domofon / wideofon,brak informacji,wtórny
1,749 000 zł,95 m²,"2 balkony, umeblowane, miejsce postojowe, szereg",3,do zamieszkania,Współrzędne dokładne,"Olsztyn, Jaroty, ul. Majora Jana Piwnika",53.73684,20.474262,1/1,Zapytaj,pełna własność,balkon,garaż/miejsce parkingowe,brak informacji,2021,szeregowiec,nie,internet,drzwi / okna antywłamaniowe,cegła,wtórny
1,205 000 zł,36 m²,Sprzedam mieszkanie dwupokojowe na ulicy Gwiezdnej,2,do remontu,Współrzędne dokładne,"ul. Gwiezdna , Elbląg, Elbląg",54.168625,19.403815,1/4,385 zł,pełna własność,Zapytaj,Zapytaj,brak informacji,brak informacji,blok,nie,brak informacji,brak informacji,brak informacji,wtórny
1,390 000 zł,"64,79 m²","Bezczynszowe mieszkanie 65m2 z tarasem, Rybno",3,do zamieszkania,Współrzędne dokładne,"ul.Sportowa 29A, Rybno, działdowski",53.381231,19.953243,parter/3,Zapytaj,pełna własność,"balkon, taras",garaż/miejsce parkingowe,brak informacji,2019,blok,nie,brak informacji,"teren zamknięty, domofon / wideofon",brak informacji,wtórny
1,180 000 zł,"49,6 m²","bez pośredników, do remontu, centrum Biskupca",3,do remontu,Współrzędne dokładne,"ul. Stefana Żeromskiego , Biskupiec, olsztyński",53.862518,20.955801,3/3,480 zł,spółdzielcze własnościowe,balkon,Zapytaj,brak informacji,1975,blok,nie,"telewizja kablowa, telefon",domofon / wideofon,cegła,wtórny
1,230 000 zł,160 m²,Dom w cenie Mieszkania Lidzbark welski,4,do remontu,Nieruchomość znajduje się w zaznaczonym obszarze mapy. Niestety ogłoszeniodawca nie wskazał dokładnego adresu.,"Lidzbark, działdowski, warmińsko-mazurskie",53.26188,19.8233,1,Zapytaj,pełna własność,balkon,Zapytaj,brak informacji,brak informacji,dom wolnostojący,nie,brak informacji,brak informacji,pustak,wtórny
1,699 000 zł,"64,4 m²","OSIEDLE LEŚNA 2 Olsztyn 64,4 m2 Wyposażone GARAŻ",3,do zamieszkania,Współrzędne dokładne,"Olsztyn, Nad Jeziorem Długim, ul. Leśna",53.794308,20.46099,1/3,476 zł,pełna własność,"balkon, taras",garaż/miejsce parkingowe,brak informacji,2018,apartamentowiec,tak,"telewizja kablowa, internet, telefon","drzwi / okna antywłamaniowe, teren zamknięty, domofon / wideofon, monitoring / ochrona",cegła,wtórny
1,339 000 zł,36 m²,"36m2 M2 po generalnym remoncie wyposażone, Nagórki",2,do zamieszkania,Współrzędne dokładne,"Olsztyn, Nagórki, ul. Melchiora Wańkowicza",53.753402,20.494585,parter/11,250 zł,spółdzielcze własnościowe,balkon,Zapytaj,brak informacji,1990,blok,tak,telewizja kablowa,"drzwi / okna antywłamaniowe, domofon / wideofon",wielka płyta,wtórny
1,185 000 zł,"62,87 m²","Przestronne mieszkanie BEZPOŚREDNIO, 62,87 m2",3,do zamieszkania,Nieruchomość znajduje się w zaznaczonym obszarze mapy. Niestety ogłoszeniodawca nie wskazał dokładnego adresu.,"Pieniężno, braniewski, warmińsko-mazurskie",54.23698,20.12931,parter,Zapytaj,pełna własność,ogródek,garaż/miejsce parkingowe,brak informacji,brak informacji,kamienica,nie,telewizja kablowa,brak informacji,cegła,wtórny
1,415 000 zł,"51,7 m²",Trzypokojowe mieszkanie w centrum,3,do zamieszkania,Współrzędne dokładne,"Olsztyn, Pojezierze, ul. Kołobrzeska",53.779498,20.506209,2/4,617 zł,pełna własność,Zapytaj,garaż/miejsce parkingowe,brak informacji,1996,blok,nie,"telewizja kablowa, internet, telefon","teren zamknięty, domofon / wideofon, monitoring / ochrona",cegła,wtórny
1,225 000 zł,16 m²,Urządzona kawalerka w centrum Olsztyna,1,do zamieszkania,Współrzędne dokładne,"Olsztyn, Kormoran, ul. Żołnierska",53.76732,20.499704,> 10/11,300 zł,pełna własność,Zapytaj,garaż/miejsce parkingowe,brak informacji,1978,blok,tak,"telewizja kablowa, internet",brak informacji,wielka płyta,wtórny
1,274 000 zł,30 m²,Gotowa do zamieszkania kawalerka w centrum,2,do remontu,Współrzędne dokładne,"Olsztyn, Kormoran, ul. Dworcowa",53.771732,20.501358,> 10/11,300 zł,pełna własność,Zapytaj,garaż/miejsce parkingowe,brak informacji,1978,blok,tak,"telewizja kablowa, internet",brak informacji,wielka płyta,wtórny
1,420 000 zł,61 m²,2-pokojowe mieszkanie 150 metrów od jeziora,2,Zapytaj,Współrzędne dokładne,"os. Nikutowo , Mrągowo, mrągowski",53.847332,21.308162,1/2,Zapytaj,pełna własność,balkon,garaż/miejsce parkingowe,brak informacji,brak informacji,blok,nie,brak informacji,brak informacji,wielka płyta,wtórny
1,588 000 zł,"61,33 m²",Sprzedam nowocześnie wykończone mieszkanie w Ełku,3,do zamieszkania,Nieruchomość znajduje się w zaznaczonym obszarze mapy. Niestety ogłoszeniodawca nie wskazał dokładnego adresu.,"Ełk, ełcki, warmińsko-mazurskie",53.80957,22.33548,2/4,405 zł,pełna własność,balkon,garaż/miejsce parkingowe,brak informacji,2021,blok,tak,"telewizja kablowa, internet","drzwi / okna antywłamaniowe, domofon / wideofon, monitoring / ochrona",brak informacji,wtórny
1,433 800 zł,72 m²,Mieszkanie na sprzedaż 72m,4,do zamieszkania,Współrzędne dokładne,"ul. Królowej Jadwigi , Giżycko, giżycki",54.045052,21.781799,3/4,950 zł,spółdzielcze wł. z KW,balkon,Zapytaj,brak informacji,brak informacji,blok,nie,"telewizja kablowa, internet","drzwi / okna antywłamaniowe, domofon / wideofon",żelbet,wtórny
1,635 000 zł,"118,7 m²","Mieszkanie Olsztyn, ul. Kościuszki",4,do zamieszkania,Współrzędne dokładne,"Olsztyn, Kętrzyńskiego , ul. Tadeusza Kościuszki",53.781543,20.492395,1/3,500 zł,pełna własność,balkon,Zapytaj,brak informacji,1920,kamienica,nie,brak informacji,brak informacji,cegła,wtórny
1,570 000 zł,"59,02 m²","ul.Szewczenki ,3 pokoje, bez barier, winda, 2013r",3,do zamieszkania,Współrzędne dokładne,"Olsztyn, Podleśna, ul. Tarasa Szewczenki",53.79091,20.49495,2/3,580 zł,Zapytaj,balkon,garaż/miejsce parkingowe,brak informacji,2013,apartamentowiec,tak,brak informacji,"system alarmowy, domofon / wideofon",brak informacji,wtórny
1,220 000 zł,39 m²,ZAREZERWOWANE zadbane mieszkanie Ostróda Jagiełły,2,do zamieszkania,Nieruchomość znajduje się w zaznaczonym obszarze mapy. Niestety ogłoszeniodawca nie wskazał dokładnego adresu.,"Ostróda, ostródzki, warmińsko-mazurskie",53.7,19.96776,4/4,500 zł,pełna własność,balkon,Zapytaj,brak informacji,brak informacji,blok,nie,brak informacji,"drzwi / okna antywłamaniowe, domofon / wideofon",wielka płyta,wtórny
1,730 000 zł,95 m²,Sprzedam dwupoziomowe mieszkanie 95m2 na os Tuwima,5,do zamieszkania,Współrzędne dokładne,"ul. Juliana Tuwima , Ełk, ełcki",53.833098,22.332889,3/4,Zapytaj,Zapytaj,balkon,Zapytaj,brak informacji,brak informacji,blok,nie,"telewizja kablowa, internet",domofon / wideofon,brak informacji,wtórny
1,360 000 zł,67 m²,Dwupoziomowe i wyposażone w centrum Mrągowa,2,do zamieszkania,Współrzędne dokładne,"ul. Mikołaja Kopernika , Mrągowo, mrągowski",53.862749,21.307399,2/2,700 zł,pełna własność,Zapytaj,garaż/miejsce parkingowe,brak informacji,2008,kamienica,nie,"telewizja kablowa, internet, telefon",domofon / wideofon,cegła,wtórny
1,299 000 zł,"37,9 m²",2 pokoje w dobrej lokalizacji blisko park,2,do zamieszkania,Współrzędne dokładne,"Olsztyn, Pojezierze, ul. Świtezianki",53.778757,20.506973,4/4,403 zł,spółdzielcze wł. z KW,balkon,Zapytaj,brak informacji,1970,blok,nie,internet,domofon / wideofon,wielka płyta,wtórny
1,577 000 zł,68 m²,MIESZKANIE 3pokojowe+GARAŻ Do zamieszkania Zacisze,3,do zamieszkania,Nieruchomość znajduje się w zaznaczonym obszarze mapy. Niestety ogłoszeniodawca nie wskazał dokładnego adresu.,"Zacisze, Olsztyn, Olsztyn",53.77602,20.47703,2/3,550 zł,pełna własność,balkon,garaż/miejsce parkingowe,brak informacji,2010,blok,nie,"telewizja kablowa, internet","drzwi / okna antywłamaniowe, domofon / wideofon",brak informacji,wtórny
1,155 000 zł,"51,46 m²","Sprzedam Mieszkanie w Kętrzynie 51,5 m2",2,do remontu,Współrzędne dokładne,"ul. gen. Władysława Sikorskiego 72, Kętrzyn, kętrzyński",54.08149,21.359937,2,300 zł,pełna własność,Zapytaj,Zapytaj,brak informacji,brak informacji,kamienica,nie,brak informacji,brak informacji,cegła,wtórny
1,300 000 zł,52 m²,"Morąg ul. Ogrodowa, 2 pokojowe",2,do zamieszkania,Współrzędne dokładne,"ul. Ogrodowa , Morąg, ostródzki",53.913183,19.931224,1/2,Zapytaj,pełna własność,Zapytaj,Zapytaj,brak informacji,brak informacji,kamienica,nie,brak informacji,brak informacji,brak informacji,wtórny
1,1 380 000 zł,"54,2 m²",Apartament z widokiem na jezioro Niegocin Giżycko,2,do zamieszkania,Nieruchomość znajduje się w zaznaczonym obszarze mapy. Niestety ogłoszeniodawca nie wskazał dokładnego adresu.,"Giżycko, giżycki, warmińsko-mazurskie",54.03567,21.77016,1/4,Zapytaj,pełna własność,balkon,garaż/miejsce parkingowe,brak informacji,2022,apartamentowiec,tak,brak informacji,monitoring / ochrona,brak informacji,wtórny
1,289 000 zł,39 m²,Dworcowa 45 - 2 pokoje z oddzielną kuchnią,2,Zapytaj,Współrzędne dokładne,"Olsztyn, Kormoran, ul. Dworcowa",53.774036,20.501655,4/4,500 zł,spółdzielcze własnościowe,balkon,Zapytaj,brak informacji,1980,blok,nie,brak informacji,domofon / wideofon,wielka płyta,wtórny
1,500 000 zł,"37,98 m²",Kawalerka bezpośrednio Olsztyn nad Łyną garaż,1,do zamieszkania,Współrzędne dokładne,"Olsztyn, Kościuszki, Osiedle Parkowe nad Łyną ul. Kościuszki",53.772207,20.48363,1/3,Zapytaj,pełna własność,balkon,garaż/miejsce parkingowe,brak informacji,2014,apartamentowiec,tak,"telewizja kablowa, internet, telefon",domofon / wideofon,cegła,wtórny
1,345 000 zł,"47,8 m²",Sprzedam mieszkanie ul. Iwaszkiewicza,2,do zamieszkania,Współrzędne dokładne,"Olsztyn, Podgrodzie, ul. Jarosława Iwaszkiewicza",53.760988,20.471162,2/4,550 zł,pełna własność,balkon,Zapytaj,brak informacji,brak informacji,blok,nie,brak informacji,brak informacji,brak informacji,wtórny
1,467 900 zł,"93,58 m²",Atrakcyjnie położone mieszkanie we Fromborku,4,do remontu,Współrzędne dokładne,"ul. Elbląska 6, Frombork, braniewski",54.357438,19.679621,1/2,300 zł,pełna własność,taras,Zapytaj,brak informacji,1920,kamienica,nie,"internet, telefon",brak informacji,cegła,wtórny
1,468 000 zł,"63,77 m²",Okazja/Tuwima/garderoba/2 balkony,3,do zamieszkania,Współrzędne dokładne,"ul. Juliana Tuwima , Ełk, ełcki",53.833604,22.337009,3/4,526 zł,pełna własność,balkon,Zapytaj,brak informacji,2008,blok,nie,"telewizja kablowa, internet","drzwi / okna antywłamaniowe, domofon / wideofon, monitoring / ochrona",brak informacji,wtórny
1,439 000 zł,"51,6 m²",Mieszkanie z nowszych zasobów,2,do zamieszkania,Współrzędne dokładne,"ul. Legionów , Elbląg, Elbląg",54.184255,19.424166,2/3,580 zł,spółdzielcze własnościowe,balkon,Zapytaj,brak informacji,2014,blok,nie,"telewizja kablowa, internet","drzwi / okna antywłamaniowe, teren zamknięty, domofon / wideofon, monitoring / ochrona",brak informacji,wtórny
1,233 000 zł,"32,3 m²",Przytulne mieszkanie 2 pok. z widokiem,2,do remontu,Współrzędne dokładne,"Olsztyn, Pojezierze, ul. Dworcowa",53.773734,20.501364,9/11,400 zł,spółdzielcze własnościowe,Zapytaj,Zapytaj,brak informacji,brak informacji,blok,tak,brak informacji,"drzwi / okna antywłamaniowe, domofon / wideofon",wielka płyta,wtórny
1,530 000 zł,"59,07 m²","Mieszkanie, 59,07 m², Olsztyn",3,do zamieszkania,Współrzędne dokładne,"Jaroty, Olsztyn, Olsztyn",53.738409,20.49824,1/4,480 zł,pełna własność,balkon,garaż/miejsce parkingowe,brak informacji,2012,blok,tak,internet,teren zamknięty,brak informacji,wtórny
1,349 000 zł,"65,4 m²",Mieszkanie trzypokojowe sprzedaż/zamiana,3,do remontu,Nieruchomość znajduje się w zaznaczonym obszarze mapy. Niestety ogłoszeniodawca nie wskazał dokładnego adresu.,"Zatorze, Olsztyn, Olsztyn",53.803533,20.518298,1/2,310 zł,pełna własność,"balkon, ogródek",garaż/miejsce parkingowe,brak informacji,1956,blok,nie,"telewizja kablowa, internet, telefon","drzwi / okna antywłamaniowe, domofon / wideofon",cegła,wtórny
1,514 000 zł,"61,16 m²","REZERWACJA Olsztyn, Jaroty - 61,16 m2. 3 pokoje",3,do zamieszkania,Współrzędne dokładne,"Olsztyn, Jaroty, ul. Biskupa Tomasza Wilczyńskiego",53.741139,20.495435,5/5,440 zł,pełna własność,"balkon, taras",Zapytaj,brak informacji,2009,blok,tak,"telewizja kablowa, internet","domofon / wideofon, monitoring / ochrona",brak informacji,wtórny
1,389 000 zł,"47,43 m²",Funkcjonalne 2-pokojowe mieszkanie na Pieczewie,2,do zamieszkania,Współrzędne dokładne,"Olsztyn, Pieczewo, ul. Igora Sikiryckiego",53.737906,20.511562,parter/4,"583,68 zł",pełna własność,Zapytaj,Zapytaj,brak informacji,2004,blok,nie,brak informacji,monitoring / ochrona,brak informacji,wtórny
1,349 000 zł,"60,4 m²",3-pokojowe mieszkanie na Osiedlu Nagórki,3,do remontu,Współrzędne dokładne,"Olsztyn, Nagórki, ul. Mieczysława Orłowicza",53.754373,20.492032,5/11,"463,78 zł",pełna własność,balkon,Zapytaj,brak informacji,1979,blok,tak,brak informacji,brak informacji,wielka płyta,wtórny
1,259 000 zł,"38,48 m²",Klimatyczne mieszkanie na 2 piętrze w centrum.,2,do zamieszkania,Współrzędne dokładne,"Ełk, ełcki, warmińsko-mazurskie",53.827754,22.351233,2/4,"465,66 zł",pełna własność,balkon,Zapytaj,brak informacji,brak informacji,blok,nie,brak informacji,brak informacji,brak informacji,wtórny
1,480 000 zł,"36,64 m²","Mieszkanie nad jeziorem, 35m + taras 10m + komórka",2,do zamieszkania,Współrzędne dokładne,"ul. Szantowa 4, Giżycko, giżycki",54.033739,21.772504,2/4,223 zł,pełna własność,"balkon, taras",garaż/miejsce parkingowe,2023-05-28,2017,apartamentowiec,tak,"telewizja kablowa, internet","drzwi / okna antywłamaniowe, teren zamknięty, domofon / wideofon, monitoring / ochrona",silikat,wtórny
1,422 000 zł,48 m²,Francja elegancja BEZPOŚREDNIO,3,do zamieszkania,Współrzędne dokładne,"Olsztyn, Pojezierze, ul. Kołobrzeska",53.778211,20.50019,1/4,"311,42 zł",spółdzielcze własnościowe,balkon,Zapytaj,brak informacji,1969,blok,nie,"telewizja kablowa, internet","drzwi / okna antywłamaniowe, domofon / wideofon",inne,wtórny
1,350 000 zł,54 m²,Mieszkanie z potencjałem w doskonałej lokalizacji,3,do remontu,Nieruchomość znajduje się w zaznaczonym obszarze mapy. Niestety ogłoszeniodawca nie wskazał dokładnego adresu.,"Elbląg, Elbląg, warmińsko-mazurskie",54.166955,19.413815,parter/10,560 zł,pełna własność,Zapytaj,Zapytaj,brak informacji,1970,blok,tak,brak informacji,brak informacji,brak informacji,wtórny
1,549 000 zł,"87,9 m²",Dwupoziomowe mieszkanie na Starym Mieście w Elbląg,3,Zapytaj,Współrzędne dokładne,"ul. Rzeźnicka , Elbląg, Elbląg",54.158483,19.39685,3/3,Zapytaj,Zapytaj,balkon,Zapytaj,brak informacji,2010,kamienica,nie,brak informacji,domofon / wideofon,brak informacji,wtórny
1,359 000 zł,"56,9 m²","Pasłęk, ul. Ogrodowa, I piętro, klatka środkowa",3,do zamieszkania,Współrzędne dokładne,"ul. Ogrodowa , Pasłęk, elbląski",54.057808,19.66784,1/4,Zapytaj,spółdzielcze własnościowe,balkon,Zapytaj,brak informacji,brak informacji,blok,nie,"telewizja kablowa, telefon",domofon / wideofon,wielka płyta,wtórny
1,395 000 zł,"60,36 m²","BEZPOŚREDNIO; 3 pokoje 60m2; Podgrodzie, Korczaka",3,do zamieszkania,Współrzędne dokładne,"Olsztyn, Podgrodzie, ul. Janusza Korczaka",53.768575,20.474193,4/4,Zapytaj,spółdzielcze wł. z KW,balkon,Zapytaj,brak informacji,brak informacji,blok,nie,brak informacji,brak informacji,wielka płyta,wtórny
1,589 000 zł,85 m²,"Mieszkanie dwupoziomowe, 2 balkony, garaż. CENTRUM",4,do zamieszkania,Współrzędne dokładne,"ul. Racławicka , Ostróda, ostródzki",53.693484,19.956327,1/2,Zapytaj,pełna własność,balkon,garaż/miejsce parkingowe,brak informacji,2016,blok,nie,"telewizja kablowa, internet",domofon / wideofon,pustak,wtórny
1,315 000 zł,47 m²,3 pokojowe Mieszkanie po generalnym remoncie 47m2,3,do zamieszkania,Współrzędne dokładne,"os. Osiedle Słoneczne , Barczewo, olsztyński",53.835349,20.692896,3/4,530 zł,pełna własność,balkon,Zapytaj,brak informacji,1978,blok,nie,"telewizja kablowa, internet, telefon","drzwi / okna antywłamaniowe, domofon / wideofon",cegła,wtórny
1,300 000 zł,"60,6 m²",Sprzedam mieszkanie w Kętrzynie,3,do zamieszkania,Współrzędne dokładne,"ul. Królowej Jadwigi 9, Kętrzyn, kętrzyński",54.0788,21.37029,4/4,650 zł,spółdzielcze własnościowe,balkon,Zapytaj,brak informacji,brak informacji,blok,nie,brak informacji,domofon / wideofon,wielka płyta,wtórny
1,520 000 zł,"67,05 m²",Sprzedam mieszkanie lub zamienię na dom,3,do zamieszkania,Współrzędne dokładne,"ul. Kardynała Stefana Wyszyńskiego , Iława, iławski",53.589145,19.570619,2/3,600 zł,pełna własność,balkon,Zapytaj,brak informacji,2016,blok,tak,"telewizja kablowa, internet","domofon / wideofon, monitoring / ochrona",pustak,wtórny
1,566 440 zł,"66,64 m²",Mieszkanie os. Nikutowo 1A,3,do zamieszkania,Współrzędne dokładne,"os. Nikutowo , Mrągowo, mrągowski",53.848542,21.306955,1/3,630 zł,pełna własność,balkon,garaż/miejsce parkingowe,brak informacji,2022,blok,tak,"telewizja kablowa, internet",domofon / wideofon,pustak,wtórny
1,225 000 zł,"44,24 m²",Ciekawe mieszkanie dwupokojowe,2,Zapytaj,Współrzędne dokładne,"Olsztyn, Zatorze, ul. Gdańska",53.792768,20.491135,1/2,700 zł,pełna własność,Zapytaj,Zapytaj,brak informacji,brak informacji,blok,nie,brak informacji,brak informacji,cegła,wtórny
1,280 000 zł,56 m²,Zadbane 4-pokojowe mieszkanie w bloku,4,do zamieszkania,Nieruchomość znajduje się w zaznaczonym obszarze mapy. Niestety ogłoszeniodawca nie wskazał dokładnego adresu.,"Kętrzyn, kętrzyński, warmińsko-mazurskie",54.0788,21.37029,3/4,500 zł,pełna własność,balkon,Zapytaj,brak informacji,1975,blok,nie,"telewizja kablowa, internet","drzwi / okna antywłamaniowe, domofon / wideofon",wielka płyta,wtórny
1,249 000 zł,"44,63 m²",przestronne mieszkanie 45m2 - ul. Kasprowicza 22,2,do zamieszkania,Współrzędne dokładne,"ul. Kasprowicza , Olecko, olecki",54.03233,22.50469,3/3,Zapytaj,Zapytaj,balkon,Zapytaj,brak informacji,brak informacji,brak informacji,nie,brak informacji,brak informacji,brak informacji,wtórny
1,219 000 zł,"41,74 m²",Mieszkanie w centrum Barczewa,3,do remontu,Współrzędne dokładne,"ul. Adama Mickiewicza , Barczewo, olsztyński",53.828136,20.690185,1/3,Zapytaj,pełna własność,Zapytaj,Zapytaj,brak informacji,brak informacji,kamienica,nie,brak informacji,brak informacji,cegła,wtórny
1,297 000 zł,38 m²,Mieszkanie 2-pokojowe przy ul. Władysława IV,2,do zamieszkania,Współrzędne dokładne,"ul. Władysława IV , Elbląg, Elbląg",54.166955,19.413815,8/10,400 zł,pełna własność,balkon,Zapytaj,2023-06-30,brak informacji,blok,tak,"telewizja kablowa, internet, telefon","domofon / wideofon, monitoring / ochrona",wielka płyta,wtórny
1,359 000 zł,60 m²,Czteropokojowe mieszkanie,4,Zapytaj,Współrzędne dokładne,"ul. Jana Matejki , Elbląg, Elbląg",54.179769,19.402311,2/4,680 zł,pełna własność,balkon,Zapytaj,2023-04-18,1,blok,nie,"telewizja kablowa, internet",domofon / wideofon,brak informacji,wtórny
1,260 000 zł,"40,8 m²",Mieszkanie 2-pokojowe przy ul. Kościuszki,2,do zamieszkania,Współrzędne dokładne,"ul. Tadeusza Kościuszki , Elbląg, Elbląg",54.169017,19.424382,3/10,515 zł,pełna własność,balkon,Zapytaj,brak informacji,brak informacji,blok,tak,"telewizja kablowa, internet, telefon",domofon / wideofon,wielka płyta,wtórny
1,148 000 zł,41 m²,Mieszkanie w dobrej cenie !!!,2,Zapytaj,Współrzędne dokładne,"Elbląg, Elbląg, warmińsko-mazurskie",54.174775,19.394056,Zapytaj,Zapytaj,Zapytaj,Zapytaj,Zapytaj,brak informacji,brak informacji,brak informacji,nie,brak informacji,brak informacji,brak informacji,wtórny
1,219 000 zł,"36,1 m²","Dwa pokoje, II piętro, ogródek, ul. Kościuszki",2,Zapytaj,Współrzędne dokładne,"ul. Tadeusza Kościuszki , Elbląg, Elbląg",54.174623,19.396138,2/2,470 zł,pełna własność,ogródek,Zapytaj,brak informacji,1,kamienica,nie,brak informacji,brak informacji,brak informacji,wtórny
1,369 000 zł,"60,4 m²",Barcza 5 - 3 pokoje z pięknym widokiem + parking,3,Zapytaj,Współrzędne dokładne,"Olsztyn, Nagórki, ul. Franciszka Barcza",53.75125,20.500071,7/10,540 zł,pełna własność,balkon,Zapytaj,brak informacji,1980,blok,tak,internet,domofon / wideofon,wielka płyta,wtórny
1,359 000 zł,"59,5 m²",Przestronne mieszkanie na osiedlu Pieczewo,3,do zamieszkania,Współrzędne dokładne,"ul. Wincentego Witosa , Olsztyn, Olsztyn",53.736607,20.507687,4/4,Zapytaj,pełna własność,balkon,garaż/miejsce parkingowe,brak informacji,1995,blok,nie,brak informacji,brak informacji,cegła,wtórny
1,359 000 zł,"47,9 m²",Dwupokojowe mieszkanie w centrum,2,do remontu,Współrzędne dokładne,"ul. Bartosza Głowackiego , Olsztyn, Olsztyn",53.77698,20.489354,2/4,530 zł,pełna własność,balkon,Zapytaj,brak informacji,1974,blok,nie,brak informacji,brak informacji,cegła,wtórny
1,298 000 zł,63 m²,Mieszkanie z potencjałem w atrakcyjnej lokalizacji,3,do remontu,Nieruchomość znajduje się w zaznaczonym obszarze mapy. Niestety ogłoszeniodawca nie wskazał dokładnego adresu.,"Ełk, ełcki, warmińsko-mazurskie",53.80957,22.33548,3/3,560 zł,pełna własność,Zapytaj,Zapytaj,brak informacji,brak informacji,brak informacji,nie,brak informacji,brak informacji,brak informacji,wtórny
1,695 000 zł,68 m²,Mieszkanie 3 pokojowe Belwerder Popiełuszki,3,do zamieszkania,Współrzędne dokładne,"Olsztyn, Jaroty, ul. ks. Jerzego Popiełuszki 6",53.736395,20.478665,2/3,500 zł,pełna własność,balkon,Zapytaj,brak informacji,2008,blok,nie,internet,"drzwi / okna antywłamaniowe, domofon / wideofon, monitoring / ochrona",brak informacji,wtórny
1,355 000 zł,40 m²,Mieszkanie dwa pokoje z kuchnią,2,do zamieszkania,Nieruchomość znajduje się w zaznaczonym obszarze mapy. Niestety ogłoszeniodawca nie wskazał dokładnego adresu.,"Jaroty, Olsztyn, Olsztyn",53.7407,20.49809,2/4,197 zł,pełna własność,balkon,Zapytaj,brak informacji,2022,blok,tak,"telewizja kablowa, internet, telefon","drzwi / okna antywłamaniowe, domofon / wideofon",cegła,wtórny
1,140 000 zł,37 m²,"Mieszkanie, 37 m², Giżycko",2,do zamieszkania,Współrzędne dokładne,"ul. Białostocka 55, Giżycko, giżycki",54.029932,21.793262,1/1,Zapytaj,pełna własność,Zapytaj,Zapytaj,brak informacji,1940,kamienica,nie,internet,teren zamknięty,cegła,wtórny
1,279 000 zł,"46,62 m²",Rozkładowe kameralne mieszkanie Lubawa,3,Zapytaj,Współrzędne dokładne,"Lubawa, iławski, warmińsko-mazurskie",53.50316,19.75203,3/3,Zapytaj,pełna własność,balkon,Zapytaj,2023-06-15,2012,blok,nie,brak informacji,domofon / wideofon,cegła,wtórny
1,210 000 zł,"62,2 m²","3 pokoje -Nowe Miasto Lub -62,2m2 NOWA CENA!!!",3,do zamieszkania,Współrzędne dokładne,"ul. Kasztanowa , Nowe Miasto Lubawskie, nowomiejski",53.419968,19.597026,2/3,700 zł,pełna własność,balkon,Zapytaj,brak informacji,1980,blok,nie,"telewizja kablowa, internet, telefon",domofon / wideofon,cegła,wtórny
1,529 000 zł,"60,39 m²","Trzypokojowe mieszkanie, gotowe do wprowadzenia.",3,do zamieszkania,Nieruchomość znajduje się w zaznaczonym obszarze mapy. Niestety ogłoszeniodawca nie wskazał dokładnego adresu.,"Jaroty, Olsztyn, Olsztyn",53.7407,20.49809,parter/4,Zapytaj,pełna własność,balkon,Zapytaj,brak informacji,2019,blok,tak,brak informacji,brak informacji,silikat,wtórny
1,699 000 zł,"81,16 m²","3 pokoje, III piętro, z balkonem, dwupoziomowe",3,do zamieszkania,Współrzędne dokładne,"ul. Rzeźnicka , Elbląg, Elbląg",54.158483,19.39685,3/3,1 000 zł,pełna własność,balkon,Zapytaj,2023-05-03,2010,brak informacji,nie,"telewizja kablowa, internet","drzwi / okna antywłamaniowe, domofon / wideofon",brak informacji,wtórny
1,89 000 zł,40 m²,Dwupokojowe mieszkanie do remontu,2,do remontu,Współrzędne dokładne,"ul. Bohaterów Warszawy , Bartoszyce, bartoszycki",54.248714,20.809647,3/3,Zapytaj,pełna własność,Zapytaj,Zapytaj,brak informacji,brak informacji,kamienica,nie,brak informacji,brak informacji,cegła,wtórny
1,295 000 zł,"45,5 m²","Dadaj, umeblowane mieszkanie dwupokojowe 45,5 m2",2,do zamieszkania,Współrzędne dokładne,"Dadaj, olsztyński, warmińsko-mazurskie",53.854824,20.853006,3/3,400 zł,pełna własność,balkon,garaż/miejsce parkingowe,brak informacji,2004,apartamentowiec,nie,brak informacji,brak informacji,cegła,wtórny
1,342 900 zł,49 m²,Mieszkanie w centrum na parterze Gotowe do wejścia,2,do zamieszkania,Współrzędne dokładne,"Ełk, Centrum, ul. Elizy Orzeszkowej",53.824631,22.35317,parter/4,490 zł,pełna własność,balkon,Zapytaj,brak informacji,brak informacji,blok,nie,"telewizja kablowa, internet","drzwi / okna antywłamaniowe, domofon / wideofon",brak informacji,wtórny
1,360 000 zł,"54,87 m²",Niewielkie mieszkanie w centrum Ełku,2,do zamieszkania,Współrzędne dokładne,"ul. Wojska Polskiego , Ełk, ełcki",53.82245,22.34558,1/3,Zapytaj,pełna własność,Zapytaj,Zapytaj,brak informacji,brak informacji,brak informacji,nie,brak informacji,brak informacji,brak informacji,wtórny
1,290 000 zł,"53,7 m²",Mieszkanie na sprzedaż na Konieczkach,2,do zamieszkania,Współrzędne dokładne,"ul. gen. Grota-Roweckiego , Ełk, ełcki",53.83554,22.35843,4/4,425 zł,pełna własność,balkon,Zapytaj,brak informacji,1988,brak informacji,nie,brak informacji,brak informacji,brak informacji,wtórny
1,345 000 zł,56 m²,Mieszkanie rozkładowe Braniewo 3- pokoje,3,do zamieszkania,Współrzędne dokładne,"ul. 9 Maja , Braniewo, braniewski",54.386874,19.827721,1/2,500 zł,spółdzielcze wł. z KW,balkon,garaż/miejsce parkingowe,brak informacji,1976,blok,nie,"telewizja kablowa, internet","drzwi / okna antywłamaniowe, teren zamknięty",beton,wtórny
1,650 000 zł,78 m²,Mieszkanie ul.Oliwska,3,do zamieszkania,Współrzędne dokładne,"Elbląg, Elbląg, warmińsko-mazurskie",54.167474,19.418695,parter/2,1 100 zł,pełna własność,"balkon, ogródek, taras",garaż/miejsce parkingowe,brak informacji,2012,blok,nie,"telewizja kablowa, internet","drzwi / okna antywłamaniowe, domofon / wideofon",beton komórkowy,wtórny
1,450 000 zł,"45,85 m²",Stylowy apartament w nowym budownictwie,2,do zamieszkania,Współrzędne dokładne,"Olsztyn, Jaroty, ul. Kazimierza Jaroszyka",53.740958,20.491784,3/7,430 zł,pełna własność,balkon,garaż/miejsce parkingowe,brak informacji,2019,blok,tak,internet,"teren zamknięty, domofon / wideofon, monitoring / ochrona",brak informacji,wtórny
1,210 000 zł,"64,44 m²","Mieszkanie w Szymbarku z garażem, ogrzw.""miejskie""",3,do zamieszkania,Nieruchomość znajduje się w zaznaczonym obszarze mapy. Niestety ogłoszeniodawca nie wskazał dokładnego adresu.,"Iława, iławski, warmińsko-mazurskie",53.5937,19.57128,1/2,"586,41 zł",pełna własność,balkon,garaż/miejsce parkingowe,brak informacji,brak informacji,blok,nie,"internet, telefon",drzwi / okna antywłamaniowe,brak informacji,wtórny
1,840 000 zł,"72,02 m²","Mieszkanie Olsztyn, Armii Krajowej 72m2, Zobacz!",3,do zamieszkania,Współrzędne dokładne,"Olsztyn, Osiedle Grunwaldzkie, ul. Armii Krajowej",53.769199,20.459072,7/7,Zapytaj,pełna własność,balkon,garaż/miejsce parkingowe,brak informacji,2015,apartamentowiec,tak,"telewizja kablowa, internet","teren zamknięty, domofon / wideofon",brak informacji,wtórny
1,499 000 zł,72 m²,SPRZEDAM mieszkanie M-4 72 m2 GIŻYCKO Jadwigi,4,do zamieszkania,Współrzędne dokładne,"ul. Królowej Jadwigi , Giżycko, giżycki",54.041524,21.783172,3/5,811 zł,pełna własność,balkon,Zapytaj,brak informacji,brak informacji,blok,nie,"telewizja kablowa, internet, telefon",domofon / wideofon,pustak,wtórny
1,169 000 zł,"35,8 m²","* Olecko, ul. Aleja Zwycięstwa - 36m2, 2 pokoje *",2,Zapytaj,Współrzędne dokładne,"ul. Aleja Zwycięstwa , Olecko, olecki",54.02938,22.50582,3/4,Zapytaj,Zapytaj,Zapytaj,Zapytaj,brak informacji,brak informacji,brak informacji,nie,brak informacji,brak informacji,brak informacji,wtórny
1,529 000 zł,"62,73 m²","Mieszkanie na parterze 3 pokojowe, ul. Szewczenki",3,do zamieszkania,Współrzędne dokładne,"ul. Tarasa Szewczenki , Olsztyn, Olsztyn",53.79129,20.49434,parter/3,500 zł,pełna własność,balkon,garaż/miejsce parkingowe,brak informacji,brak informacji,blok,tak,brak informacji,domofon / wideofon,brak informacji,wtórny
1,429 000 zł,62 m²,Mieszkanie 3-pokojowe w Elblągu / za Politechniką,3,do zamieszkania,Współrzędne dokładne,"ul. Artura Grottgera , Elbląg, Elbląg",54.151194,19.436533,1/4,900 zł,pełna własność,balkon,Zapytaj,brak informacji,1996,blok,nie,"telewizja kablowa, internet, telefon","system alarmowy, domofon / wideofon",inne,wtórny
1,269 000 zł,77 m²,Bezczynszowe mieszkanie w gminie Barczewo,4,do zamieszkania,Współrzędne dokładne,"Niedźwiedź , Niedźwiedź, olsztyński",53.8431,20.8196,2/2,Zapytaj,pełna własność,"balkon, ogródek",Zapytaj,brak informacji,1970,dom wolnostojący,nie,brak informacji,brak informacji,cegła,wtórny
1,470 000 zł,"98,36 m²","Mieszkanie na parterze o pow. użytkowej 98,36 m2",3,do zamieszkania,Nieruchomość znajduje się w zaznaczonym obszarze mapy. Niestety ogłoszeniodawca nie wskazał dokładnego adresu.,"Giżycko, giżycki, warmińsko-mazurskie",54.041948,21.777092,parter/1,646 zł,pełna własność,taras,garaż/miejsce parkingowe,brak informacji,1994,blok,nie,"telewizja kablowa, internet, telefon",brak informacji,beton komórkowy,wtórny
1,580 000 zł,117 m²,Lokal mieszkalny o pow. użytkowej 117m2,3,do zamieszkania,Współrzędne dokładne,"ul. Daszyńskiego , Giżycko, giżycki",54.041948,21.777092,parter/2,769 zł,pełna własność,"balkon, taras",garaż/miejsce parkingowe,brak informacji,brak informacji,blok,nie,"telewizja kablowa, internet, telefon","drzwi / okna antywłamaniowe, domofon / wideofon",wielka płyta,wtórny
1,470 000 zł,"81,1 m²","Mieszkanie, 3 duże pokoje, 81 m2",3,do zamieszkania,Współrzędne dokładne,"ul. Klasztorna , Olsztyn, Olsztyn",53.7844,20.486,1/3,260 zł,pełna własność,Zapytaj,Zapytaj,brak informacji,1930,brak informacji,nie,brak informacji,brak informacji,brak informacji,wtórny
1,210 000 zł,"54,8 m²",Mieszkanie w Nidzicy przy ul. Traugutta,3,do remontu,Nieruchomość znajduje się w zaznaczonym obszarze mapy. Niestety ogłoszeniodawca nie wskazał dokładnego adresu.,"Nidzica, nidzicki, warmińsko-mazurskie",53.36006,20.42701,1,Zapytaj,pełna własność,Zapytaj,Zapytaj,brak informacji,brak informacji,blok,nie,"telewizja kablowa, internet",brak informacji,cegła,wtórny
1,379 000 zł,"48,1 m²","2 pokoje, Olsztyn Jaroty, po remoncie",2,do zamieszkania,Współrzędne dokładne,"ul. Biskupa Tomasza Wilczyńskiego , Olsztyn, Olsztyn",53.741238,20.502066,4/5,566 zł,spółdzielcze własnościowe,balkon,Zapytaj,brak informacji,1980,blok,nie,"telewizja kablowa, internet, telefon","drzwi / okna antywłamaniowe, domofon / wideofon",pustak,wtórny
1,195 000 zł,90 m²,Sprzedam mieszkanie z ogródkiem,3,Zapytaj,Nieruchomość znajduje się w zaznaczonym obszarze mapy. Niestety ogłoszeniodawca nie wskazał dokładnego adresu.,"Miłomłyn, ostródzki, warmińsko-mazurskie",53.764884,19.834311,parter/2,Zapytaj,pełna własność,Zapytaj,Zapytaj,brak informacji,brak informacji,blok,nie,brak informacji,brak informacji,brak informacji,wtórny
1,345 000 zł,"67,19 m²",Przytulne mieszkanie 3 pokoje 62m2parter ul.Asnyka,3,do zamieszkania,Nieruchomość znajduje się w zaznaczonym obszarze mapy. Niestety ogłoszeniodawca nie wskazał dokładnego adresu.,"Iława, iławski, warmińsko-mazurskie",53.5937,19.57128,parter/4,700 zł,pełna własność,balkon,Zapytaj,brak informacji,brak informacji,blok,nie,"telewizja kablowa, internet",domofon / wideofon,wielka płyta,wtórny
1,365 000 zł,"45,6 m²",Mieszkanie Na Start - Jagiellońska !,2,Zapytaj,Współrzędne dokładne,"Olsztyn, Zatorze, ul. Jagiellońska",53.790327,20.491312,2/3,417 zł,pełna własność,balkon,Zapytaj,brak informacji,1956,blok,nie,brak informacji,brak informacji,cegła,wtórny
1,389 000 zł,"81,7 m²","Ustawne 4 pokoje dla rodziny, pow. 87,70 m2",4,do zamieszkania,Współrzędne dokładne,"ul. Gdańska , Ełk, ełcki",53.826758,22.354388,3/4,Zapytaj,pełna własność,balkon,Zapytaj,brak informacji,brak informacji,blok,nie,brak informacji,monitoring / ochrona,brak informacji,wtórny
1,120 000 zł,"48,3 m²",Rozkładowe mieszkanie na parterze w Dublinach bezc,2,do zamieszkania,Nieruchomość znajduje się w zaznaczonym obszarze mapy. Niestety ogłoszeniodawca nie wskazał dokładnego adresu.,"Dubliny, kętrzyński, warmińsko-mazurskie",54.1424,21.27366,parter/1,Zapytaj,pełna własność,ogródek,Zapytaj,brak informacji,1980,blok,nie,internet,drzwi / okna antywłamaniowe,wielka płyta,wtórny
1,95 000 zł,"48,52 m²",Przestronne mieszkanie na poddaszu,4,do zamieszkania,Nieruchomość znajduje się w zaznaczonym obszarze mapy. Niestety ogłoszeniodawca nie wskazał dokładnego adresu.,"Korsze, kętrzyński, warmińsko-mazurskie",54.1729,21.14273,poddasze/2,Zapytaj,pełna własność,Zapytaj,Zapytaj,brak informacji,1920,kamienica,nie,internet,brak informacji,cegła,wtórny
1,220 000 zł,50 m²,"Działdowo, Rydygiera mieszkanie 50,5 m2",2,Zapytaj,Współrzędne dokładne,"ul. Ludwika Rydygiera , Działdowo, działdowski",53.245013,20.191521,4,Zapytaj,Zapytaj,Zapytaj,Zapytaj,brak informacji,brak informacji,brak informacji,nie,brak informacji,brak informacji,brak informacji,wtórny
1,710 000 zł,"83,17 m²",Luksusowe mieszkanie w ELBLĄGU,4,do zamieszkania,Współrzędne dokładne,"al. Grunwaldzka , Elbląg, Elbląg",54.149636,19.426957,3/3,720 zł,pełna własność,balkon,Zapytaj,brak informacji,2012,blok,tak,"telewizja kablowa, internet, telefon","teren zamknięty, domofon / wideofon",pustak,wtórny
1,399 000 zł,"60,4 m²","Mieszkanie 3 pokoje, os. Jaroty, Olsztyn",3,do zamieszkania,Współrzędne dokładne,"ul. Stanisława Murzynowskiego , Olsztyn, Olsztyn",53.755287,20.50094,3/10,Zapytaj,Zapytaj,Zapytaj,Zapytaj,brak informacji,brak informacji,brak informacji,nie,brak informacji,brak informacji,brak informacji,wtórny
1,355 000 zł,62 m²,***3pokoje/Elbląg/Centrum miasta***,3,do zamieszkania,Nieruchomość znajduje się w zaznaczonym obszarze mapy. Niestety ogłoszeniodawca nie wskazał dokładnego adresu.,"Elbląg, Elbląg, warmińsko-mazurskie",54.156951,19.404537,Zapytaj,Zapytaj,Zapytaj,Zapytaj,Zapytaj,brak informacji,1992,brak informacji,nie,brak informacji,brak informacji,brak informacji,wtórny
1,279 000 zł,"37,3 m²",Mieszkanie 2-pokojowe przy ul. Grunwaldzkiej,2,do zamieszkania,Nieruchomość znajduje się w zaznaczonym obszarze mapy. Niestety ogłoszeniodawca nie wskazał dokładnego adresu.,"Elbląg, Elbląg, warmińsko-mazurskie",54.17079,19.40479,7/10,290 zł,pełna własność,balkon,Zapytaj,2023-05-04,brak informacji,blok,tak,"telewizja kablowa, internet, telefon",domofon / wideofon,wielka płyta,wtórny
1,289 000 zł,"31,12 m²","Kawalerka, 31 m2, duży balkon, nowe budownictwo",1,do zamieszkania,Współrzędne dokładne,"ul. Mieczysława Pimpickiego , Olsztyn, Olsztyn",53.730557,20.489668,2/4,320 zł,pełna własność,balkon,garaż/miejsce parkingowe,brak informacji,2011,blok,tak,brak informacji,domofon / wideofon,brak informacji,wtórny
1,349 000 zł,57 m²,"4 pokoje, po remoncie, do własnej aranżacji",4,do wykończenia,Współrzędne dokładne,"Olsztyn, Pojezierze, ul. Westerplatte",53.779371,20.49626,parter/4,400 zł,spółdzielcze własnościowe,Zapytaj,Zapytaj,brak informacji,1967,blok,nie,brak informacji,domofon / wideofon,brak informacji,wtórny
1,339 000 zł,"46,4 m²","Olsztyn, Wojska Polskiego, ul. Gietkowska",2,do zamieszkania,Współrzędne dokładne,"Olsztyn, Śródmieście, ul. Gietkowska",53.779516,20.475165,2/2,Zapytaj,pełna własność,Zapytaj,Zapytaj,brak informacji,1953,blok,nie,brak informacji,brak informacji,cegła,wtórny
1,275 000 zł,47 m²,Mieszkanie w centrum Iławy. 3 pokoje + balkon,3,do zamieszkania,Współrzędne dokładne,"ul. Ludwika Mierosławskiego , Iława, iławski",53.596964,19.558309,4/4,Zapytaj,pełna własność,Zapytaj,Zapytaj,brak informacji,1970,blok,nie,brak informacji,brak informacji,brak informacji,wtórny
1,92 184 zł,"50,84 m²","Syndyk sprzeda udział 1/2 w mieszkaniu, Ostróda",2,do zamieszkania,Współrzędne dokładne,"ul. Zawiszy Czarnego , Ostróda, ostródzki",53.689887,19.973825,4,Zapytaj,udział,balkon,Zapytaj,brak informacji,brak informacji,blok,nie,brak informacji,domofon / wideofon,brak informacji,wtórny
1,49 420 zł,"63,8 m²",Syndyk sprzeda udział 1/6 w lokalu mieszkalnym,3,do zamieszkania,Nieruchomość znajduje się w zaznaczonym obszarze mapy. Niestety ogłoszeniodawca nie wskazał dokładnego adresu.,"Elbląg, Elbląg, warmińsko-mazurskie",54.17079,19.40479,7/10,Zapytaj,udział,balkon,Zapytaj,brak informacji,1979,blok,tak,brak informacji,domofon / wideofon,brak informacji,wtórny
1,485 000 zł,49 m²,Dwupokojowe mieszkanie Osiedle Leśna,2,do zamieszkania,Nieruchomość znajduje się w zaznaczonym obszarze mapy. Niestety ogłoszeniodawca nie wskazał dokładnego adresu.,"Olsztyn, Olsztyn, warmińsko-mazurskie",53.77602,20.47703,parter/5,Zapytaj,Zapytaj,balkon,Zapytaj,brak informacji,2010,apartamentowiec,tak,brak informacji,brak informacji,brak informacji,wtórny
1,495 000 zł,58 m²,Piękne 4 Pokojowe Mieszkanie Parter Ul.Bartąska128,4,do zamieszkania,Współrzędne dokładne,"Jaroty, Olsztyn, Olsztyn",53.727589,20.473387,parter/4,417 zł,Zapytaj,balkon,Zapytaj,brak informacji,2018,blok,tak,brak informacji,brak informacji,brak informacji,wtórny
1,439 000 zł,"59,6 m²","Trzy pokoje, gotowe do wprowadzenia, II piętro",3,Zapytaj,Współrzędne dokładne,"ul. Władysława Broniewskiego , Elbląg, Elbląg",54.186442,19.420039,2/2,900 zł,pełna własność,balkon,Zapytaj,2023-05-31,1,blok,nie,"telewizja kablowa, internet","drzwi / okna antywłamaniowe, domofon / wideofon",brak informacji,wtórny
1,369 000 zł,60 m²,Atrakcyjne 60 m2 na Pieczewie,3,do zamieszkania,Nieruchomość znajduje się w zaznaczonym obszarze mapy. Niestety ogłoszeniodawca nie wskazał dokładnego adresu.,"Pieczewo, Olsztyn, Olsztyn",53.74357,20.5142,1/4,Zapytaj,spółdzielcze wł. z KW,balkon,Zapytaj,brak informacji,brak informacji,blok,nie,"telewizja kablowa, internet","drzwi / okna antywłamaniowe, domofon / wideofon",brak informacji,wtórny
1,390 000 zł,60 m²,"3 pokoje (60 m) ul. Młynowa, Mrągowo",3,do zamieszkania,Współrzędne dokładne,"ul. Młynowa , Mrągowo, mrągowski",53.881147,21.305524,1/3,500 zł,spółdzielcze własnościowe,balkon,Zapytaj,brak informacji,1987,blok,nie,brak informacji,domofon / wideofon,inne,wtórny
1,420 000 zł,"57,93 m²",Piękne 2 pokoje w centrum,2,Zapytaj,Współrzędne dokładne,"ul. Mikołaja Kopernika , Pisz, piski",53.63038,21.80841,1/3,Zapytaj,Zapytaj,Zapytaj,Zapytaj,brak informacji,1900,kamienica,nie,internet,brak informacji,cegła,wtórny
1,317 000 zł,"48,83 m²",Mieszkanie z nowszych zasobów !!! 0% PROWIZJI !!!,2,Zapytaj,Współrzędne dokładne,"Elbląg, Elbląg, warmińsko-mazurskie",54.183908,19.409124,Zapytaj,Zapytaj,Zapytaj,Zapytaj,Zapytaj,brak informacji,brak informacji,brak informacji,nie,brak informacji,brak informacji,brak informacji,wtórny
1,419 000 zł,"60,4 m²",Mieszkanie 60m2 3 pokoje Dobre Miasto Grudziądzka,3,do zamieszkania,Współrzędne dokładne,"ul. Grudziądzka , Dobre Miasto, olsztyński",53.981763,20.38959,parter/4,Zapytaj,spółdzielcze wł. z KW,balkon,Zapytaj,brak informacji,brak informacji,blok,nie,brak informacji,drzwi / okna antywłamaniowe,brak informacji,wtórny
1,729 000 zł,95 m²,Mieszkanie Olsztyn Jaroty,3,do zamieszkania,Współrzędne dokładne,"Olsztyn, Jaroty, ul. Majora Jana Piwnika",53.77916,20.458469,1/1,Zapytaj,pełna własność,balkon,Zapytaj,brak informacji,2021,szeregowiec,nie,"telewizja kablowa, internet","teren zamknięty, domofon / wideofon",beton komórkowy,wtórny
1,314 000 zł,"47,5 m²",Mieszkanie Olsztyn Ul. Żurawskiego,2,Zapytaj,Współrzędne dokładne,"Olsztyn, Pieczewo, ul. Stanisława Żurawskiego",53.741956,20.515642,3/4,Zapytaj,pełna własność,balkon,Zapytaj,brak informacji,1978,blok,nie,brak informacji,brak informacji,wielka płyta,wtórny
1,310 000 zł,"60,4 m²",Mieszkanie Olsztyn Nagórki 3-pokojowe,3,do remontu,Współrzędne dokładne,"Olsztyn, Nagórki, ul. Mieczysława Orłowicza",53.754864,20.493036,9/11,830 zł,spółdzielcze wł. z KW,balkon,Zapytaj,brak informacji,1982,blok,tak,"telewizja kablowa, internet, telefon",domofon / wideofon,wielka płyta,wtórny
1,640 000 zł,"97,5 m²",Dwupoziomowe mieszkanie z balkonem do negocjacji !,4,do zamieszkania,Współrzędne dokładne,"ul. Piastowska , Ostróda, ostródzki",53.69064,19.975461,3/3,300 zł,Zapytaj,balkon,Zapytaj,brak informacji,brak informacji,blok,nie,"telewizja kablowa, internet","drzwi / okna antywłamaniowe, domofon / wideofon",pustak,wtórny
1,409 000 zł,"72,17 m²",Klimatyczne mieszkanie w ładnej kamienicy,3,do zamieszkania,Współrzędne dokładne,"Olsztyn, Zatorze, ul. Marii Zientary-Malewskiej",53.785227,20.491933,4/4,260 zł,pełna własność,Zapytaj,garaż/miejsce parkingowe,brak informacji,1913,kamienica,nie,brak informacji,brak informacji,cegła,wtórny
1,1 215 000 zł,53 m²,LUKSUSOWY apartament nad samym jeziorem,3,do zamieszkania,Nieruchomość znajduje się w zaznaczonym obszarze mapy. Niestety ogłoszeniodawca nie wskazał dokładnego adresu.,"Mikołajki, mrągowski, warmińsko-mazurskie",53.8033,21.57467,parter/4,600 zł,pełna własność,balkon,garaż/miejsce parkingowe,brak informacji,2021,apartamentowiec,tak,internet,domofon / wideofon,inne,wtórny
1,119 000 zł,"45,02 m²",Bezczynszowe / 2 pokoje / ul. Pieniężnego / parter,2,do remontu,Współrzędne dokładne,"ul. Pieniężnego , Bartoszyce, bartoszycki",54.251666,20.822985,parter/1,Zapytaj,pełna własność,Zapytaj,garaż/miejsce parkingowe,brak informacji,brak informacji,kamienica,nie,brak informacji,brak informacji,cegła,wtórny
1,200 000 zł,34 m²,Mieszkanie na Mazurach,2,do zamieszkania,Nieruchomość znajduje się w zaznaczonym obszarze mapy. Niestety ogłoszeniodawca nie wskazał dokładnego adresu.,"Kętrzyn, kętrzyński, warmińsko-mazurskie",54.0788,21.37029,1/1,280 zł,pełna własność,Zapytaj,garaż/miejsce parkingowe,brak informacji,brak informacji,brak informacji,nie,"telewizja kablowa, internet","teren zamknięty, domofon / wideofon",cegła,wtórny
1,395 000 zł,52 m²,Mieszkanie z piwnicą + garaż BEZPOŚREDNIO Olsztyn,2,do zamieszkania,Współrzędne dokładne,"ul. Dywizjonu 303 303, Olsztyn, Olsztyn",53.762034,20.490447,2/3,560 zł,pełna własność,balkon,garaż/miejsce parkingowe,brak informacji,1998,blok,nie,"telewizja kablowa, internet","drzwi / okna antywłamaniowe, domofon / wideofon",cegła,wtórny
1,169 000 zł,37 m²,Sprzedam mieszkanie Żabi Róg (gm. Morąg) 37m2,2,do zamieszkania,Współrzędne dokładne,"Żabi Róg, ostródzki, warmińsko-mazurskie",53.870065,20.011139,parter/2,400 zł,pełna własność,Zapytaj,Zapytaj,brak informacji,1977,blok,nie,telefon,brak informacji,cegła,wtórny
